Fix,FLP,-33.9178646000,151.2277047000,52.20000076293945,0.72241026,6.951,50.94221,1678265302820,,,678135341536127,1.8545476
Fix,GPS,-33.9179028200,151.2277264300,42.90631103515625,0.0,3.7900925,,1678265304000,0.080622576,,678136520458916,2.5
Fix,FLP,-33.9178668000,151.2277070000,52.20000076293945,0.6506445,6.839,53.873425,1678265303826,,,678136346700293,1.8645476
Fix,FLP,-33.9178700000,151.2277056000,52.20000076293945,0.5986256,6.807,56.103737,1678265304329,,,678136849282064,2.077626
Fix,GPS,-33.9179027000,151.2277264100,42.9283447265625,0.0,3.7900925,,1678265305000,0.82680106,,678137520458915,2.5
Fix,FLP,-33.9178673000,151.2277017000,52.20000076293945,0.58519804,6.543,55.3297,1678265304830,,,678137351864981,2.087626
Fix,FLP,-33.9178668000,151.2277002000,52.20000076293945,0.5312473,6.486,55.164715,1678265305836,,,678138357029356,2.087626
Fix,GPS,-33.9178981100,151.2277367400,42.44970703125,1.13,3.7900925,64.6,1678265306000,0.8682166,38.35619,678138520458916,2.5
Fix,NLP,-33.9177720000,151.2275610000,,,83.17528,,1678265306067,,,678138587892678,
Fix,FLP,-33.9178671000,151.2276992000,52.20000076293945,0.52145,6.382,55.334415,1678265306339,,,678138859612689,2.097626
Fix,GPS,-33.9178917600,151.2277538000,42.09979248046875,1.56,3.7900925,64.0,1678265307000,0.87664133,29.558207,678139520459019,2.5
Fix,FLP,-33.9178666000,151.2277005000,52.20000076293945,0.546362,6.367,56.614223,1678265306841,,,678139362196023,2.107626
Fix,GPS,-33.9178866500,151.2277714700,41.79248046875,1.4,3.7900925,74.5,1678265308000,0.82680106,31.142801,678140520458863,2.5
Fix,FLP,-33.9178646000,151.2277070000,52.20000076293945,0.615118,6.441,57.698616,1678265307847,,,678140367361283,2.117626
Fix,FLP,-33.9178625000,151.2277151000,52.20000076293945,0.6558202,6.497,57.14738,1678265308348,,,678140869944616,2.117626
Fix,GPS,-33.9178844200,151.2277898800,41.04736328125,1.47,3.7900925,84.6,1678265309000,0.82680106,29.765087,678141520458811,2.5
Fix,FLP,-33.9178615000,151.2277185000,52.20000076293945,0.743393,6.615,54.98573,1678265308851,,,678141372527950,2.127626
Fix,NLP,-33.9177720000,151.2275610000,,,83.17528,,1678265309072,,,678141593135958,
Fix,FLP,-33.9178600000,151.2277252000,52.10000228881836,0.9800517,6.819,51.2889,1678265309355,,,678141875112168,3.8636444
Fix,GPS,-33.9178831600,151.2278072800,41.30548095703125,1.34,3.7900925,91.6,1678265310000,0.89872134,33.69378,678142520458864,2.5
Fix,FLP,-33.9178511000,151.2277290000,52.10000228881836,0.96987927,6.988,49.93865,1678265309857,,,678142377695502,3.8736444
Fix,FLP,-33.9178464000,151.2277317000,52.10000228881836,1.1035135,7.165,37.257458,1678265310360,,,678142880278835,3.8736444
Fix,GPS,-33.9178808200,151.2278249200,41.87762451171875,1.41,3.7900925,87.3,1678265311000,1.0623088,37.84369,678143520458707,2.5
Fix,FLP,-33.9178406000,151.2277346000,52.10000228881836,1.179838,7.381,30.0506,1678265310862,,,678143382862168,3.8836443
Fix,FLP,-33.9178362000,151.2277410000,52.10000228881836,1.2656125,7.591,29.480833,1678265311365,,,678143885446023,3.8836443
Fix,GPS,-33.9178763400,151.2278417600,42.1263427734375,1.41,3.7900925,79.3,1678265312000,1.0983624,39.00207,678144520458864,2.6417165
Fix,FLP,-33.9178323000,151.2277456000,52.10000228881836,1.3124043,7.842,27.840343,1678265311868,,,678144388029356,3.8936443
Fix,NLP,-33.9177720000,151.2275610000,,,83.17528,,1678265312075,,,678144596091530,
Fix,FLP,-33.9178290000,151.2277560000,52.10000228881836,1.3285704,8.239,35.58935,1678265312369,,,678144890612689,3.8936443
Fix,GPS,-33.9178723500,151.2278598800,42.189697265625,1.45,3.7900925,81.5,1678265313000,0.88752466,31.399267,678145520458707,2.569943
Fix,FLP,-33.9178284000,151.2277622000,52.10000228881836,1.351786,8.381,39.36158,1678265312873,,,678145393196023,3.9036443
Fix,FLP,-33.9178279000,151.2277736000,52.10000228881836,1.3761824,8.599,45.19948,1678265313374,,,678145895778002,3.9036443
Fix,FLP,-33.9178270000,151.2277837000,52.10000228881836,1.3952367,8.94,48.233677,1678265313878,,,678146398361335,3.9036443
Fix,GPS,-33.9178695700,151.2278780800,42.1192626953125,1.54,3.7900925,86.5,1678265314000,0.85982555,29.209124,678146520458863,2.5
Fix,FLP,-33.9178284000,151.2278015000,52.10000228881836,1.4281272,9.331,52.751392,1678265314380,,,678146900944668,3.9136443
Fix,GPS,-33.9178664700,151.2278944500,42.28948974609375,1.45,3.7900925,85.9,1678265315000,0.88752466,31.302921,678147520458811,2.5
Fix,FLP,-33.9178249000,151.2278162000,52.400001525878906,1.4278566,9.433,54.417393,1678265314883,,,678147403528002,1.0113746
Fix,NLP,-33.9177720000,151.2275610000,,,83.17528,,1678265315118,,,678147638600122,
Fix,GPS,-33.9178649800,151.2279075900,42.71136474609375,1.35,3.7900925,86.6,1678265316000,0.8736704,33.0805,678148520458915,2.5
Fix,FLP,-33.9178235000,151.2278275000,52.400001525878906,1.4111214,9.762,56.12949,1678265315887,,,678148408694929,1.0213746
Fix,FLP,-33.9178260000,151.2278453000,52.400001525878906,1.3911997,9.857,60.377163,1678265316892,,,678149413862741,1.0213746
Fix,GPS,-33.9178643200,151.2279207700,41.90325927734375,1.27,3.7900925,91.9,1678265317000,0.840595,33.84496,678149520458811,2.5
Fix,FLP,-33.9178324000,151.2278580000,52.400001525878906,1.3629715,9.831,65.375114,1678265317396,,,678149916446231,1.0313746
Fix,GPS,-33.9178646000,151.2279341800,42.01348876953125,1.21,3.7900925,95.3,1678265318000,0.8544004,35.790237,678150520458915,2.5
Fix,FLP,-33.9178338000,151.2278692000,52.400001525878906,1.3496107,9.831,67.77009,1678265317898,,,678150419031231,1.0413746
Fix,NLP,-33.9177720000,151.2275610000,,,83.17528,,1678265318125,,,678150645909288,
Fix,FLP,-33.9178368000,151.2278810000,52.400001525878906,1.3342397,9.768,70.42587,1678265318401,,,678150921614564,1.0413746
Fix,GPS,-33.9178658600,151.2279485000,42.0997314453125,1.36,3.7900925,98.7,1678265319000,0.88204306,33.395206,678151520458967,2.5
Fix,FLP,-33.9178390000,151.2278903000,52.400001525878906,1.3225908,9.661,72.55725,1678265318903,,,678151424199095,1.0513746
Fix,FLP,-33.9178430000,151.2279054000,52.400001525878906,1.3149273,9.554,75.644966,1678265319405,,,678151926783991,1.0513746
Fix,GPS,-33.9178677600,151.2279637600,41.57763671875,1.43,3.7900925,98.4,1678265320000,0.88481635,31.517588,678152520458811,2.5
Fix,FLP,-33.9178448000,151.2279230000,52.10000228881836,1.3162544,9.471,76.93043,1678265319909,,,678152429369148,1.0113246
Fix,FLP,-33.9178466000,151.2279382000,52.10000228881836,1.3238078,9.318,78.20834,1678265320917,,,678153437000000,1.0113246
Fix,GPS,-33.9178681400,151.2279779800,41.47216796875,1.43,3.7900925,93.9,1678265321000,0.8736704,31.27303,678153520458967,2.5
Fix,GPS,-33.9178702500,151.2279946500,41.61590576171875,1.48,3.7900925,104.7,1678265322000,0.840595,29.675919,678154520458707,2.5
Fix,FLP,-33.9178507000,151.2279575000,52.10000228881836,1.3362608,9.161,80.4062,1678265321918,,,678154439708575,1.0313246
Fix,GPS,-33.9178697400,151.2280064900,41.0791015625,1.14,3.7900925,93.1,1678265323000,0.840595,37.25814,678155520458760,2.5
Fix,FLP,-33.9178543000,151.2279760000,52.10000228881836,1.3523281,9.147,81.894554,1678265322924,,,678155444877793,1.0413246
Fix,GPS,-33.9178724400,151.2280180900,40.767333984375,1.21,3.7900925,114.2,1678265324000,0.83216584,35.348557,678156520458811,2.5
Fix,FLP,-33.9178572000,151.2279941000,52.10000228881836,1.3514581,9.192,83.05891,1678265323929,,,678156450048418,1.0513246
Fix,FLP,-33.9178600000,151.2280024000,52.20000076293945,1.3359376,9.097,84.63451,1678265324431,,,678156952633054,1.3579307
Fix,NLP,-33.9180420000,151.2272810000,,,80.49699,,1678265324961,,,678157482235639,
Fix,GPS,-33.9178765800,151.2280296100,41.43231201171875,1.26,3.7900925,119.0,1678265325000,0.8544004,34.9506,678157520458916,2.5
Fix,FLP,-33.9178578000,151.2280158000,52.20000076293945,1.33125,9.26,84.5617,1678265324935,,,678157455218470,1.3679307
Fix,FLP,-33.9178580000,151.2280219000,52.20000076293945,1.3185288,9.381,85.6887,1678265325436,,,678157957803470,1.3679307
Fix,GPS,-33.9178805800,151.2280426400,42.09063720703125,1.35,3.7900925,110.8,1678265326000,0.88204306,33.56647,678158520458707,2.5
Fix,FLP,-33.9178592000,151.2280264000,52.20000076293945,1.3125168,9.427,86.92606,1678265325940,,,678158460389408,1.3779306
Fix,FLP,-33.9178620000,151.2280380000,52.20000076293945,1.3108643,9.408,88.29931,1678265326442,,,678158962975345,1.3779306
Fix,GPS,-33.9178832200,151.2280587900,42.05133056640625,1.41,3.7900925,109.0,1678265327000,0.85982555,31.415506,678159520458551,2.5
Fix,FLP,-33.9178644000,151.2280416000,52.20000076293945,1.3106962,9.4,89.64627,1678265326944,,,678159465561283,1.3879306
Fix,FLP,-33.9178687000,151.2280551000,52.20000076293945,1.3108227,9.374,91.29569,1678265327448,,,678159968147220,1.3879306
Fix,GPS,-33.9178880700,151.2280768500,42.3109130859375,1.49,3.7900925,114.9,1678265328000,0.85982555,29.875278,678160520458967,2.5
Fix,NLP,-33.9180420000,151.2272810000,,,80.49699,,1678265328046,,,678160566873451,
Fix,FLP,-33.9178717000,151.2280578000,52.20000076293945,1.3122807,9.342,92.82316,1678265327950,,,678160470733158,1.3979306
Fix,FLP,-33.9178762000,151.2280697000,52.20000076293945,1.3176371,9.266,94.37785,1678265328452,,,678160973319616,1.3979306
Fix,GPS,-33.9178916100,151.2280907300,42.82891845703125,1.31,3.7900925,110.7,1678265329000,0.84599054,33.15353,678161520458655,2.5
Fix,FLP,-33.9178795000,151.2280751000,52.20000076293945,1.323754,9.293,95.74922,1678265328954,,,678161475906543,1.4079306
Fix,FLP,-33.9178838000,151.2280800000,52.20000076293945,1.3269217,9.211,98.14737,1678265329458,,,678161978493345,1.9033501
Fix,GPS,-33.9178967300,151.2281031300,43.50726318359375,1.31,3.7900925,117.4,1678265330000,0.8792042,33.95659,678162520459019,2.5
Fix,FLP,-33.9178882000,151.2280958000,52.20000076293945,1.3278677,9.086,98.29438,1678265329961,,,678162481080794,1.9133502
Fix,GPS,-33.9179019400,151.2281139100,44.31951904296875,1.25,3.7900925,119.8,1678265331000,0.85982555,35.182938,678163520458603,2.5
Fix,FLP,-33.9178946000,151.2281099000,52.20000076293945,1.3246521,8.896,99.78615,1678265330966,,,678163486255221,1.9233502
Fix,NLP,-33.9180420000,151.2272810000,,,80.49699,,1678265331067,,,678163587801679,
Fix,GPS,-33.9179080800,151.2281259900,44.5450439453125,1.34,3.7900925,116.6,1678265332000,1.0290287,37.991764,678164520458915,2.5
Fix,FLP,-33.9179019000,151.2281233000,52.20000076293945,1.3140304,8.768,102.416275,1678265331970,,,678164491430325,1.9333502
Fix,FLP,-33.9179077000,151.2281318000,52.20000076293945,1.3058765,8.767,104.86861,1678265332474,,,678164994018815,1.9333502
Fix,GPS,-33.9179165600,151.2281354700,45.0068359375,1.34,3.7900925,121.7,1678265333000,1.0404326,38.005898,678165520458760,2.5
Fix,FLP,-33.9179111000,151.2281369000,52.20000076293945,1.3042084,8.789,106.101524,1678265332975,,,678165496605586,1.9433502
Fix,FLP,-33.9179161000,151.2281461000,52.20000076293945,1.3023676,8.766,107.34136,1678265333478,,,678165999193919,1.9433502
Fix,GPS,-33.9179243700,151.2281465700,45.3519287109375,1.45,3.7900925,118.5,1678265334000,0.8653323,30.711287,678166520458811,2.5
Fix,FLP,-33.9179194000,151.2281500000,52.20000076293945,1.3013054,8.847,108.51501,1678265333980,,,678166501781367,1.9533502
Fix,NLP,-33.9180420000,151.2272810000,,,80.49699,,1678265334083,,,678166603983552,
Fix,FLP,-33.9179239000,151.2281570000,52.20000076293945,1.3058735,8.848,109.6744,1678265334484,,,678167004369231,1.9533502
Fix,GPS,-33.9179314200,151.2281615200,45.486328125,1.65,3.7900925,117.9,1678265335000,0.84599054,27.224806,678167520458864,2.5
Fix,FLP,-33.9179338000,151.2281724000,52.10000228881836,1.310625,8.871,112.82605,1678265334985,,,678167506957773,2.2840443
Fix,FLP,-33.9179382000,151.2281790000,52.10000228881836,1.3187038,8.884,114.04773,1678265335488,,,678168009544544,2.2840443
Fix,GPS,-33.9179399400,151.2281738100,46.2344970703125,1.42,3.7900925,119.0,1678265336000,0.87091905,31.374779,678168520457821,2.5
Fix,FLP,-33.9179417000,151.2281824000,52.10000228881836,1.3278618,8.896,115.206474,1678265335992,,,678168512133086,2.2940443
Fix,GPS,-33.9179437200,151.2281901600,46.1505126953125,1.45,3.7900925,111.5,1678265337000,0.84599054,30.579163,678169520458759,2.5
Fix,FLP,-33.9179500000,151.2281935000,52.10000228881836,1.3373975,8.93,117.25431,1678265336996,,,678169517308034,2.3040442
Fix,NLP,-33.9180420000,151.2272810000,,,80.49699,,1678265337095,,,678169615620947,
Fix,FLP,-33.9179573000,151.2282024000,52.10000228881836,1.3395962,8.969,118.995926,1678265337499,,,678170019894284,2.3040442
Fix,GPS,-33.9179453000,151.2282036900,46.01483154296875,1.09,3.7900925,108.1,1678265338000,0.82680106,38.522366,678170520458707,2.5
Fix,FLP,-33.9179591000,151.2282035000,52.10000228881836,1.3442423,8.984,119.674934,1678265338001,,,678170522482461,2.3140442
Fix,GPS,-33.9179504600,151.2282149200,46.59613037109375,1.17,3.7900925,113.7,1678265339000,0.84599054,36.72526,678171520458707,2.5
Fix,FLP,-33.9179668000,151.2282150000,52.10000228881836,1.3335218,9.059,120.79795,1678265339007,,,678171527656002,2.3240442
Fix,FLP,-33.9179688000,151.2282222000,52.10000228881836,1.3131692,8.9,121.39866,1678265339510,,,678172030242096,2.3240442
Fix,GPS,-33.9179551600,151.2282279000,46.47637939453125,1.26,3.7900925,123.1,1678265340000,0.84599054,34.59837,678172520458811,2.5
Fix,FLP,-33.9179725000,151.2282339000,52.80000305175781,1.2968019,8.599,121.834404,1678265340012,,,678172532828034,2.2115934
Fix,NLP,-33.9180420000,151.2272810000,,,80.49699,,1678265340113,,,678172634336363,
Fix,FLP,-33.9179725000,151.2282394000,52.80000305175781,1.2836933,8.215,122.1602,1678265340514,,,678173035415169,2.2115934
Fix,GPS,-33.9179613700,151.2282430100,46.27752685546875,1.41,3.7900925,116.7,1678265341000,0.85982555,31.589567,678173520458760,2.5
Fix,FLP,-33.9179736000,151.2282434000,52.80000305175781,1.2821927,8.004,122.38558,1678265341018,,,678173538001106,2.2215934
Fix,FLP,-33.9179754000,151.2282515000,52.80000305175781,1.2824988,7.611,122.78272,1678265341519,,,678174040587044,2.2215934
Fix,GPS,-33.9179670500,151.2282604200,46.25518798828125,1.52,3.7900925,111.5,1678265342000,0.8544004,29.598911,678174520458863,2.5
Fix,FLP,-33.9179764000,151.2282545000,52.80000305175781,1.2887672,7.358,123.05549,1678265342022,,,678174543172721,2.2315934
Fix,FLP,-33.9179802000,151.2282651000,52.80000305175781,1.2976501,7.066,123.24142,1678265342524,,,678175045757461,2.2315934
Fix,GPS,-33.9179759300,151.2282744000,46.4183349609375,1.57,3.7900925,127.0,1678265343000,0.84599054,28.30235,678175520458863,2.5
Fix,FLP,-33.9179816000,151.2282682000,52.80000305175781,1.3080078,6.653,123.6687,1678265343028,,,678175548343398,2.2415934
Fix,NLP,-33.9180420000,151.2272810000,,,80.49699,,1678265343153,,,678175674079695,
Fix,GPS,-33.9179823000,151.2282894800,46.4844970703125,1.47,3.7900925,122.7,1678265344000,0.84599054,30.081642,678176520458655,2.5
Fix,FLP,-33.9179875000,151.2282825000,52.80000305175781,1.3203073,6.25,123.96144,1678265344036,,,678176556000000,2.2415934
Fix,GPS,-33.9179923400,151.2283009300,46.8421630859375,1.46,3.7900925,139.2,1678265345000,0.85982555,30.510517,678177520459020,2.5
Fix,FLP,-33.9179926000,151.2282978000,52.80000305175781,1.3384508,5.992,124.02589,1678265345037,,,678177558683502,2.2615933
Fix,GPS,-33.9180001600,151.2283117000,46.7513427734375,1.39,3.7900925,136.2,1678265346000,0.87664133,32.529613,678178520458707,2.5
Fix,FLP,-33.9179988000,151.2283091000,52.80000305175781,1.3416812,6.088,124.90944,1678265345540,,,678178061267148,2.2715933
Fix,NLP,-33.9180420000,151.2272810000,,,80.49699,,1678265346183,,,678178704073600,
Fix,FLP,-33.9180019000,151.2283127000,52.80000305175781,1.3342456,5.968,126.13346,1678265346043,,,678178563852200,2.2715933
Fix,GPS,-33.9180089100,151.2283228500,46.54339599609375,1.4,3.7900925,133.0,1678265347000,0.90972525,33.472984,678179520458707,2.5
Fix,FLP,-33.9180104000,151.2283210000,52.80000305175781,1.3286692,5.968,127.606674,1678265347048,,,678179569020742,2.2815933
Fix,GPS,-33.9180196800,151.2283323700,46.85443115234375,1.44,3.7900925,145.3,1678265348000,0.89872134,31.901245,678180520457770,2.5
Fix,FLP,-33.9180221000,151.2283300000,52.80000305175781,1.3111603,5.861,131.38571,1678265348053,,,678180574188450,2.2915933
Fix,FLP,-33.9180288000,151.2283355000,52.80000305175781,1.3083166,5.771,132.76723,1678265348556,,,678181076773554,2.2915933
Fix,GPS,-33.9180309500,151.2283422900,46.22021484375,1.5,3.7900925,143.5,1678265349000,0.88204306,30.470146,678181520458811,2.5
Fix,NLP,-33.9180420000,151.2272810000,,,80.49699,,1678265349240,,,678181761378338,
Fix,FLP,-33.9180405000,151.2283439000,52.80000305175781,1.3068808,5.293,135.34131,1678265349561,,,678182081940690,2.3015935
Fix,GPS,-33.9180431200,151.2283514200,46.468505859375,1.55,3.7900925,151.5,1678265350000,0.840595,28.446102,678182520458916,2.5
Fix,FLP,-33.9180510000,151.2283542000,52.80000305175781,1.31307,5.097,137.5458,1678265350567,,,678183087108502,2.3115935
Fix,GPS,-33.9180562000,151.2283557900,46.9903564453125,1.53,3.7900925,168.4,1678265351000,0.83216584,28.708395,678183520458967,2.5
Fix,FLP,-33.9180542000,151.2283570000,52.80000305175781,1.3161992,5.121,138.86128,1678265351069,,,678183589692565,2.3215935
Fix,FLP,-33.9180636000,151.2283620000,52.80000305175781,1.3075806,5.29,140.91525,1678265351571,,,678184092276836,2.3215935
Fix,GPS,-33.9180717300,151.2283526700,47.6158447265625,1.57,3.7900925,173.6,1678265352000,0.84599054,28.306023,678184520458915,2.5
Fix,NLP,-33.9180420000,151.2272810000,,,80.49699,,1678265352265,,,678184785880368,
Fix,FLP,-33.9180767000,151.2283638000,52.80000305175781,1.2934874,5.634,145.1378,1678265352577,,,678185097444804,2.3315935
Fix,GPS,-33.9180854700,151.2283471400,48.27960205078125,1.51,3.7900925,180.5,1678265353000,0.8653323,29.481743,678185520458447,2.5
Fix,GPS,-33.9180977200,151.2283418400,48.6500244140625,1.43,3.7900925,176.7,1678265354000,0.88481635,31.73582,678186520458707,2.5
Fix,FLP,-33.9180901000,151.2283606000,52.80000305175781,1.2780899,6.153,149.80945,1678265353582,,,678186102611784,2.3515935
Fix,GPS,-33.9181099000,151.2283379900,49.02362060546875,1.45,3.7900925,178.5,1678265355000,0.8653323,30.588257,678187520458915,2.5
Fix,FLP,-33.9181038000,151.2283555000,52.80000305175781,1.2631599,6.662,154.45465,1678265354587,,,678187107779909,2.3615935
Fix,FLP,-33.9181074000,151.2283517000,52.80000305175781,1.2627112,6.877,156.2025,1678265355090,,,678187610363242,2.3615935
Fix,NLP,-33.9180420000,151.2272810000,,,80.49699,,1678265355307,,,678187827846357,
Fix,GPS,-33.9181226600,151.2283336100,49.16802978515625,1.49,3.7900925,190.5,1678265356000,0.84599054,29.77175,678188520458915,2.5
Fix,FLP,-33.9181171000,151.2283509000,52.80000305175781,1.2641112,6.82,157.69438,1678265355592,,,678188112946575,2.3715935
Fix,FLP,-33.9181225000,151.2283471000,52.80000305175781,1.2715374,6.567,158.92465,1678265356094,,,678188615530898,2.3715935
Fix,GPS,-33.9181353500,151.2283321400,49.38909912109375,1.47,3.7900925,181.0,1678265357000,0.85982555,30.42538,678189520458759,2.5
Fix,FLP,-33.9181317000,151.2283465000,52.80000305175781,1.2786769,6.392,159.97726,1678265356597,,,678189118114231,2.3815935
Fix,FLP,-33.9181372000,151.2283451000,52.80000305175781,1.2869041,6.166,160.84314,1678265357100,,,678189620698190,2.3815935
Fix,GPS,-33.9181464500,151.2283309600,49.504638671875,1.38,3.7900925,183.4,1678265358000,0.84599054,31.862272,678190520458707,2.5
Fix,FLP,-33.9181462000,151.2283457000,52.80000305175781,1.2950516,5.786,161.48178,1678265357602,,,678190123282825,2.3915935
Fix,NLP,-33.9180420000,151.2272810000,,,80.49699,,1678265358319,,,678190839628179,
Fix,FLP,-33.9181523000,151.2283451000,52.80000305175781,1.2984498,5.643,162.10068,1678265358105,,,678190625867044,2.3915935
Fix,GPS,-33.9181576800,151.2283295800,49.8460693359375,1.33,3.7900925,187.8,1678265359000,0.840595,32.526333,678191520458915,2.5
Fix,FLP,-33.9181598000,151.2283457000,52.80000305175781,1.3025863,5.42,162.58192,1678265358608,,,678191128452148,2.4015934
Fix,FLP,-33.9181657000,151.2283451000,52.80000305175781,1.3045415,5.169,162.82729,1678265359110,,,678191631036940,2.4015934
Fix,GPS,-33.9181700500,151.2283276700,49.88543701171875,1.43,3.7900925,189.1,1678265360000,0.85982555,31.104435,678192520458915,2.5
Fix,FLP,-33.9181730000,151.2283459000,52.80000305175781,1.3067936,5.12,162.96562,1678265359612,,,678192133622096,2.4115934
Fix,FLP,-33.9181840000,151.2283465000,52.80000305175781,1.3145562,4.776,163.77895,1678265360618,,,678193138792461,2.4115934
Fix,GPS,-33.9181836500,151.2283262100,49.10406494140625,1.5,3.7900925,194.1,1678265361000,1.012571,33.609383,678193520459019,2.5
Fix,FLP,-33.9181907000,151.2283443000,52.80000305175781,1.3236815,4.555,165.52255,1678265361120,,,678193641378398,2.4215934
Fix,NLP,-33.9180420000,151.2272810000,,,80.49699,,1678265361323,,,678193844184011,
Fix,GPS,-33.9181960400,151.2283248600,48.48956298828125,1.53,3.7900925,202.8,1678265362000,0.8765843,29.362984,678194520458916,2.5
Fix,FLP,-33.9182011000,151.2283431000,52.80000305175781,1.3244307,4.51,167.11401,1678265361622,,,678194143964856,2.4315934
Fix,FLP,-33.9182084000,151.2283387000,52.80000305175781,1.321235,4.739,168.88496,1678265362629,,,678195149135481,2.4315934
Fix,GPS,-33.9182089600,151.2283206800,48.1866455078125,1.52,3.7900925,195.5,1678265363000,1.012571,33.487473,678195520458707,2.5
Fix,FLP,-33.9182198000,151.2283306000,52.80000305175781,1.3249934,5.171,171.50964,1678265363634,,,678196154306211,2.4415934
Fix,GPS,-33.9182233900,151.2283132800,48.6068115234375,1.75,3.7900925,199.3,1678265364000,0.840595,25.652035,678196520458811,2.5
Fix,NLP,-33.9180420000,151.2272810000,,,80.49699,,1678265364328,,,678196848675676,
Fix,FLP,-33.9182328000,151.2283229000,52.80000305175781,1.3409884,5.788,174.09631,1678265364639,,,678197159477929,2.4515934
Fix,GPS,-33.9182373400,151.2283062500,48.088134765625,1.74,3.7900925,210.7,1678265365000,0.82680106,25.601797,678197520458863,2.5
Fix,GPS,-33.9182506100,151.2282981100,48.72760009765625,1.59,3.7900925,210.7,1678265366000,0.83216584,27.736917,678198520458707,2.5
Fix,FLP,-33.9182445000,151.2283130000,52.80000305175781,1.3509083,6.157,177.90126,1678265365643,,,678198164648034,2.4715934
Fix,FLP,-33.9182476000,151.2283088000,52.80000305175781,1.3529131,6.617,179.81403,1678265366147,,,678198667232356,2.4715934
Fix,GPS,-33.9182609300,151.2282877600,48.859130859375,1.51,3.7900925,215.8,1678265367000,1.0068763,33.62897,678199520458707,2.5
Fix,FLP,-33.9182579000,151.2283037000,52.80000305175781,1.3560334,6.654,181.62846,1678265366649,,,678199169818086,2.4815934
Fix,NLP,-33.9180420000,151.2272810000,,,80.49699,,1678265367340,,,678199861446821,
Fix,FLP,-33.9182690000,151.2282932000,52.80000305175781,1.3553554,6.918,185.2405,1678265367654,,,678200174988138,2.4815934
Fix,GPS,-33.9182709700,151.2282775800,48.89959716796875,1.39,3.7900925,222.9,1678265368000,0.8653323,32.03933,678200520458759,2.5
Fix,FLP,-33.9182734000,151.2282844000,52.80000305175781,1.3406699,6.911,188.88867,1678265368157,,,678200677574075,2.4915934
Fix,GPS,-33.9182816300,151.2282661500,48.928955078125,1.5,3.7900925,218.0,1678265369000,0.89872134,30.680502,678201520458030,2.5
Fix,FLP,-33.9182794000,151.2282781000,52.80000305175781,1.3211923,6.915,191.0185,1678265368659,,,678201180158346,2.5015934
Fix,FLP,-33.9182846000,151.2282733000,52.80000305175781,1.3215836,6.929,192.66025,1678265369161,,,678201682744284,2.5015934
Fix,GPS,-33.9182886000,151.2282532000,49.2449951171875,1.36,3.7900925,239.4,1678265370000,0.83216584,31.95059,678202520458864,2.5
Fix,FLP,-33.9182900000,151.2282679000,52.80000305175781,1.3219676,6.888,194.32437,1678265369665,,,678202185330221,2.5115933
Fix,NLP,-33.9180420000,151.2272810000,,,80.49699,,1678265370379,,,678202900353278,
Fix,FLP,-33.9182943000,151.2282608000,52.80000305175781,1.2934864,6.838,196.58788,1678265370167,,,678202687914909,2.5115933
Fix,GPS,-33.9182948600,151.2282381900,49.57000732421875,1.46,3.7900925,240.2,1678265371000,0.8653323,30.705437,678203520458759,2.5
Fix,FLP,-33.9182964000,151.2282548000,52.80000305175781,1.2687997,6.849,198.83377,1678265370669,,,678203190500586,2.5215933
Fix,FLP,-33.9183037000,151.2282436000,52.80000305175781,1.2566847,6.86,201.31128,1678265371674,,,678204195671992,2.5215933
Fix,GPS,-33.9183031600,151.2282257600,48.94390869140625,1.65,3.7900925,245.3,1678265372000,0.85146934,27.124908,678204520458811,2.5
Fix,FLP,-33.9183120000,151.2282260000,52.80000305175781,1.2434602,6.831,206.15686,1678265372680,,,678205200843346,2.5315933
Fix,GPS,-33.9183108900,151.2282130600,48.7056884765625,1.61,3.7900925,245.7,1678265373000,0.85982555,27.88321,678205520458759,2.5
Fix,NLP,-33.9180420000,151.2272810000,,,80.49699,,1678265373382,,,678205903441871,
Fix,FLP,-33.9183198000,151.2282107000,52.80000305175781,1.2356502,6.879,210.98521,1678265373686,,,678206206014388,2.5415936
Fix,GPS,-33.9183169800,151.2281963100,49.2818603515625,1.71,3.7900925,253.7,1678265374000,0.84599054,26.242424,678206520458863,2.5
Fix,FLP,-33.9183261000,151.2281939000,52.80000305175781,1.237022,6.943,215.7957,1678265374690,,,678207211186263,2.5515935
Fix,GPS,-33.9183233400,151.2281808500,49.30963134765625,1.55,3.7900925,248.9,1678265375000,0.8682166,29.226864,678207520458968,2.5
Fix,GPS,-33.9183272300,151.2281652000,48.505859375,1.54,3.7900925,257.8,1678265376000,0.8653323,29.152695,678208520458707,2.5
Fix,FLP,-33.9183315000,151.2281778000,52.80000305175781,1.2432873,6.958,220.03462,1678265375696,,,678208216359388,2.5715935
Fix,FLP,-33.9183313000,151.2281713000,52.80000305175781,1.2367857,6.935,222.4655,1678265376198,,,678208718945325,2.5715935
Fix,NLP,-33.9180420000,151.2272810000,,,80.49699,,1678265376422,,,678208942584526,
Fix,GPS,-33.9183306300,151.2281517900,47.98199462890625,1.46,3.7900925,265.1,1678265377000,0.8736704,30.799566,678209520458811,2.5
Fix,FLP,-33.9183344000,151.2281600000,52.80000305175781,1.2305741,6.924,224.95555,1678265376700,,,678209221531263,2.5815935
Fix,FLP,-33.9183345000,151.2281541000,52.80000305175781,1.2165396,6.915,227.5112,1678265377203,,,678209724117200,2.5815935
Fix,GPS,-33.9183342900,151.2281431100,47.1722412109375,1.17,3.7900925,263.3,1678265378000,0.83216584,36.230328,678210520458916,2.5
Fix,FLP,-33.9183361000,151.2281449000,52.80000305175781,1.2056379,6.982,230.05585,1678265377705,,,678210226704440,2.5915935
Fix,FLP,-33.9183379000,151.2281396000,52.80000305175781,1.1778805,6.938,232.545,1678265378208,,,678210729290377,2.5915935
Fix,GPS,-33.9183379300,151.2281305500,46.9425048828125,1.3,3.7900925,260.0,1678265379000,0.83216584,33.27787,678211520458707,2.5
Fix,FLP,-33.9183397000,151.2281331000,52.80000305175781,1.1581264,6.915,234.74928,1678265378711,,,678211231876315,2.6015935
Fix,NLP,-33.9180420000,151.2272810000,,,80.49699,,1678265379501,,,678212022252806,
Fix,FLP,-33.9183409000,151.2281263000,52.80000305175781,1.1549191,6.635,236.4117,1678265379213,,,678211734463450,2.6015935
Fix,GPS,-33.9183416300,151.2281176100,47.0479736328125,1.32,3.7900925,255.3,1678265380000,0.83216584,32.73025,678212520458655,2.5
Fix,FLP,-33.9183423000,151.2281192000,52.80000305175781,1.1548263,6.489,237.84824,1678265379716,,,678212237049388,2.6115935
Fix,FLP,-33.9183434000,151.2281136000,52.80000305175781,1.1586711,6.178,239.09024,1678265380219,,,678212739635325,2.6115935
Fix,FLP,-33.9183449000,151.2281062000,52.80000305175781,1.1629052,6.041,240.32693,1678265380721,,,678213242221263,2.6115935
Fix,GPS,-33.9183447900,151.2281017900,46.97705078125,1.47,3.7900925,255.5,1678265381000,1.0151354,34.7085,678213520458916,2.5
Fix,FLP,-33.9183467000,151.2280961000,52.80000305175781,1.1754991,5.622,242.4679,1678265381224,,,678213744807200,2.6215935
Fix,FLP,-33.9183479000,151.2280887000,52.80000305175781,1.1861454,5.538,243.60858,1678265381726,,,678214247393138,2.6215935
Fix,GPS,-33.9183507700,151.2280866900,46.75921630859375,1.48,3.7900925,249.9,1678265382000,1.0404326,35.04533,678214520458967,2.5
Fix,NLP,-33.9180420000,151.2272810000,,,80.49699,,1678265382509,,,678215029729211,
Fix,FLP,-33.9183512000,151.2280719000,52.80000305175781,1.2077146,5.168,245.5704,1678265382732,,,678215252565013,2.6315935
Fix,GPS,-33.9183549200,151.2280691200,46.72760009765625,1.73,3.7900925,263.1,1678265383000,0.82680106,25.7352,678215520458915,2.5
Fix,FLP,-33.9183518000,151.2280644000,52.0,1.2429329,5.117,246.97588,1678265383736,,,678216257737721,2.0668905
Fix,GPS,-33.9183574600,151.2280517200,46.557861328125,1.71,3.7900925,265.5,1678265384000,0.84599054,26.185854,678216520458655,2.5
Fix,FLP,-33.9183579000,151.2280417000,52.0,1.2934581,4.869,248.87286,1678265384240,,,678216760324284,2.0768905
Fix,GPS,-33.9183593900,151.2280385300,46.7578125,1.53,3.7900925,268.4,1678265385000,0.84599054,29.076473,678217520458863,2.5
Fix,FLP,-33.9183589000,151.2280374000,52.0,1.3081473,5.02,249.64142,1678265384742,,,678217262909940,2.0868905
Fix,NLP,-33.9180420000,151.2272810000,,,80.49699,,1678265385514,,,678218034891449,
Fix,FLP,-33.9183615000,151.2280259000,52.0,1.3243852,5.371,251.43105,1678265385747,,,678218268081815,2.0868905
Fix,GPS,-33.9183642500,151.2280257000,46.27496337890625,1.53,3.7900925,253.5,1678265386000,0.8544004,29.21182,678218520459019,2.5
Fix,FLP,-33.9183636000,151.2280209000,52.0,1.3350657,5.595,252.41875,1678265386250,,,678218770669211,2.0968904
Fix,GPS,-33.9183679600,151.2280137300,45.94757080078125,1.35,3.7900925,256.0,1678265387000,0.8544004,32.588264,678219520458760,2.5
Fix,FLP,-33.9183670000,151.2280115000,52.0,1.3423864,5.856,252.4998,1678265386753,,,678219273255773,2.1068904
Fix,FLP,-33.9183688000,151.2280065000,52.0,1.341582,6.008,252.66634,1678265387255,,,678219775841503,2.1068904
Fix,FLP,-33.9183712000,151.2279984000,52.0,1.3413063,6.409,252.79488,1678265387758,,,678220278427440,2.1168904
Fix,GPS,-33.9183696200,151.2280027500,45.5299072265625,1.28,3.7900925,265.2,1678265388000,0.84599054,34.07769,678220520458967,2.5
Fix,NLP,-33.9180420000,151.2272810000,,,80.49699,,1678265388523,,,678221044278688,
Fix,FLP,-33.9183726000,151.2279922000,52.0,1.3325478,6.461,253.70575,1678265388260,,,678220781013378,2.1168904
Fix,GPS,-33.9183720000,151.2279886100,45.44390869140625,1.39,3.7900925,263.3,1678265389000,0.8736704,32.186253,678221520458655,2.5
Fix,FLP,-33.9183731000,151.2279869000,52.0,1.3265384,6.614,254.54686,1678265388763,,,678221283599211,2.1268904
Fix,FLP,-33.9183732000,151.2279795000,52.0,1.3222059,6.596,255.34564,1678265389266,,,678221786183690,2.1268904
Fix,GPS,-33.9183739800,151.2279694600,45.25091552734375,1.53,3.7900925,266.9,1678265390000,0.840595,28.719654,678222520458916,2.5
Fix,FLP,-33.9183728000,151.2279750000,52.0,1.3228104,6.435,256.14685,1678265389768,,,678222288769628,2.1368904
Fix,FLP,-33.9183733000,151.2279645000,52.0,1.3293651,6.202,256.81808,1678265390270,,,678222791354523,2.1368904
Fix,GPS,-33.9183753200,151.2279497500,44.92620849609375,1.65,3.7900925,263.4,1678265391000,0.85146934,27.130386,678223520458550,2.5
Fix,FLP,-33.9183731000,151.2279589000,52.0,1.338317,6.019,257.45483,1678265390772,,,678223293940253,2.1468904
Fix,FLP,-33.9183748000,151.2279501000,52.0,1.3530279,5.945,257.7401,1678265391275,,,678223796524107,2.1468904
Fix,NLP,-33.9180420000,151.2272810000,,,80.49699,,1678265391577,,,678224098105770,
Fix,FLP,-33.9183762000,151.2279417000,52.0,1.3679347,5.986,257.99414,1678265391779,,,678224299109940,2.1468904
Fix,GPS,-33.9183781100,151.2279308200,44.50653076171875,1.76,3.7900925,257.4,1678265392000,0.840595,25.336308,678224520458811,2.5
Fix,FLP,-33.9183781000,151.2279285000,52.0,1.3978438,5.97,258.15524,1678265392280,,,678224801693534,2.1568904
Fix,GPS,-33.9183839600,151.2279154400,44.34405517578125,1.76,3.7900925,248.0,1678265393000,0.83216584,25.31505,678225520458864,2.5
Fix,FLP,-33.9183795000,151.2279198000,52.0,1.4152291,5.97,257.91806,1678265392783,,,678225304279055,2.1568904
Fix,FLP,-33.9183824000,151.2279083000,52.0,1.439679,5.998,256.9756,1678265393286,,,678225806862440,2.1668904
Fix,GPS,-33.9183926800,151.2279061200,44.43829345703125,1.59,3.7900925,229.3,1678265394000,0.8736704,28.573833,678226520458499,2.5
Fix,FLP,-33.9183846000,151.2279037000,52.0,1.4474589,6.095,255.90807,1678265393789,,,678226309447753,2.1768904
Fix,NLP,-33.9180420000,151.2272810000,,,80.49699,,1678265394619,,,678227139933113,
Fix,FLP,-33.9183922000,151.2278925000,52.0,1.444546,6.272,253.21892,1678265394794,,,678227314616190,2.1768904
Fix,GPS,-33.9184023900,151.2278986100,44.48382568359375,1.38,3.7900925,222.7,1678265395000,0.85982555,32.03806,678227520458863,2.5
Fix,FLP,-33.9183985000,151.2278889000,52.0,1.4214985,6.411,250.35796,1678265395296,,,678227817199523,2.1868904
Fix,GPS,-33.9184097200,151.2278892400,44.4239501953125,1.38,3.7900925,240.5,1678265396000,0.82680106,31.428246,678228520458655,2.5
Fix,FLP,-33.9184035000,151.2278826000,52.0,1.408761,6.749,249.05228,1678265395799,,,678228319782857,2.1968904
Fix,FLP,-33.9184067000,151.2278794000,52.0,1.4060563,6.772,248.63495,1678265396301,,,678228822367700,2.1968904
Fix,GPS,-33.9184152100,151.2278769200,44.25982666015625,1.47,3.7900925,239.5,1678265397000,1.0151354,34.852627,678229520458707,2.5
Fix,FLP,-33.9184107000,151.2278724000,52.0,1.4030108,6.863,248.59589,1678265396803,,,678229324951034,2.2068903
Fix,FLP,-33.9184143000,151.2278680000,52.0,1.4006921,6.788,249.1014,1678265397307,,,678229827534367,2.2068903
Fix,NLP,-33.9180420000,151.2272810000,,,80.49699,,1678265397659,,,678230180301080,
Fix,GPS,-33.9184167800,151.2278596100,44.4918212890625,1.54,3.7900925,263.9,1678265398000,0.87091905,29.310173,678230520458655,2.5
Fix,FLP,-33.9184168000,151.2278599000,52.0,1.3977901,6.691,250.16246,1678265397809,,,678230330117700,2.2168903
Fix,FLP,-33.9184186000,151.2278514000,52.0,1.3948762,6.409,252.14906,1678265398311,,,678230832701034,2.2168903
Fix,GPS,-33.9184170900,151.2278426100,44.66253662109375,1.52,3.7900925,268.2,1678265399000,0.85982555,29.355787,678231520458915,2.5
Fix,FLP,-33.9184190000,151.2278449000,52.0,1.3968359,6.153,253.21835,1678265398815,,,678231335284367,2.2268903
Fix,FLP,-33.9184202000,151.2278345000,52.0,1.397583,6.087,254.04182,1678265399316,,,678231837867700,2.2268903
Fix,GPS,-33.9184196900,151.2278258600,44.827392578125,1.54,3.7900925,261.5,1678265400000,0.8792042,29.468843,678232520458863,2.5
Fix,FLP,-33.9184203000,151.2278295000,52.0,1.4022719,6.069,254.54926,1678265399820,,,678232340451034,2.2368903
Fix,NLP,-33.9180420000,151.2272810000,,,80.49699,,1678265400686,,,678233206863735,
Fix,FLP,-33.9184227000,151.2278144000,52.0,1.4104768,6.03,254.71718,1678265400825,,,678233345616190,2.2368903
Fix,GPS,-33.9184250200,151.2278058900,44.615478515625,1.86,3.7900925,252.6,1678265401000,0.82680106,23.999628,678233520458968,2.5
Fix,FLP,-33.9184267000,151.2277936000,52.0,1.4388357,5.889,255.07033,1678265401830,,,678234350782857,2.2468903
Fix,GPS,-33.9184275100,151.2277852200,44.705810546875,1.63,3.7900925,259.1,1678265402000,0.8653323,27.636936,678234520458186,2.5
Fix,FLP,-33.9184292000,151.2277737000,52.0,1.4671427,6.061,255.65965,1678265402835,,,678235355947857,2.2568903
Fix,GPS,-33.9184325400,151.2277689200,44.24737548828125,1.63,3.7900925,249.7,1678265403000,0.85146934,27.488525,678235520458655,2.5
Fix,NLP,-33.9180420000,151.2272810000,,,80.49699,,1678265403702,,,678236222586547,
Fix,GPS,-33.9184372700,151.2277565700,44.10992431640625,1.38,3.7900925,250.8,1678265404000,0.840595,31.510849,678236520458968,2.5
Fix,FLP,-33.9184353000,151.2277562000,52.0,1.4735687,6.669,254.39647,1678265403840,,,678236361112753,2.2768903
Fix,FLP,-33.9184410000,151.2277416000,52.0,1.4681823,6.751,252.71477,1678265404845,,,678237366277596,2.2768903
Fix,GPS,-33.9184444800,151.2277442700,44.02606201171875,1.52,3.7900925,238.1,1678265405000,1.059481,35.28562,678237520458863,2.5
Fix,FLP,-33.9184437000,151.2277359000,52.0,1.4650465,6.822,251.70175,1678265405348,,,678237868860930,2.2868903
Fix,GPS,-33.9184494600,151.2277327700,43.75,1.4,3.7900925,252.3,1678265406000,0.8653323,31.858263,678238520458811,2.5
Fix,FLP,-33.9184475000,151.2277274000,52.0,1.4647745,6.857,250.85684,1678265405850,,,678238371442232,2.2968905
Fix,FLP,-33.9184503000,151.2277227000,52.0,1.4591912,6.857,250.10757,1678265406354,,,678238874023846,2.2968905
Fix,NLP,-33.9180420000,151.2272810000,,,80.49699,,1678265406706,,,678239227073681,
Fix,GPS,-33.9184535300,151.2277202900,43.8182373046875,1.32,3.7900925,250.6,1678265407000,0.85982555,33.534523,678239520458812,2.5
Fix,FLP,-33.9184526000,151.2277163000,52.0,1.4553535,6.862,250.07646,1678265406856,,,678239376606815,2.3068905
Fix,FLP,-33.9184556000,151.2277094000,52.0,1.443726,6.875,250.04759,1678265407359,,,678239879189784,2.3068905
Fix,GPS,-33.9184582400,151.2277045700,44.1336669921875,1.51,3.7900925,249.8,1678265408000,0.85982555,29.45971,678240520458864,2.5
Fix,FLP,-33.9184575000,151.2277046000,52.0,1.4384276,6.899,250.0848,1678265407861,,,678240381770878,2.3168905
Fix,FLP,-33.9184611000,151.2276951000,52.0,1.4343305,6.916,250.00047,1678265408364,,,678240884353638,2.3168905
Fix,GPS,-33.9184643100,151.2276881900,44.23687744140625,1.51,3.7900925,243.9,1678265409000,0.8544004,29.719315,678241520458916,2.5
Fix,FLP,-33.9184627000,151.2276909000,52.0,1.4388968,6.925,249.95116,1678265408865,,,678241386934575,2.3268905
Fix,FLP,-33.9184660000,151.2276832000,52.0,1.4426632,6.91,249.6388,1678265409369,,,678241889517232,2.3268905
Fix,NLP,-33.9180420000,151.2272810000,,,80.49699,,1678265409710,,,678242231217169,
Fix,FLP,-33.9184691000,151.2276759000,52.0,1.4471412,6.884,249.44351,1678265409871,,,678242392097961,2.3268905
Fix,GPS,-33.9184689000,151.2276727600,44.44268798828125,1.68,3.7900925,255.4,1678265410000,0.84599054,26.784971,678242520458864,2.5
Fix,FLP,-33.9184724000,151.2276652000,52.0,1.4585294,6.816,249.54723,1678265410373,,,678242894679471,2.3368905
Fix,GPS,-33.9184751600,151.2276583100,44.27301025390625,1.64,3.7900925,250.1,1678265411000,0.85982555,27.476582,678243520458707,2.5
Fix,FLP,-33.9184739000,151.2276585000,52.0,1.4683452,6.829,249.69244,1678265410876,,,678243397261867,2.3468904
Fix,FLP,-33.9184771000,151.2276476000,52.0,1.4816707,6.789,249.71454,1678265411378,,,678243899842596,2.3468904
Fix,GPS,-33.9184804700,151.2276433400,44.33203125,1.48,3.7900925,247.5,1678265412000,1.0290287,35.03498,678244520458864,2.5
Fix,FLP,-33.9184786000,151.2276430000,52.0,1.488985,6.786,249.5083,1678265411881,,,678244402425044,2.3568904
Fix,NLP,-33.9180420000,151.2272810000,,,80.49699,,1678265412731,,,678245251864929,
Fix,GPS,-33.9184849200,151.2276284800,44.68603515625,1.43,3.7900925,244.0,1678265413000,0.840595,30.649996,678245520458864,2.5
Fix,FLP,-33.9184839000,151.2276284000,52.0,1.493783,6.777,249.01776,1678265412886,,,678245407586971,2.3668904
Fix,FLP,-33.9184896000,151.2276142000,52.0,1.4899669,6.732,248.37933,1678265413892,,,678246412749575,2.3668904
Fix,GPS,-33.9184889200,151.2276124700,44.204345703125,1.48,3.7900925,240.1,1678265414000,1.0234256,34.728035,678246520458863,2.5
Fix,GPS,-33.9184977300,151.2276003600,43.9398193359375,1.4,3.7900925,227.4,1678265415000,0.87091905,31.810905,678247520458707,2.5
Fix,FLP,-33.9184965000,151.2276000000,52.0,1.4813845,6.646,246.90001,1678265414897,,,678247417911867,2.3868904
Fix,FLP,-33.9185011000,151.2275934000,52.0,1.4744427,6.474,246.02248,1678265415400,,,678247920492596,2.3868904
Fix,NLP,-33.9180420000,151.2272810000,,,80.49699,,1678265415800,,,678248321422740,
Fix,GPS,-33.9185080400,151.2275894300,43.6502685546875,1.49,3.7900925,223.0,1678265416000,1.0429286,34.89557,678248520458915,2.5
Fix,FLP,-33.9185058000,151.2275866000,52.0,1.4689629,6.233,245.1878,1678265415903,,,678248423073325,2.3968904
Fix,FLP,-33.9185112000,151.2275793000,52.0,1.4653254,5.989,244.24059,1678265416404,,,678248925655305,2.3968904
Fix,GPS,-33.9185177800,151.2275759200,43.7801513671875,1.53,3.7900925,223.4,1678265417000,0.8653323,29.36175,678249520458343,2.5
Fix,FLP,-33.9185155000,151.2275742000,52.0,1.4645177,5.827,243.39398,1678265416908,,,678249428236034,2.4068904
Fix,FLP,-33.9185217000,151.2275658000,52.0,1.4628354,5.528,242.42937,1678265417410,,,678249930816763,2.4068904
Fix,GPS,-33.9185273200,151.2275638600,43.79656982421875,1.54,3.7900925,214.8,1678265418000,0.89872134,29.69974,678250520458968,2.5
Fix,FLP,-33.9185256000,151.2275617000,52.0,1.46167,5.302,241.37465,1678265417913,,,678250433397492,2.4168904
Fix,NLP,-33.9180420000,151.2272810000,,,80.49699,,1678265418842,,,678251362844353,
Fix,FLP,-33.9185319000,151.2275524000,52.0,1.4485266,5.284,239.899,1678265418414,,,678250935977180,2.4168904
Fix,GPS,-33.9185384700,151.2275499600,43.83489990234375,1.63,3.7900925,220.5,1678265419000,0.87091905,27.721155,678251520458915,2.5
Fix,FLP,-33.9185344000,151.2275519000,52.0,1.4397982,5.129,238.45006,1678265418918,,,678251438557492,2.4268904
Fix,FLP,-33.9185399000,151.2275454000,52.0,1.4420182,5.16,237.30716,1678265419421,,,678251941138221,2.4268904
Fix,FLP,-33.9185454000,151.2275402000,52.0,1.4423499,5.37,235.97763,1678265419922,,,678252443718950,2.4268904
Fix,GPS,-33.9185503900,151.2275374400,44.328125,1.66,3.7900925,213.8,1678265420000,0.8792042,27.456625,678252520458864,2.5
Fix,GPS,-33.9185636800,151.2275285700,44.8438720703125,1.67,3.7900925,203.4,1678265421000,0.84599054,26.958118,678253520458759,2.5
Fix,FLP,-33.9185576000,151.2275290000,52.0,1.4422427,5.774,233.23688,1678265420927,,,678253448880409,2.4468904
Fix,FLP,-33.9185673000,151.2275219000,52.0,1.4376181,6.181,230.2739,1678265421430,,,678253951461138,2.4468904
Fix,NLP,-33.9180420000,151.2272810000,,,80.49699,,1678265421864,,,678254384784196,
Fix,GPS,-33.9185768700,151.2275218900,45.2921142578125,1.56,3.7900925,197.5,1678265422000,0.83216584,28.27924,678254520458811,2.5
Fix,FLP,-33.9185714000,151.2275205000,52.0,1.435372,6.365,228.64795,1678265421934,,,678254454041867,2.4568903
Fix,GPS,-33.9185883900,151.2275155200,45.28826904296875,1.34,3.7900925,200.2,1678265423000,0.82680106,32.413406,678255520458760,2.5
Fix,FLP,-33.9185837000,151.2275126000,52.0,1.4189217,6.604,225.22116,1678265422939,,,678255459203325,2.4668903
Fix,GPS,-33.9185992900,151.2275099400,45.3443603515625,1.34,3.7900925,197.3,1678265424000,0.83216584,32.429276,678256520458968,2.5
Fix,FLP,-33.9185961000,151.2275065000,52.0,1.3896079,6.816,221.82162,1678265423944,,,678256464365669,2.4768903
Fix,NLP,-33.9180420000,151.2272810000,,,80.49699,,1678265424874,,,678257394870862,
Fix,GPS,-33.9186130500,151.2275080400,45.0289306640625,1.55,3.7900925,182.2,1678265425000,0.83216584,28.483185,678257520458915,2.5
Fix,FLP,-33.9186084000,151.2275022000,52.0,1.3567317,6.713,218.5586,1678265424949,,,678257469528378,2.4868903
Fix,FLP,-33.9186169000,151.2275023000,52.0,1.3335394,6.695,214.92093,1678265425452,,,678257972110930,2.4868903
Fix,GPS,-33.9186267600,151.2275080700,45.0404052734375,1.5,3.7900925,175.4,1678265426000,0.8765843,29.961468,678258520458863,2.5
Fix,FLP,-33.9186232000,151.2275027000,52.0,1.3229948,6.75,212.60858,1678265425954,,,678258474691659,2.4968903
Fix,FLP,-33.9186323000,151.2275029000,52.0,1.3035618,6.821,208.27133,1678265426457,,,678258977274367,2.4968903
Fix,GPS,-33.9186407800,151.2275135300,45.605712890625,1.65,3.7900925,160.6,1678265427000,0.840595,26.978706,678259520459020,2.5
Fix,FLP,-33.9186380000,151.2275030000,52.0,1.2935214,6.923,205.93831,1678265426958,,,678259479855096,2.5068903
Fix,FLP,-33.9186475000,151.2275060000,52.0,1.2839861,6.909,203.15099,1678265427461,,,678259982437648,2.5068903
Fix,NLP,-33.9180420000,151.2272810000,,,80.49699,,1678265427916,,,678260436948256,
Fix,GPS,-33.9186553700,151.2275176300,45.81658935546875,1.6,3.7900925,168.5,1678265428000,0.89872134,28.761944,678260520458863,2.5
Fix,FLP,-33.9186533000,151.2275100000,52.0,1.27818,6.878,200.49916,1678265427965,,,678260485018586,2.5168903
Fix,FLP,-33.9186598000,151.2275111000,52.0,1.2813097,6.86,198.63841,1678265428466,,,678260987600878,2.5168903
Fix,GPS,-33.9186704500,151.2275210200,45.5654296875,1.66,3.7900925,170.8,1678265429000,0.8653323,27.087513,678261520458915,2.5
Fix,FLP,-33.9186663000,151.2275137000,52.0,1.2902001,6.836,195.55263,1678265428970,,,678261490182180,2.5268903
Fix,FLP,-33.9186744000,151.2275149000,52.0,1.2989249,6.825,193.96834,1678265429472,,,678261992764732,2.5268903
Fix,FLP,-33.9186812000,151.2275167000,52.0,1.3074803,6.817,192.30678,1678265429975,,,678262495346294,2.5268903
Fix,GPS,-33.9186829500,151.2275268900,45.8424072265625,1.53,3.7900925,162.6,1678265430000,1.020784,33.68683,678262520458863,2.5
Fix,FLP,-33.9186908000,151.2275215000,52.0,1.314097,6.795,188.9983,1678265430477,,,678262997929211,2.5368903
Fix,NLP,-33.9180420000,151.2272810000,,,80.49699,,1678265430955,,,678263476276901,
Fix,GPS,-33.9186945600,151.2275345800,46.0584716796875,1.52,3.7900925,155.5,1678265431000,1.032279,33.748875,678263520458863,2.5
Fix,FLP,-33.9186955000,151.2275249000,52.0,1.3158773,6.782,187.25,1678265430979,,,678263500511398,2.5468905
Fix,FLP,-33.9187040000,151.2275299000,52.0,1.3126793,6.621,183.88167,1678265431482,,,678264003094159,2.5468905
Fix,GPS,-33.9187059800,151.2275429300,46.79852294921875,1.49,3.7900925,150.4,1678265432000,0.84599054,29.678234,678264520458915,2.5
Fix,FLP,-33.9187060000,151.2275330000,52.0,1.3098536,6.617,182.03087,1678265431985,,,678264505677492,2.5568905
Fix,FLP,-33.9187149000,151.2275390000,52.0,1.3033423,6.588,178.51547,1678265432488,,,678265008260825,2.5568905
Fix,GPS,-33.9187157400,151.2275512700,46.5743408203125,1.32,3.7900925,155.4,1678265433000,0.84599054,32.896908,678265520458915,2.5
Fix,FLP,-33.9187164000,151.2275424000,52.0,1.3029187,6.591,176.82822,1678265432990,,,678265510844159,2.5668905
Fix,NLP,-33.9180420000,151.2272810000,,,80.49699,,1678265433999,,,678266519535389,
Fix,GPS,-33.9187261700,151.2275584600,46.5634765625,1.36,3.7900925,166.1,1678265434000,0.85146934,32.26524,678266520458759,2.5
Fix,FLP,-33.9187289000,151.2275496000,52.0,1.3005061,6.605,173.83531,1678265433995,,,678266516012544,2.5668905
Fix,FLP,-33.9187349000,151.2275568000,52.0,1.2992119,6.51,171.32478,1678265434501,,,678267021000000,2.5768905
Fix,GPS,-33.9187363500,151.2275722900,46.58026123046875,1.61,3.7900925,144.7,1678265435000,1.020784,32.33277,678267520458602,2.5
Fix,FLP,-33.9187408000,151.2275616000,52.0,1.2977588,6.374,169.92189,1678265435000,,,678267521181294,2.5868905
Fix,FLP,-33.9187471000,151.2275682000,52.0,1.3025838,6.11,167.38127,1678265435502,,,678268023765773,2.5868905
Fix,GPS,-33.9187450300,151.2275864800,46.1085205078125,1.45,3.7900925,136.4,1678265436000,0.8653323,30.717375,678268520458655,2.5
Fix,FLP,-33.9187517000,151.2275729000,52.0,1.3112129,5.977,166.12392,1678265436006,,,678268526350513,2.5968904
Fix,FLP,-33.9187588000,151.2275811000,52.0,1.3178864,5.673,163.73375,1678265436508,,,678269028935305,2.5968904
Fix,NLP,-33.9180420000,151.2272810000,,,80.49699,,1678265437038,,,678269559056117,
Fix,GPS,-33.9187554300,151.2275976900,46.1605224609375,1.56,3.7900925,136.4,1678265437000,0.88481635,29.096977,678269520458967,2.5
Fix,FLP,-33.9187614000,151.2275850000,52.0,1.322457,5.469,162.69086,1678265437011,,,678269531519940,2.6068904
Fix,FLP,-33.9187675000,151.2275918000,52.0,1.3296359,5.293,161.48582,1678265437514,,,678270034104836,2.6068904
Fix,GPS,-33.9187677100,151.2276064900,46.6646728515625,1.58,3.7900925,144.6,1678265438000,0.87091905,28.642841,678270520458915,2.5
Fix,FLP,-33.9187717000,151.2275986000,52.0,1.3414395,5.079,159.47191,1678265438016,,,678270536689315,2.6168904
Fix,FLP,-33.9187777000,151.2276047000,52.0,1.3479624,4.98,158.62431,1678265438519,,,678271039274263,2.6168904
Fix,GPS,-33.9187771600,151.2276160100,47.0517578125,1.54,3.7900925,139.4,1678265439000,0.8905055,29.534073,678271520458863,2.5
Fix,FLP,-33.9187808000,151.2276091000,52.0,1.3566225,4.95,157.93335,1678265439021,,,678271541858690,2.6268904
Fix,GPS,-33.9187885600,151.2276232300,46.52203369140625,1.48,3.7900925,148.8,1678265440000,0.87091905,30.378588,678272520458447,2.5
Fix,FLP,-33.9187908000,151.2276197000,52.0,1.368279,5.045,156.25322,1678265440027,,,678272547027626,2.6368904
Fix,FLP,-33.9187991000,151.2276272000,52.0,1.3742348,5.389,154.85706,1678265440529,,,678273049612210,2.6368904
Fix,GPS,-33.9187971600,151.2276317300,46.69293212890625,1.41,3.7900925,134.8,1678265441000,0.8653323,31.549255,678273520458863,2.5
Fix,FLP,-33.9188004000,151.2276289000,52.0,1.3797659,5.583,154.41853,1678265441032,,,678273552196324,2.6468904
Fix,GPS,-33.9188040600,151.2276396000,46.61572265625,1.32,3.7900925,130.2,1678265442000,0.85146934,33.163525,678274520458707,2.5
Fix,FLP,-33.9188098000,151.2276386000,52.0,1.3789786,5.973,152.91693,1678265442037,,,678274557364033,2.6568904
Fix,GPS,-33.9188125700,151.2276486500,46.4677734375,1.47,3.7900925,127.5,1678265443000,1.0290287,35.278908,678275520458864,2.5
Fix,FLP,-33.9188171000,151.2276509000,52.0,1.3662354,6.418,150.18109,1678265443041,,,678275562532522,2.6668904
Fix,FLP,-33.9188221000,151.2276578000,52.0,1.3684062,6.416,149.3547,1678265443544,,,678276065117314,2.6668904
Fix,NLP,-33.9182120000,151.2286820000,,,116.60265,,1678265443781,,,678276301612000,
Fix,GPS,-33.9188254200,151.2276582100,47.25054931640625,1.77,3.7900925,137.6,1678265444000,0.840595,25.29095,678276520458707,2.5
Fix,FLP,-33.9188315000,151.2276698000,52.0,1.3843595,6.024,147.90182,1678265444550,,,678277070286429,2.6768904
Fix,GPS,-33.9188335300,151.2276717200,47.47552490234375,1.58,3.7900925,123.7,1678265445000,0.83216584,28.028198,678277520458968,2.5
Fix,FLP,-33.9188353000,151.2276749000,52.0,1.4001051,5.871,147.16133,1678265445052,,,678277572870908,2.6868904
Fix,FLP,-33.9188421000,151.2276814000,52.0,1.3954532,5.929,145.89296,1678265445554,,,678278075456845,2.6868904
Fix,GPS,-33.9188422300,151.2276854400,47.26153564453125,1.67,3.7900925,123.8,1678265446000,0.83216584,26.6318,678278520458655,2.5
Fix,NLP,-33.9182120000,151.2286820000,,,116.60265,,1678265446889,,,678279410329239,
Fix,FLP,-33.9188500000,151.2276922000,52.0,1.3978151,5.83,143.47098,1678265446559,,,678279080627054,2.6968904
Fix,GPS,-33.9188526300,151.2276957500,47.68505859375,1.62,3.7900925,129.6,1678265447000,0.83216584,27.32575,678279520458759,2.5
Fix,FLP,-33.9188603000,151.2277039000,52.0,1.4103416,5.818,141.706,1678265447564,,,678280085798929,2.7068903
Fix,GPS,-33.9188599300,151.2277079700,47.50213623046875,1.52,3.7900925,121.6,1678265448000,1.0068763,33.505302,678280520458342,2.5
Fix,GPS,-33.9188655600,151.2277209600,47.3956298828125,1.55,3.7900925,116.3,1678265449000,0.85982555,28.792147,678281520458759,2.5
Fix,FLP,-33.9188674000,151.2277156000,52.0,1.4129254,6.331,139.82286,1678265448570,,,678281090970335,2.7268903
Fix,FLP,-33.9188677000,151.2277181000,52.0,1.4099663,6.402,138.5522,1678265449072,,,678281593555439,2.7268903
Fix,NLP,-33.9182120000,151.2286820000,,,116.60265,,1678265449916,,,678282437007675,
Fix,GPS,-33.9188705300,151.2277363400,46.66168212890625,1.53,3.7900925,112.5,1678265450000,1.0373042,34.38908,678282520458967,2.5
Fix,FLP,-33.9188736000,151.2277281000,52.0,1.4035486,6.688,137.08752,1678265449576,,,678282096141376,2.7368903
Fix,FLP,-33.9188740000,151.2277326000,52.0,1.3993242,6.885,135.66554,1678265450077,,,678282598727314,2.7368903
Fix,GPS,-33.9188776300,151.2277486100,46.7188720703125,1.4,3.7900925,118.9,1678265451000,0.84599054,31.489433,678283520458811,2.5
Fix,FLP,-33.9188786000,151.2277430000,52.0,1.3942049,6.8,134.19408,1678265450580,,,678283101313251,2.7468903
Fix,FLP,-33.9188806000,151.2277470000,52.0,1.3895677,6.803,133.28738,1678265451082,,,678283603899189,2.7468903
Fix,GPS,-33.9188828200,151.2277607000,47.05926513671875,1.48,3.7900925,110.8,1678265452000,0.84599054,29.895103,678284520458863,2.5
Fix,FLP,-33.9188859000,151.2277556000,52.0,1.386035,6.807,132.50435,1678265451585,,,678284106485126,2.7568903
Fix,FLP,-33.9188869000,151.2277607000,52.0,1.3801669,6.782,131.20966,1678265452088,,,678284609071064,2.7568903
Fix,NLP,-33.9182120000,151.2286820000,,,116.60265,,1678265452956,,,678285476588038,
Fix,GPS,-33.9188869800,151.2277727600,46.8701171875,1.43,3.7900925,111.4,1678265453000,0.84599054,30.814825,678285520458968,2.5
Fix,FLP,-33.9188896000,151.2277688000,52.0,1.3739794,6.792,129.80473,1678265452591,,,678285111657001,2.7668903
Fix,FLP,-33.9188911000,151.2277759000,52.0,1.3641415,6.633,128.2614,1678265453093,,,678285614243251,2.7668903
Fix,GPS,-33.9188900300,151.2277864500,46.42718505859375,1.52,3.7900925,107.7,1678265454000,1.020784,33.76838,678286520458603,2.5
Fix,FLP,-33.9188930000,151.2277835000,52.0,1.356635,6.501,126.76194,1678265453595,,,678286116828095,2.7768903
Fix,FLP,-33.9188956000,151.2277963000,52.0,1.3573781,6.226,125.007996,1678265454600,,,678287121999970,2.7768903
Fix,GPS,-33.9188928100,151.2278021200,45.9107666015625,1.57,3.7900925,108.4,1678265455000,0.85146934,28.450539,678287520458811,2.5
Fix,FLP,-33.9188997000,151.2278131000,52.0,1.3582428,5.992,122.27415,1678265455606,,,678288127171272,2.7868903
Fix,NLP,-33.9182120000,151.2286820000,,,116.60265,,1678265455961,,,678288481588141,
Fix,GPS,-33.9188951700,151.2278225900,45.7427978515625,1.76,3.7900925,100.8,1678265456000,0.84599054,25.52286,678288520458707,2.5
Fix,FLP,-33.9189030000,151.2278306000,52.0,1.3751949,6.02,119.77364,1678265456611,,,678289132343147,2.7968905
Fix,GPS,-33.9188981700,151.2278403500,46.0462646484375,1.65,3.7900925,103.7,1678265457000,0.87091905,27.512306,678289520458863,2.5
Fix,FLP,-33.9189045000,151.2278458000,52.0,1.3987317,6.025,117.510925,1678265457617,,,678290137514918,2.8068905
Fix,GPS,-33.9189028500,151.2278563000,46.02972412109375,1.53,3.7900925,109.0,1678265458000,0.8905055,29.924969,678290520458707,2.5
Fix,NLP,-33.9182120000,151.2286820000,,,116.60265,,1678265458970,,,678291490792828,
Fix,GPS,-33.9189058000,151.2278735700,45.858154296875,1.68,3.7900925,102.4,1678265459000,0.83216584,26.513626,678291520458915,2.5
Fix,FLP,-33.9189087000,151.2278666000,52.0,1.4171364,6.341,115.226006,1678265458622,,,678291142685283,2.8268905
Fix,GPS,-33.9189051200,151.2278896400,45.77386474609375,1.48,3.7900925,93.1,1678265460000,0.8905055,30.732761,678292520458707,2.5
Fix,FLP,-33.9189117000,151.2278827000,52.0,1.4296292,6.562,113.7957,1678265459626,,,678292147854762,2.8368905
Fix,FLP,-33.9189102000,151.2278874000,52.0,1.4252985,6.704,112.46331,1678265460130,,,678292650439501,2.8368905
Fix,GPS,-33.9189057500,151.2279061000,45.2471923828125,1.51,3.7900925,93.9,1678265461000,1.020784,33.8294,678293520458811,2.5
Fix,FLP,-33.9189109000,151.2278991000,52.0,1.4188819,6.655,110.97633,1678265460633,,,678293153023981,2.8468904
Fix,FLP,-33.9189101000,151.2279065000,52.0,1.4181036,6.666,109.715866,1678265461135,,,678293655608304,2.8468904
Fix,NLP,-33.9182120000,151.2286820000,,,116.60265,,1678265461976,,,678294497434962,
Fix,GPS,-33.9189048000,151.2279218600,44.93115234375,1.44,3.7900925,92.0,1678265462000,0.8736704,31.238586,678294520458915,2.5
Fix,FLP,-33.9189100000,151.2279168000,52.0,1.4167937,6.616,108.37344,1678265461638,,,678294158192679,2.8568904
Fix,FLP,-33.9189097000,151.2279243000,52.0,1.4122288,6.634,107.20839,1678265462140,,,678294660776012,2.8568904
Fix,GPS,-33.9189059800,151.2279398600,45.107177734375,1.46,3.7900925,90.9,1678265463000,0.8905055,31.018665,678295520458967,2.5
Fix,FLP,-33.9189095000,151.2279324000,52.0,1.4080728,6.683,105.94315,1678265462643,,,678295163360960,2.8668904
Fix,FLP,-33.9189094000,151.2279401000,52.0,1.4038897,6.705,104.77396,1678265463145,,,678295665944293,2.8668904
Fix,GPS,-33.9189066500,151.2279588200,45.14434814453125,1.51,3.7900925,87.3,1678265464000,0.87091905,29.73429,678296520458759,2.5
Fix,FLP,-33.9189090000,151.2279470000,52.0,1.4018385,6.719,103.62656,1678265463647,,,678296168527626,2.8768904
Fix,FLP,-33.9189089000,151.2279614000,52.0,1.4072676,6.688,102.42638,1678265464653,,,678297173694293,2.8768904
Fix,GPS,-33.9189042300,151.2279772400,44.581298828125,1.59,3.7900925,77.5,1678265465000,0.8653323,28.243876,678297520458760,2.5
Fix,FLP,-33.9189066000,151.2279815000,52.0,1.4129052,6.788,99.67034,1678265465657,,,678298178860595,2.8868904
Fix,GPS,-33.9189012600,151.2279947600,44.15106201171875,1.55,3.7900925,75.8,1678265466000,0.89872134,29.606018,678298520457978,2.5
Fix,FLP,-33.9189038000,151.2280016000,52.0,1.4143138,6.858,96.458855,1678265466664,,,678299184026064,2.8968904
Fix,GPS,-33.9188980600,151.2280114400,44.31011962890625,1.54,3.7900925,73.5,1678265467000,0.90443355,30.034557,678299520458395,2.5
Fix,GPS,-33.9188926700,151.2280268500,44.3173828125,1.54,3.7900925,64.3,1678265468000,1.020784,33.386818,678300520458863,2.5
Fix,FLP,-33.9189005000,151.2280202000,52.0,1.4148332,6.91,93.43954,1678265467669,,,678300189190908,2.9168904
Fix,GPS,-33.9188866700,151.2280420000,44.3243408203125,1.47,3.7900925,62.1,1678265469000,0.8653323,30.577269,678301520458603,2.5
Fix,FLP,-33.9188950000,151.2280365000,52.0,1.4120598,6.944,90.228355,1678265468673,,,678301194355439,2.9268904
Fix,NLP,-33.9190060000,151.2285420000,,,99.611664,,1678265469742,,,678302262843761,
Fix,GPS,-33.9188808800,151.2280575100,44.44439697265625,1.46,3.7900925,68.8,1678265470000,0.9208692,31.948265,678302520458915,2.5
Fix,FLP,-33.9188893000,151.2280531000,52.0,1.4060627,6.944,86.86271,1678265469679,,,678302199519658,2.9368904
Fix,FLP,-33.9188862000,151.2280580000,52.0,1.4074433,6.916,85.62896,1678265470182,,,678302702101481,2.9368904
Fix,GPS,-33.9188750500,151.2280728200,44.424560546875,1.42,3.7900925,71.9,1678265471000,0.88481635,31.592924,678303520458238,2.5
Fix,FLP,-33.9188826000,151.2280693000,52.0,1.4077859,6.91,84.456856,1678265470683,,,678303204683876,2.9468904
Fix,FLP,-33.9188777000,151.2280773000,52.0,1.4088713,6.722,82.53783,1678265471186,,,678303707265595,2.9468904
Fix,GPS,-33.9188687300,151.2280856600,44.00634765625,1.42,3.7900925,65.8,1678265472000,0.85146934,31.148445,678304520458863,2.5
Fix,FLP,-33.9188748000,151.2280858000,44.00634765625,1.410549,6.521,81.78874,1678265471689,,,678304209847991,2.5
Fix,FLP,-33.9188702000,151.2280994000,44.00634765625,1.4157199,6.342,81.119865,1678265472695,,,678305215011376,2.5
Fix,NLP,-33.9190060000,151.2285420000,,,99.611664,,1678265472814,,,678305335257145,
Fix,GPS,-33.9188624500,151.2281003100,42.80633544921875,1.6,3.7900925,60.3,1678265473000,0.8905055,28.418,678305520458812,2.5
Fix,GPS,-33.9188541000,151.2281119100,42.63916015625,1.45,3.7900925,54.4,1678265474000,0.85982555,30.7159,678306520458811,2.5
Fix,FLP,-33.9188645000,151.2281198000,42.63916015625,1.4259946,5.764,80.42608,1678265473700,,,678306220175022,2.5
Fix,FLP,-33.9188618000,151.2281252000,42.63916015625,1.428991,5.525,79.97767,1678265474201,,,678306722757679,2.5
Fix,FLP,-33.9188587000,151.2281350000,42.63916015625,1.4308286,5.453,79.51714,1678265474705,,,678307225338408,2.5
Fix,GPS,-33.9188465500,151.2281242400,42.63165283203125,1.48,3.7900925,57.9,1678265475000,0.83216584,29.676008,678307520458863,2.5
Fix,FLP,-33.9188550000,151.2281422000,42.63165283203125,1.4328158,5.057,79.02908,1678265475207,,,678307727921064,2.5
Fix,NLP,-33.9190060000,151.2285420000,,,99.611664,,1678265475862,,,678308383286884,
Fix,FLP,-33.9188526000,151.2281502000,42.63165283203125,1.434161,4.866,79.1023,1678265475710,,,678308230501793,2.5
Fix,GPS,-33.9188386600,151.2281371500,42.9560546875,1.42,3.7900925,51.7,1678265476000,0.8653323,31.252474,678308520458760,2.5
Fix,FLP,-33.9188494000,151.2281572000,42.9560546875,1.433084,4.653,78.988556,1678265476213,,,678308733083981,2.5
Fix,GPS,-33.9188309400,151.2281505800,42.64898681640625,1.44,3.7900925,50.9,1678265477000,0.82680106,30.392948,678309520458863,2.5
Fix,FLP,-33.9188471000,151.2281632000,42.64898681640625,1.4323056,4.678,78.6178,1678265476714,,,678309235665283,2.5
Fix,FLP,-33.9188441000,151.2281651000,52.0,1.4316523,4.664,77.715454,1678265477218,,,678309738246012,2.4602256
Fix,FLP,-33.9188374000,151.2281817000,52.0,1.4220327,4.698,76.8848,1678265477718,,,678310240827574,2.4602256
Fix,GPS,-33.9188223400,151.2281631800,43.00372314453125,1.45,3.7900925,47.0,1678265478000,0.83216584,30.12946,678310520458655,2.5
Fix,FLP,-33.9188325000,151.2281831000,52.0,1.4145316,4.725,75.38859,1678265478223,,,678310743409033,2.4702256
Fix,NLP,-33.9190060000,151.2285420000,,,99.611664,,1678265478920,,,678311441461674,
Fix,GPS,-33.9188137600,151.2281756100,42.58074951171875,1.39,3.7900925,44.2,1678265479000,0.85146934,31.72631,678311520458603,2.5
Fix,FLP,-33.9188277000,151.2281908000,52.0,1.411182,4.742,74.45673,1678265478725,,,678311245989762,2.4802256
