Fix,FLP,-33.9180397000,151.2283231000,52.20000076293945,0.17835785,5.39,0.00009853143,1678265631959,,,40755776397523,2.0868
Fix,NLP,-33.9178760000,151.2283660000,,,40.0,,1678265633021,,,40756837799308,
Fix,GPS,-33.9180150000,151.2283400000,52.9,0.0,1.3,1.24,1678265633000,0.5,31.1,40756801000000,9.5
Fix,FLP,-33.9180404000,151.2283239000,52.20000076293945,0.1581787,5.475,0.005007247,1678265633026,,,40756843903168,2.0968
Fix,FLP,-33.9180402000,151.2283247000,52.20000076293945,0.14908242,5.561,0.026629386,1678265633560,,,40757377655985,2.0968
Fix,GPS,-33.9180316667,151.2283466667,53.400000000000006,0.28567085,1.4,177.39,1678265634000,0.7,15.8,40757801000000,9.5
Fix,FLP,-33.9180406000,151.2283262000,52.20000076293945,0.11974671,5.604,2.6568222,1678265634095,,,40757911408692,2.1068
Fix,FLP,-33.9180411000,151.2283273000,52.20000076293945,0.0982577,5.656,,1678265634628,,,40758445161230,2.1068
Fix,GPS,-33.9180433333,151.2283433333,53.5,0.44111696,1.5,179.02,1678265635000,0.9,17.4,40758801000000,9.6
Fix,FLP,-33.9180425000,151.2283290000,52.20000076293945,0.058563683,5.719,,1678265635162,,,40758978913943,2.1168
Fix,NLP,-33.9178760000,151.2283660000,,,40.0,,1678265636028,,,40759845487231,
Fix,GPS,-33.9180566667,151.2283433333,53.400000000000006,0.58420974,1.5,179.86,1678265636000,0.8,16.4,40759801000000,9.6
Fix,FLP,-33.9180437000,151.2283301000,52.20000076293945,0.04521241,5.742,,1678265635695,,,40759512666480,2.1268
Fix,FLP,-33.9180468000,151.2283329000,52.20000076293945,0.04625531,5.702,,1678265636229,,,40760046418925,2.1268
Fix,FLP,-33.9180510000,151.2283363000,52.20000076293945,0.06419363,5.626,,1678265636763,,,40760580171535,1.931871
Fix,GPS,-33.9180683333,151.2283433333,53.3,0.72627306,1.6,179.91,1678265637000,0.8,16.6,40760801000000,9.5
Fix,FLP,-33.9180543000,151.2283375000,52.20000076293945,0.09329184,5.568,,1678265637297,,,40761113924076,1.9418712
Fix,GPS,-33.9180833333,151.2283416667,53.5,0.87811613,1.5,185.29,1678265638000,0.8,17.5,40761801000000,9.6
Fix,FLP,-33.9180568000,151.2283380000,52.20000076293945,0.12227935,5.579,147.16666,1678265637831,,,40761647676759,1.9518712
Fix,FLP,-33.9180607000,151.2283389000,52.20000076293945,0.15967049,5.588,154.15434,1678265638365,,,40762181429549,1.9518712
Fix,FLP,-33.9180645000,151.2283399000,52.20000076293945,0.30627522,5.624,164.36359,1678265638898,,,40762715182281,1.9518712
Fix,NLP,-33.9178760000,151.2283660000,,,40.0,,1678265639035,,,40762851861770,
Fix,GPS,-33.9180950000,151.2283366667,53.400000000000006,1.028415,1.6,192.61,1678265639000,0.8,19.2,40762801000000,9.7
Fix,FLP,-33.9180716000,151.2283414000,52.20000076293945,0.5788832,5.717,171.85013,1678265639432,,,40763248935120,1.9618711
Fix,GPS,-33.9181100000,151.2283316667,53.3,1.1905525,1.6,182.8,1678265640000,0.8,16.9,40763801000000,9.4
Fix,FLP,-33.9180769000,151.2283421000,52.20000076293945,0.7219231,5.774,175.18246,1678265639965,,,40763782687857,1.9718711
Fix,FLP,-33.9180865000,151.2283429000,52.20000076293945,0.9404524,5.969,177.26196,1678265640499,,,40764316440712,1.9718711
Fix,GPS,-33.9181283333,151.2283300000,53.3,1.35269,1.5,188.93,1678265641000,0.8,14.0,40764801000000,9.7
Fix,FLP,-33.9180921000,151.2283433000,52.20000076293945,1.027872,6.057,177.30122,1678265641034,,,40764850193663,1.9818711
Fix,FLP,-33.9181121000,151.2283442000,52.0,1.1094885,6.358,177.39418,1678265641567,,,40765383946521,7.455803
Fix,NLP,-33.9178760000,151.2283660000,,,40.0,,1678265642039,,,40765855661385,
Fix,GPS,-33.9181450000,151.2283216667,53.099999999999994,1.5065919,1.6,194.2,1678265642000,0.9,18.1,40765801000000,9.8
Fix,FLP,-33.9181196000,151.2283427000,52.0,1.3048427,6.618,184.03722,1678265642100,,,40765917699458,7.465803
Fix,FLP,-33.9181264000,151.2283411000,52.0,1.391924,6.762,187.31873,1678265642635,,,40766451452123,7.465803
Fix,GPS,-33.9181633333,151.2283150000,53.099999999999994,1.6146836,1.6,197.22,1678265643000,0.9,16.2,40766801000000,9.9
Fix,FLP,-33.9181433000,151.2283321000,52.0,1.5439087,6.872,192.20885,1678265643168,,,40766985205362,7.475803
Fix,FLP,-33.9181558000,151.2283253000,52.0,1.6105533,6.922,194.34055,1678265643701,,,40767518958351,7.475803
Fix,GPS,-33.9181766667,151.2283116667,52.9,1.6203456,1.6,201.67,1678265644000,0.9,20.6,40767801000000,10.1
Fix,FLP,-33.9181706000,151.2283169000,52.0,1.6502199,6.961,196.9248,1678265644235,,,40768052711258,7.485803
Fix,FLP,-33.9181801000,151.2283122000,52.0,1.6588849,6.983,197.69446,1678265644770,,,40768586463990,7.485803
Fix,NLP,-33.9178760000,151.2283660000,,,40.0,,1678265645063,,,40768880030616,
Fix,GPS,-33.9181883333,151.2283066667,52.8,1.6043892,1.5,194.82,1678265645000,0.9,16.2,40768801000000,10.3
Fix,FLP,-33.9181908000,151.2283071000,52.0,1.6407886,6.972,196.6101,1678265645304,,,40769120217068,7.495803
Fix,FLP,-33.9181980000,151.2283044000,52.0,1.6330863,6.975,196.0105,1678265645836,,,40769653970053,7.495803
Fix,GPS,-33.9182016667,151.2283033333,52.4,1.5652703,1.5,191.23,1678265646000,0.7,18.1,40769801000000,9.9
Fix,FLP,-33.9182063000,151.2283013000,52.0,1.6001945,6.901,194.29657,1678265646370,,,40770187722813,7.505803
Fix,FLP,-33.9182123000,151.2282992000,52.0,1.5872163,6.833,193.52608,1678265646905,,,40770721475709,7.505803
Fix,GPS,-33.9182166667,151.2283050000,52.0,1.5441667,1.5,185.39,1678265647000,0.8,16.9,40770801000000,9.9
Fix,FLP,-33.9182284000,151.2282977000,52.0,1.5686179,6.674,189.02957,1678265647971,,,40771788981582,7.515803
Fix,NLP,-33.9178760000,151.2283660000,,,40.0,,1678265648070,,,40771886519540,
Fix,GPS,-33.9182283333,151.2283050000,51.599999999999994,1.5436519,1.5,181.97,1678265648000,0.8,14.5,40771801000000,10.0
Fix,FLP,-33.9182379000,151.2283013000,52.0,1.5452887,6.703,185.25531,1678265648506,,,40772322734248,7.525803
Fix,GPS,-33.9182433333,151.2283083333,51.099999999999994,1.5575495,1.5,182.59,1678265649000,0.9,18.4,40772801000000,9.8
Fix,FLP,-33.9182418000,151.2283036000,52.0,1.5408866,6.715,182.91664,1678265649039,,,40772856487357,7.535803
Fix,GPS,-33.9182616667,151.2283083333,50.9,1.5580642,1.5,184.29,1678265650000,0.9,16.5,40773801000000,9.6
Fix,FLP,-33.9182534000,151.2283070000,52.0,1.5288389,6.753,180.15317,1678265649574,,,40773390240380,7.545803
Fix,FLP,-33.9182570000,151.2283075000,52.0,1.539276,6.785,180.56544,1678265650107,,,40773923993252,7.545803
Fix,NLP,-33.9178760000,151.2283660000,,,40.0,,1678265651074,,,40774891400847,
Fix,GPS,-33.9182750000,151.2283066667,50.5,1.5446814,1.5,185.67,1678265651000,0.8,14.8,40774801000000,9.3
Fix,FLP,-33.9182691000,151.2283077000,52.0,1.5416496,6.818,181.20422,1678265650640,,,40774457746112,7.555803
Fix,FLP,-33.9182742000,151.2283069000,52.0,1.5472773,6.821,181.69116,1678265651175,,,40774991499078,7.555803
Fix,FLP,-33.9182838000,151.2283056000,52.0,1.5497847,6.869,182.39244,1678265651709,,,40775525251795,7.555803
Fix,GPS,-33.9182916667,151.2283066667,50.3,1.5812267,1.5,177.1,1678265652000,0.8,13.9,40775801000000,9.4
Fix,FLP,-33.9182912000,151.2283048000,52.0,1.5561715,6.904,182.51643,1678265652242,,,40776059004467,7.565803
Fix,FLP,-33.9183010000,151.2283047000,52.0,1.5600386,6.879,182.04526,1678265652775,,,40776592757001,7.565803
Fix,GPS,-33.9183083333,151.2283033333,50.3,1.5822561,1.6,184.49,1678265653000,1.0,20.7,40776801000000,9.4
Fix,FLP,-33.9183096000,151.2283034000,52.0,1.5657004,6.814,181.78871,1678265653309,,,40777126509555,7.575803
Fix,NLP,-33.9178760000,151.2283660000,,,40.0,,1678265654077,,,40777894053386,
Fix,GPS,-33.9183233333,151.2283016667,50.2,1.6888036,1.6,174.32,1678265654000,1.2,18.9,40777801000000,9.5
Fix,FLP,-33.9183179000,151.2283021000,52.0,1.5689682,6.803,182.01958,1678265653844,,,40777660261885,7.585803
Fix,FLP,-33.9183259000,151.2283019000,52.0,1.5784117,6.793,181.83742,1678265654378,,,40778194014521,7.585803
Fix,FLP,-33.9183353000,151.2283018000,52.0,1.586734,6.811,181.63866,1678265654910,,,40778727766608,7.585803
Fix,GPS,-33.9183416667,151.2283016667,50.099999999999994,1.8385878,1.7,171.45,1678265655000,1.1,12.9,40778801000000,9.7
Fix,FLP,-33.9183454000,151.2283023000,52.0,1.607698,6.783,180.70515,1678265655445,,,40779261518761,7.595803
Fix,GPS,-33.9183616667,151.2283016667,50.2,2.0465355,1.7,171.69,1678265656000,1.0,10.5,40779801000000,9.7
Fix,FLP,-33.9183543000,151.2283035000,52.0,1.6198881,6.774,179.77077,1678265655978,,,40779795270779,7.605803
Fix,FLP,-33.9183653000,151.2283049000,52.0,1.6499691,6.723,178.55486,1678265656512,,,40780329022824,7.605803
Fix,NLP,-33.9178760000,151.2283660000,,,40.0,,1678265657087,,,40780904003002,
Fix,GPS,-33.9183833333,151.2283000000,50.5,2.2323503,1.7,179.07,1678265657000,1.2,14.6,40780801000000,9.8
Fix,FLP,-33.9183731000,151.2283058000,52.0,1.6714505,6.711,178.14435,1678265657045,,,40780862774814,7.615803
Fix,FLP,-33.9183869000,151.2283042000,52.0,1.7053157,6.705,178.32094,1678265657579,,,40781396526593,7.615803
Fix,GPS,-33.9184066667,151.2282966667,50.599999999999994,2.321912,1.9,187.64,1678265658000,1.1,16.5,40781801000000,10.3
Fix,FLP,-33.9183995000,151.2283023000,52.0,1.7616497,6.723,178.76376,1678265658113,,,40781930278573,7.625803
Fix,FLP,-33.9184103000,151.2283012000,52.0,1.7912939,6.745,179.07858,1678265658647,,,40782464030517,7.625803
Fix,GPS,-33.9184233333,151.2282933333,50.599999999999994,2.331177,2.1,191.06,1678265659000,1.3,25.7,40782801000000,10.9
Fix,FLP,-33.9184311000,151.2282971000,52.0,1.8419302,6.753,179.95384,1678265659714,,,40783531534273,7.6358027
Fix,GPS,-33.9184250000,151.2282816667,51.5,2.2822783,1.8,206.3,1678265660000,1.1,33.8,40783801000000,10.0
Fix,NLP,-33.9178760000,151.2283660000,,,40.0,,1678265660095,,,40783911946694,
Fix,FLP,-33.9184389000,151.2282911000,52.0,1.8650218,6.744,181.55832,1678265660248,,,40784065286276,7.645803
Fix,FLP,-33.9184449000,151.2282864000,52.0,1.8711787,6.802,182.6483,1678265660782,,,40784599037920,7.645803
Fix,GPS,-33.9184333333,151.2282716667,52.3,2.199408,1.7,214.26,1678265661000,1.2,57.6,40784801000000,9.8
Fix,FLP,-33.9184567000,151.2282753000,52.0,1.8702592,6.908,185.20485,1678265661850,,,40785666541647,7.6558027
Fix,GPS,-33.9184400000,151.2282633333,52.2,2.0640361,1.6,238.31,1678265662000,1.2,61.2,40785801000000,9.8
Fix,FLP,-33.9184628000,151.2282600000,52.0,1.834559,6.935,189.13226,1678265662910,,,40786726000000,7.665803
Fix,GPS,-33.9184450000,151.2282566667,52.099999999999994,1.9492531,1.6,252.94,1678265663000,1.3,93.4,40786801000000,10.3
Fix,NLP,-33.9178760000,151.2283660000,,,40.0,,1678265663098,,,40786915117156,
Fix,FLP,-33.9184675000,151.2282442000,52.0,1.7681199,7.003,194.14651,1678265663993,,,40787810000000,7.6758027
Fix,GPS,-33.9184516667,151.2282500000,52.2,1.7644678,1.6,235.45,1678265664000,1.1,65.0,40787801000000,10.3
Fix,FLP,-33.9184731000,151.2282330000,52.0,1.7026026,7.046,198.74434,1678265665049,,,40788866000000,7.685803
Fix,GPS,-33.9184666667,151.2282500000,52.4,1.5467403,1.6,208.32,1678265665000,0.8,40.7,40788801000000,9.6
Fix,NLP,-33.9178760000,151.2283660000,,,40.0,,1678265666101,,,40789918182387,
Fix,GPS,-33.9184833333,151.2282500000,52.4,1.3578372,1.6,186.03,1678265666000,1.1,26.6,40789801000000,9.5
Fix,FLP,-33.9184811000,151.2282312000,52.0,1.6610184,6.972,201.33723,1678265665586,,,40789402805556,7.705803
Fix,FLP,-33.9184830000,151.2282354000,52.0,1.6381445,6.927,200.02588,1678265666115,,,40789932000000,7.705803
Fix,FLP,-33.9184923000,151.2282365000,52.0,1.6123327,6.939,198.20609,1678265666653,,,40790470309840,7.705803
Fix,GPS,-33.9185000000,151.2282500000,52.599999999999994,1.195185,1.6,195.03,1678265667000,1.2,26.9,40790801000000,9.8
Fix,FLP,-33.9184977000,151.2282409000,52.0,1.5707849,6.856,196.25575,1678265667187,,,40791004062286,7.715803
Fix,FLP,-33.9185059000,151.2282410000,52.0,1.5517398,6.825,195.66635,1678265667721,,,40791537814291,7.715803
Fix,GPS,-33.9185200000,151.2282466667,52.8,1.1277564,1.6,190.08,1678265668000,1.1,22.0,40791801000000,10.0
Fix,FLP,-33.9185136000,151.2282428000,52.0,1.5180892,6.647,194.67905,1678265668254,,,40792071566271,7.725803
Fix,GPS,-33.9185383333,151.2282433333,53.0,1.1550367,1.6,179.3,1678265669000,1.2,21.1,40792801000000,10.1
Fix,NLP,-33.9178760000,151.2283660000,,,40.0,,1678265669112,,,40792928686695,
Fix,FLP,-33.9185237000,151.2282415000,52.0,1.5013672,6.52,194.28159,1678265668789,,,40792605318506,7.735803
Fix,FLP,-33.9185305000,151.2282413000,52.0,1.4905553,6.144,194.04512,1678265669311,,,40793127000000,7.735803
Fix,FLP,-33.9185400000,151.2282398000,52.0,1.4783735,5.939,193.78146,1678265669856,,,40793672822238,7.735803
Fix,GPS,-33.9185583333,151.2282400000,52.9,1.2682755,1.6,180.06,1678265670000,1.1,15.5,40793801000000,9.9
Fix,FLP,-33.9185480000,151.2282390000,52.0,1.4598833,5.414,193.4079,1678265670373,,,40794189000000,7.745803
Fix,GPS,-33.9185800000,151.2282383333,53.099999999999994,1.4422517,1.6,175.16,1678265671000,1.6,23.3,40794801000000,9.7
Fix,FLP,-33.9185570000,151.2282373000,52.0,1.4536989,5.302,193.21971,1678265670924,,,40794740326317,7.755803
Fix,GPS,-33.9186000000,151.2282366667,52.9,1.6285812,1.7,174.07,1678265672000,1.5,21.9,40795801000000,9.8
Fix,FLP,-33.9185720000,151.2282343000,52.0,1.4495376,4.746,192.95825,1678265671990,,,40795807830279,7.765803
Fix,NLP,-33.9178760000,151.2283660000,,,40.0,,1678265672119,,,40795935556541,
Fix,GPS,-33.9186216667,151.2282366667,52.5,1.875133,1.6,169.72,1678265673000,1.2,14.1,40796801000000,9.8
Fix,FLP,-33.9185899000,151.2282304000,52.0,1.4657949,4.219,192.8497,1678265673059,,,40796875334031,7.775803
Fix,GPS,-33.9186433333,151.2282333333,52.3,2.1294057,1.6,174.49,1678265674000,1.1,12.2,40797801000000,9.5
Fix,FLP,-33.9186107000,151.2282299000,52.0,1.4983909,4.22,191.76854,1678265673592,,,40797409085949,7.785803
Fix,FLP,-33.9186195000,151.2282303000,52.0,1.5321425,4.381,190.92607,1678265674126,,,40797942837606,7.785803
Fix,GPS,-33.9186666667,151.2282350000,52.3,2.3270593,1.9,180.37,1678265675000,1.2,15.3,40798801000000,10.1
Fix,FLP,-33.9186406000,151.2282304000,52.0,1.5890052,4.991,189.37875,1678265674660,,,40798476589114,7.795803
Fix,NLP,-33.9178760000,151.2283660000,,,40.0,,1678265675126,,,40798942930003,
Fix,FLP,-33.9186556000,151.2282302000,52.0,1.6270794,5.428,188.84674,1678265675193,,,40799010340966,7.795803
Fix,GPS,-33.9186833333,151.2282316667,52.5,2.4094148,2.0,181.46,1678265676000,1.1,18.2,40799801000000,10.7
Fix,FLP,-33.9186652000,151.2282308000,52.0,1.6630992,5.539,188.44464,1678265675727,,,40799544092662,7.805803
Fix,FLP,-33.9186816000,151.2282308000,52.0,1.7023453,5.652,187.99872,1678265676256,,,40800073964141,7.805803
Fix,GPS,-33.9186916667,151.2282233333,52.2,2.4037528,1.7,189.55,1678265677000,1.6,37.3,40800801000000,10.1
Fix,FLP,-33.9186911000,151.2282309000,52.0,1.7401266,5.487,187.73999,1678265676794,,,40800611596125,7.815803
Fix,FLP,-33.9187033000,151.2282268000,52.0,1.7661744,5.823,187.81238,1678265677328,,,40801145347836,7.815803
Fix,GPS,-33.9186950000,151.2282150000,52.8,2.2833078,1.6,228.8,1678265678000,1.5,100.5,40801801000000,9.7
Fix,FLP,-33.9187081000,151.2282248000,52.0,1.7955673,5.905,187.76697,1678265677862,,,40801679099505,7.825803
Fix,NLP,-33.9178760000,151.2283660000,,,40.0,,1678265678131,,,40801947698080,
Fix,FLP,-33.9187152000,151.2282172000,52.0,1.7834592,6.179,189.63908,1678265678395,,,40802212851422,7.825803
Fix,GPS,-33.9186983333,151.2282033333,52.7,2.1489654,1.6,263.94,1678265679000,1.0,58.1,40802801000000,9.5
Fix,FLP,-33.9187148000,151.2282116000,52.0,1.7832868,6.218,191.39795,1678265678930,,,40802746603219,7.835803
Fix,FLP,-33.9187206000,151.2281967000,52.0,1.7344254,6.117,194.83173,1678265679971,,,40803788000000,7.835803
Fix,GPS,-33.9187016667,151.2281966667,53.0,1.9904308,1.6,265.65,1678265680000,0.9,50.9,40803801000000,9.5
Fix,FLP,-33.9187211000,151.2281792000,52.0,1.6533289,6.049,200.91853,1678265681053,,,40804870000000,7.845803
Fix,GPS,-33.9187083333,151.2281900000,53.3,1.8241756,1.6,240.23,1678265681000,1.1,51.6,40804801000000,9.5
Fix,NLP,-33.9178760000,151.2283660000,,,40.0,,1678265681141,,,40804958457388,
Fix,FLP,-33.9187239000,151.2281719000,52.0,1.5997792,6.741,205.41759,1678265681599,,,40805415361805,7.855803
Fix,GPS,-33.9187183333,151.2281866667,53.3,1.6867447,1.6,224.05,1678265682000,1.2,36.5,40805801000000,9.4
Fix,GPS,-33.9187333333,151.2281850000,53.2,1.5246072,1.6,187.01,1678265683000,1.1,31.6,40806801000000,9.4
Fix,FLP,-33.9187315000,151.2281691000,52.0,1.5837327,6.694,207.82036,1678265682665,,,40806482864936,7.875803
Fix,FLP,-33.9187346000,151.2281721000,52.0,1.5669601,6.651,206.26741,1678265683199,,,40807016616301,7.875803
Fix,FLP,-33.9187426000,151.2281726000,52.0,1.5538039,6.638,204.67845,1678265683734,,,40807550367685,7.875803
Fix,GPS,-33.9187516667,151.2281850000,53.099999999999994,1.3717347,1.6,180.89,1678265684000,1.1,25.1,40807801000000,9.5
Fix,NLP,-33.9178760000,151.2283660000,,,40.0,,1678265684148,,,40807964872234,
Fix,FLP,-33.9187510000,151.2281749000,52.0,1.5275388,6.669,201.8227,1678265684257,,,40808073964141,7.8858027
Fix,FLP,-33.9187607000,151.2281741000,52.0,1.5168058,6.709,200.54451,1678265684801,,,40808617870148,7.8858027
Fix,GPS,-33.9187733333,151.2281866667,53.0,1.3022472,1.6,178.92,1678265685000,1.1,21.4,40808801000000,9.3
Fix,FLP,-33.9187714000,151.2281782000,52.0,1.4934162,6.643,197.78966,1678265685335,,,40809151621037,7.895803
Fix,GPS,-33.9187983333,151.2281850000,52.4,1.3223214,1.6,178.48,1678265686000,1.1,14.6,40809801000000,9.5
Fix,FLP,-33.9187827000,151.2281799000,52.0,1.4811381,6.593,196.15317,1678265685868,,,40809685372063,7.9058027
Fix,FLP,-33.9187920000,151.2281820000,52.0,1.4754653,6.367,194.86609,1678265686391,,,40810207000000,7.9058027
Fix,GPS,-33.9188166667,151.2281833333,52.3,1.3357042,1.6,185.14,1678265687000,0.9,17.8,40810801000000,8.9
Fix,FLP,-33.9188025000,151.2281827000,52.0,1.4705307,6.256,194.00035,1678265686936,,,40810752873801,7.915803
Fix,NLP,-33.9178760000,151.2283660000,,,40.0,,1678265687156,,,40810972681773,
Fix,GPS,-33.9188316667,151.2281850000,52.099999999999994,1.4298984,1.6,179.39,1678265688000,1.1,26.2,40811801000000,9.0
Fix,FLP,-33.9188188000,151.2281828000,52.0,1.4633503,6.117,192.44164,1678265688004,,,40811820375060,7.9258027
Fix,GPS,-33.9188500000,151.2281850000,52.3,1.5616672,1.6,172.56,1678265689000,1.2,19.0,40812801000000,9.2
Fix,FLP,-33.9188349000,151.2281849000,52.0,1.4529461,5.773,190.02547,1678265689070,,,40812887876768,7.935803
Fix,GPS,-33.9188683333,151.2281866667,51.9,1.6893183,1.6,172.94,1678265690000,1.0,16.5,40813801000000,9.2
Fix,FLP,-33.9188487000,151.2281863000,52.0,1.4527572,5.194,188.25618,1678265689605,,,40813421627337,7.945803
Fix,NLP,-33.9178760000,151.2283660000,,,40.0,,1678265690162,,,40813979422311,
Fix,FLP,-33.9188600000,151.2281849000,52.0,1.4670285,5.083,187.48201,1678265690138,,,40813955378221,7.945803
Fix,GPS,-33.9188866667,151.2281833333,51.5,1.8087339,1.6,177.23,1678265691000,0.9,15.0,40814801000000,9.5
Fix,FLP,-33.9188685000,151.2281845000,52.0,1.4813782,5.272,186.8882,1678265690673,,,40814489128928,7.955803
Fix,FLP,-33.9188765000,151.2281843000,52.0,1.5036705,5.333,186.4201,1678265691190,,,40815006000000,7.955803
Fix,GPS,-33.9189016667,151.2281833333,51.099999999999994,1.8627797,1.6,190.7,1678265692000,0.9,20.6,40815801000000,9.3
Fix,FLP,-33.9188926000,151.2281837000,52.0,1.5365076,5.649,185.67902,1678265691740,,,40815556630444,7.965803
Fix,FLP,-33.9189044000,151.2281832000,52.0,1.5626658,5.592,185.59526,1678265692256,,,40816073964141,7.965803
Fix,GPS,-33.9189183333,151.2281816667,51.2,1.8998398,1.6,192.38,1678265693000,1.2,24.8,40816801000000,9.4
Fix,FLP,-33.9189108000,151.2281821000,52.0,1.5779704,5.417,185.93428,1678265692808,,,40816624132409,7.975803
Fix,NLP,-33.9178760000,151.2283660000,,,40.0,,1678265693174,,,40816990862311,
Fix,FLP,-33.9189169000,151.2281815000,52.0,1.5922563,5.57,186.26314,1678265693310,,,40817126000000,7.975803
Fix,GPS,-33.9189283333,151.2281783333,51.5,1.8689564,1.7,206.78,1678265694000,1.3,35.8,40817801000000,9.7
Fix,FLP,-33.9189275000,151.2281797000,52.0,1.6138767,5.806,187.22762,1678265693874,,,40817691634445,7.985803
Fix,FLP,-33.9189336000,151.2281784000,52.0,1.6193995,5.955,188.09514,1678265694391,,,40818207000000,7.985803
Fix,GPS,-33.9189383333,151.2281666667,51.9,1.7423347,1.6,241.63,1678265695000,0.9,39.3,40818801000000,9.2
Fix,FLP,-33.9189413000,151.2281752000,52.0,1.6215252,6.158,190.2575,1678265694942,,,40818759136994,7.995803
Fix,FLP,-33.9189459000,151.2281701000,52.0,1.5786947,6.34,192.53394,1678265695469,,,40819286000000,7.995803
Fix,GPS,-33.9189366667,151.2281600000,52.099999999999994,1.5910064,1.6,312.86,1678265696000,1.0,42.5,40819801000000,8.8
Fix,FLP,-33.9189471000,151.2281619000,52.0,1.461081,6.409,197.57965,1678265696010,,,40819826640047,8.005803
Fix,NLP,-33.9178760000,151.2283660000,,,40.0,,1678265696179,,,40819995905773,
Fix,FLP,-33.9189489000,151.2281564000,52.0,1.3392156,6.384,199.52911,1678265696543,,,40820360391417,8.005803
Fix,GPS,-33.9189300000,151.2281483333,52.5,1.5374752,1.6,308.49,1678265697000,0.9,31.6,40820801000000,9.0
Fix,FLP,-33.9189421000,151.2281554000,52.0,1.2201822,6.432,200.33807,1678265697077,,,40820894142878,8.015803
Fix,FLP,-33.9189398000,151.2281473000,52.0,1.1250821,6.403,204.1417,1678265697610,,,40821427894479,8.015803
Fix,GPS,-33.9189200000,151.2281366667,52.599999999999994,1.5302691,1.6,341.12,1678265698000,0.9,24.4,40821801000000,9.3
Fix,FLP,-33.9189324000,151.2281413000,52.0,0.96005625,6.903,210.89914,1678265698113,,,40821930000000,8.025803
Fix,FLP,-33.9189292000,151.2281372000,52.0,0.8755797,6.913,214.23616,1678265698679,,,40822495397546,8.025803
Fix,GPS,-33.9189050000,151.2281233333,52.7,1.4818853,1.6,332.28,1678265699000,0.8,20.6,40822801000000,8.9
Fix,NLP,-33.9178760000,151.2283660000,,,40.0,,1678265699183,,,40823000000158,
Fix,FLP,-33.9189125000,151.2281251000,52.0,0.6777951,6.72,228.15866,1678265699746,,,40823562900345,8.035803
Fix,GPS,-33.9188916667,151.2281116667,52.8,1.451002,1.6,331.74,1678265700000,0.8,18.8,40823801000000,9.0
Fix,FLP,-33.9188990000,151.2281128000,52.0,0.5805077,6.286,246.97702,1678265700772,,,40824589000000,8.045803
Fix,GPS,-33.9188766667,151.2280983333,52.8,1.4206333,1.5,329.95,1678265701000,0.7,16.3,40824801000000,8.9
Fix,FLP,-33.9188836000,151.2281010000,52.0,0.5649502,6.143,266.7857,1678265701347,,,40825164154258,8.055803
Fix,GPS,-33.9188650000,151.2280883333,52.4,1.4221776,1.5,326.91,1678265702000,0.6,13.2,40825801000000,8.7
Fix,FLP,-33.9188775000,151.2280975000,52.0,0.5750741,6.01,272.7644,1678265701880,,,40825697905513,8.065803
Fix,NLP,-33.9178760000,151.2283660000,,,40.0,,1678265702190,,,40826006761774,
Fix,FLP,-33.9188672000,151.2280892000,52.0,0.60431236,5.713,283.11325,1678265702415,,,40826231656449,8.065803
Fix,GPS,-33.9188516667,151.2280750000,52.3,1.4298984,1.5,324.69,1678265703000,0.7,13.2,40826801000000,8.9
Fix,FLP,-33.9188625000,151.2280869000,52.0,0.62386006,5.647,287.46606,1678265702949,,,40826765407415,8.075803
Fix,FLP,-33.9188527000,151.2280789000,52.0,0.6673156,5.263,294.92856,1678265703482,,,40827299158258,8.075803
Fix,GPS,-33.9188416667,151.2280616667,52.3,1.4793117,1.5,320.31,1678265704000,0.8,15.4,40827801000000,8.8
Fix,FLP,-33.9188487000,151.2280770000,52.0,0.6906335,5.224,298.0479,1678265704016,,,40827832909250,8.085803
Fix,FLP,-33.9188390000,151.2280684000,52.0,0.7397574,4.994,303.46948,1678265704550,,,40828366660106,8.085803
Fix,GPS,-33.9188283333,151.2280500000,52.0,1.5735059,1.6,312.95,1678265705000,0.8,16.5,40828801000000,8.9
Fix,FLP,-33.9188353000,151.2280663000,52.0,0.7668299,4.987,305.65607,1678265705083,,,40828900410816,8.095803
Fix,FLP,-33.9188247000,151.2280564000,52.0,0.8240765,4.84,309.3681,1678265705617,,,40829434161566,8.095803
Fix,GPS,-33.9188183333,151.2280383333,51.7,1.6476258,1.6,317.77,1678265706000,0.9,19.9,40829801000000,8.8
Fix,FLP,-33.9188190000,151.2280476000,52.0,0.88587207,4.821,311.23022,1678265706150,,,40829967912436,8.105803
Fix,NLP,-33.9178760000,151.2283660000,,,40.0,,1678265706734,,,40830551198697,
Fix,FLP,-33.9188146000,151.2280403000,52.0,0.92050576,4.951,311.646,1678265706685,,,40830501663132,8.105803
Fix,GPS,-33.9188050000,151.2280283333,51.5,1.6790239,1.6,326.06,1678265707000,1.0,28.2,40830801000000,8.7
Fix,FLP,-33.9188083000,151.2280315000,52.0,0.9797355,5.209,312.9189,1678265707218,,,40831035413960,8.115803
Fix,GPS,-33.9187900000,151.2280166667,51.5,1.7027011,1.5,330.55,1678265708000,1.0,21.7,40831801000000,8.8
Fix,FLP,-33.9188036000,151.2280267000,52.0,1.0094286,5.393,313.7104,1678265707752,,,40831569164390,8.125803
Fix,FLP,-33.9187981000,151.2280222000,52.0,1.0384822,5.537,314.79922,1678265708256,,,40832073964141,8.125803
Fix,GPS,-33.9187783333,151.2280050000,51.5,1.6990981,1.5,324.02,1678265709000,1.0,25.5,40832801000000,8.8
Fix,FLP,-33.9187886000,151.2280147000,52.0,1.0890151,5.859,316.85043,1678265708820,,,40832636666228,8.135803
Fix,NLP,-33.9178760000,151.2283660000,,,40.0,,1678265709749,,,40833565845697,
Fix,FLP,-33.9187792000,151.2280063000,52.0,1.1367929,6.153,318.21814,1678265709353,,,40833170416978,8.135803
Fix,GPS,-33.9187666667,151.2279950000,51.5,1.6836563,1.5,333.4,1678265710000,1.0,23.6,40833801000000,8.8
Fix,FLP,-33.9187751000,151.2280025000,52.0,1.1622998,6.319,318.47913,1678265709888,,,40833704168146,8.1458025
Fix,FLP,-33.9187648000,151.2279937000,52.0,1.2035311,6.582,319.54962,1678265710420,,,40834237919084,8.1458025
Fix,GPS,-33.9187516667,151.2279833333,51.3,1.6522583,1.6,329.54,1678265711000,0.8,20.5,40834801000000,8.8
Fix,FLP,-33.9187616000,151.2279920000,52.0,1.2222623,6.603,320.41623,1678265710954,,,40834771670173,8.155803
Fix,FLP,-33.9187508000,151.2279821000,52.0,1.2573136,6.873,321.56882,1678265711489,,,40835305421308,8.155803
Fix,GPS,-33.9187383333,151.2279766667,51.2,1.6059333,1.6,324.23,1678265712000,0.8,21.5,40835801000000,8.9
Fix,FLP,-33.9187477000,151.2279793000,52.0,1.2760097,6.86,321.91556,1678265712022,,,40835839172334,8.165803
Fix,FLP,-33.9187396000,151.2279746000,52.0,1.2930758,6.866,322.06708,1678265712529,,,40836346000000,8.165803
Fix,NLP,-33.9178760000,151.2283660000,,,40.0,,1678265712759,,,40836575896543,
Fix,GPS,-33.9187250000,151.2279666667,51.099999999999994,1.5544611,1.5,323.89,1678265713000,0.8,21.7,40836801000000,8.7
Fix,FLP,-33.9187318000,151.2279710000,52.0,1.3211763,6.855,322.24966,1678265713090,,,40836906674480,8.175803
Fix,FLP,-33.9187234000,151.2279648000,52.0,1.334409,6.83,322.4395,1678265713593,,,40837409000000,8.175803
Fix,GPS,-33.9187116667,151.2279583333,51.099999999999994,1.5174011,1.5,330.02,1678265714000,0.7,16.6,40837801000000,8.8
Fix,FLP,-33.9187093000,151.2279552000,52.0,1.360481,6.783,323.11093,1678265714670,,,40838486000000,8.185802
Fix,GPS,-33.9186950000,151.2279516667,50.599999999999994,1.5271808,1.5,326.84,1678265715000,0.8,16.2,40838801000000,8.7
Fix,FLP,-33.9186939000,151.2279452000,52.0,1.3813972,6.797,324.02905,1678265715733,,,40839549000000,8.195803
Fix,NLP,-33.9178760000,151.2283660000,,,40.0,,1678265715773,,,40839590104236,
Fix,GPS,-33.9186800000,151.2279433333,50.5,1.5349016,1.5,331.63,1678265716000,0.7,15.1,40839801000000,8.7
Fix,FLP,-33.9186806000,151.2279385000,52.0,1.399331,6.691,324.82446,1678265716256,,,40840073964141,8.205803
Fix,GPS,-33.9186666667,151.2279333333,50.2,1.569388,1.5,324.26,1678265717000,0.7,14.0,40840801000000,8.7
Fix,FLP,-33.9186758000,151.2279365000,52.0,1.4070412,6.66,325.16895,1678265716825,,,40840642929866,8.215803
Fix,FLP,-33.9186645000,151.2279290000,52.0,1.4206182,6.62,325.3844,1678265717359,,,40841176680307,8.215803
Fix,GPS,-33.9186550000,151.2279200000,50.099999999999994,1.5673292,1.5,316.11,1678265718000,0.8,17.3,40841801000000,8.9
Fix,FLP,-33.9186611000,151.2279264000,52.0,1.4298528,6.641,325.2282,1678265717893,,,40841710430491,8.225803
Fix,NLP,-33.9178760000,151.2283660000,,,40.0,,1678265718780,,,40842597228544,
Fix,FLP,-33.9186493000,151.2279145000,52.0,1.4432228,6.667,324.4473,1678265718929,,,40842746000000,8.225803
Fix,GPS,-33.9186433333,151.2279083333,50.4,1.5874033,1.5,319.24,1678265719000,0.8,18.0,40842801000000,8.8
Fix,FLP,-33.9186389000,151.2279019000,52.0,1.453548,6.685,323.48657,1678265719495,,,40843311681332,8.235803
Fix,GPS,-33.9186300000,151.2278983333,50.3,1.5930653,1.5,320.36,1678265720000,0.7,17.3,40843801000000,8.9
Fix,FLP,-33.9186372000,151.2278991000,52.0,1.4603796,6.675,322.97592,1678265720028,,,40843845431409,8.245803
Fix,GPS,-33.9186166667,151.2278900000,50.3,1.6182866,1.5,318.46,1678265721000,0.7,15.0,40844801000000,8.9
Fix,FLP,-33.9186255000,151.2278893000,52.0,1.4710686,6.617,322.4543,1678265720562,,,40844379181341,8.255803
Fix,FLP,-33.9186189000,151.2278856000,52.0,1.4776282,6.6,322.3381,1678265721096,,,40844912931466,8.255803
Fix,NLP,-33.9178760000,151.2283660000,,,40.0,,1678265721790,,,40845606554313,
Fix,GPS,-33.9186050000,151.2278816667,50.3,1.6604939,1.5,319.05,1678265722000,0.7,14.0,40845801000000,8.7
Fix,FLP,-33.9186123000,151.2278809000,52.0,1.4849932,6.628,322.2433,1678265721629,,,40845446681099,8.265803
Fix,FLP,-33.9186094000,151.2278795000,52.0,1.4935184,6.673,322.15787,1678265722132,,,40845948000000,8.265803
Fix,GPS,-33.9185900000,151.2278716667,50.3,1.701157,1.5,325.78,1678265723000,0.7,14.6,40846801000000,8.8
Fix,FLP,-33.9185997000,151.2278723000,52.0,1.5061514,6.715,321.9057,1678265722697,,,40846514180773,8.275803
Fix,FLP,-33.9185942000,151.2278697000,52.0,1.5171546,6.682,322.1212,1678265723231,,,40847047000000,8.275803
Fix,GPS,-33.9185766667,151.2278616667,50.0,1.7397611,1.5,322.62,1678265724000,0.6,12.5,40847801000000,8.8
Fix,FLP,-33.9185835000,151.2278633000,52.0,1.5328668,6.613,322.5822,1678265723765,,,40847581679940,8.285803
Fix,FLP,-33.9185783000,151.2278593000,52.0,1.5432447,6.61,322.56726,1678265724298,,,40848115429693,8.285803
Fix,NLP,-33.9178760000,151.2283660000,,,40.0,,1678265724795,,,40848612095621,
Fix,GPS,-33.9185650000,151.2278483333,49.9,1.7433642,1.5,331.21,1678265725000,0.6,11.2,40848801000000,8.7
Fix,FLP,-33.9185696000,151.2278522000,52.0,1.5595412,6.71,322.49432,1678265724833,,,40848649179146,8.295803
Fix,FLP,-33.9185644000,151.2278480000,52.0,1.5675026,6.717,322.8177,1678265725349,,,40849166000000,8.295803
Fix,GPS,-33.9185516667,151.2278350000,50.099999999999994,1.7438788,1.5,323.69,1678265726000,0.6,12.1,40849801000000,8.9
Fix,FLP,-33.9185569000,151.2278419000,52.0,1.5798216,6.726,323.26822,1678265725899,,,40849716677897,8.305803
Fix,FLP,-33.9185439000,151.2278299000,52.0,1.5958893,6.768,323.4807,1678265726951,,,40850767000000,8.305803
Fix,GPS,-33.9185400000,151.2278233333,50.099999999999994,1.7119662,1.5,315.02,1678265727000,0.7,16.2,40850801000000,9.1
Fix,NLP,-33.9178760000,151.2283660000,,,40.0,,1678265727812,,,40851629426006,
Fix,FLP,-33.9185322000,151.2278173000,52.0,1.6101239,6.811,323.11545,1678265727501,,,40851317925636,8.315803
Fix,GPS,-33.9185300000,151.2278150000,50.3,1.6903478,1.6,329.82,1678265728000,0.7,18.9,40851801000000,9.3
Fix,FLP,-33.9185313000,151.2278151000,52.0,1.6135638,6.795,322.47348,1678265728034,,,40851851674562,8.325803
Fix,FLP,-33.9185242000,151.2278086000,52.0,1.6171346,6.798,322.66806,1678265728554,,,40852370000000,8.325803
Fix,GPS,-33.9185183333,151.2278050000,50.4,1.658435,1.6,319.61,1678265729000,0.8,22.3,40852801000000,9.0
Fix,FLP,-33.9185114000,151.2277984000,52.0,1.6216,6.751,323.1262,1678265729630,,,40853446000000,8.335803
Fix,GPS,-33.9185083333,151.2277950000,50.5,1.6568909,1.6,325.51,1678265730000,0.9,21.7,40853801000000,9.1
Fix,FLP,-33.9184993000,151.2277886000,50.5,1.6226249,6.667,323.37927,1678265730691,,,40854508000000,9.1
Fix,NLP,-33.9178760000,151.2283660000,,,40.0,,1678265730819,,,40854635801160,
Fix,GPS,-33.9184950000,151.2277833333,50.2,1.6579202,1.6,324.21,1678265731000,0.9,20.3,40854801000000,9.2
Fix,FLP,-33.9184940000,151.2277833000,50.2,1.6241049,6.659,323.52,1678265731210,,,40855026000000,9.2
Fix,FLP,-33.9184867000,151.2277771000,50.2,1.6270291,6.646,323.5377,1678265731750,,,40855566000000,9.2
Fix,GPS,-33.9184800000,151.2277700000,49.9,1.682627,1.5,325.89,1678265732000,0.8,14.3,40855801000000,9.1
Fix,FLP,-33.9184791000,151.2277704000,49.9,1.6325678,6.599,323.60275,1678265732257,,,40856073964141,9.1
Fix,FLP,-33.9184712000,151.2277634000,49.9,1.6372153,6.59,323.63623,1678265732831,,,40856648000000,9.1
Fix,GPS,-33.9184666667,151.2277516667,49.7,1.708363,1.5,319.64,1678265733000,0.9,17.2,40856801000000,9.0
Fix,NLP,-33.9178760000,151.2283660000,,,40.0,,1678265733826,,,40857642956852,
Fix,FLP,-33.9184587000,151.2277485000,49.7,1.6455245,6.658,323.3151,1678265733890,,,40857706000000,9.0
Fix,GPS,-33.9184533333,151.2277366667,49.5,1.7129955,1.5,317.87,1678265734000,0.9,17.4,40857801000000,9.1
Fix,FLP,-33.9184484000,151.2277334000,49.5,1.6524246,6.689,322.48227,1678265734440,,,40858256657578,9.1
Fix,GPS,-33.9184416667,151.2277233333,49.3,1.7124808,1.5,311.02,1678265735000,0.8,15.1,40858801000000,9.2
Fix,FLP,-33.9184465000,151.2277303000,49.3,1.6573827,6.691,322.2336,1678265734974,,,40858790405586,9.2
Fix,FLP,-33.9184357000,151.2277187000,49.3,1.6596363,6.699,321.57413,1678265735508,,,40859324153911,9.2
Fix,GPS,-33.9184333333,151.2277100000,49.0,1.7078483,1.5,318.46,1678265736000,0.7,15.3,40859801000000,9.3
Fix,FLP,-33.9184344000,151.2277168000,49.0,1.6630127,6.699,321.17795,1678265736040,,,40859857901958,9.3
Fix,NLP,-33.9178760000,151.2283660000,,,40.0,,1678265736831,,,40860648446314,
Fix,FLP,-33.9184239000,151.2277039000,49.0,1.6648748,6.707,320.5731,1678265736575,,,40860391649881,9.3
Fix,GPS,-33.9184216667,151.2276966667,48.8,1.7371875,1.5,306.74,1678265737000,0.8,15.3,40860801000000,9.2
Fix,FLP,-33.9184185000,151.2276968000,48.8,1.6662343,6.672,319.85046,1678265737108,,,40860925397997,9.2
Fix,FLP,-33.9184127000,151.2276897000,48.8,1.6663204,6.648,319.26132,1678265737642,,,40861459145935,9.2
Fix,GPS,-33.9184100000,151.2276850000,48.9,1.7536587,1.5,316.91,1678265738000,0.8,18.9,40861801000000,9.1
Fix,FLP,-33.9184076000,151.2276827000,48.9,1.6688043,6.639,318.634,1678265738176,,,40861992893895,9.1
Fix,GPS,-33.9183983333,151.2276766667,48.599999999999994,1.8051308,1.6,330.88,1678265739000,0.7,13.5,40862801000000,9.0
Fix,FLP,-33.9184029000,151.2276769000,48.599999999999994,1.6720215,6.639,318.80533,1678265738710,,,40862526641904,9.0
Fix,FLP,-33.9183956000,151.2276703000,48.599999999999994,1.6755427,6.638,319.54114,1678265739244,,,40863060389672,9.0
Fix,GPS,-33.9183833333,151.2276733333,48.5,1.8354994,1.6,346.64,1678265740000,0.8,17.5,40863801000000,9.2
Fix,FLP,-33.9183910000,151.2276674000,48.5,1.678027,6.661,320.21484,1678265739777,,,40863594137597,9.2
Fix,FLP,-33.9183853000,151.2276664000,48.5,1.676934,6.639,321.38712,1678265740285,,,40864102000000,9.2
Fix,NLP,-33.9178760000,151.2283660000,,,40.0,,1678265740295,,,40864112112160,
Fix,GPS,-33.9183650000,151.2276666667,48.3,1.8282933,1.6,346.58,1678265741000,0.8,18.3,40864801000000,9.1
Fix,FLP,-33.9183752000,151.2276639000,48.3,1.6722306,6.617,323.64575,1678265740844,,,40864661633084,9.1
Fix,FLP,-33.9183674000,151.2276614000,48.3,1.6747838,6.594,324.7129,1678265741370,,,40865186000000,9.1
Fix,GPS,-33.9183533333,151.2276633333,48.3,1.784542,1.6,345.03,1678265742000,0.7,19.1,40865801000000,9.0
Fix,FLP,-33.9183566000,151.2276587000,48.3,1.676044,6.566,326.73257,1678265741913,,,40865729128742,9.0
Fix,FLP,-33.9183451000,151.2276546000,48.3,1.674697,6.605,328.47626,1678265742445,,,40866262876504,9.0
Fix,GPS,-33.9183383333,151.2276583333,48.2,1.7366728,1.5,342.81,1678265743000,0.7,16.9,40866801000000,8.8
Fix,FLP,-33.9183415000,151.2276543000,48.2,1.6775614,6.624,329.1257,1678265742980,,,40866796624377,8.8
Fix,NLP,-33.9178760000,151.2283660000,,,40.0,,1678265743307,,,40867123949161,
Fix,FLP,-33.9183337000,151.2276516000,48.2,1.6772546,6.592,329.77463,1678265743512,,,40867328000000,8.8
Fix,GPS,-33.9183250000,151.2276516667,48.3,1.6831417,1.5,351.88,1678265744000,0.7,19.7,40867801000000,8.9
Fix,FLP,-33.9183273000,151.2276510000,48.3,1.6749413,6.542,330.96887,1678265744047,,,40867864119487,8.9
Fix,FLP,-33.9183189000,151.2276473000,48.3,1.6696223,6.508,331.93463,1678265744549,,,40868366000000,8.9
Fix,GPS,-33.9183133333,151.2276483333,48.3,1.617772,1.6,3.89,1678265745000,0.8,24.4,40868801000000,9.0
Fix,FLP,-33.9183089000,151.2276449000,48.3,1.6389608,6.231,335.026,1678265745115,,,40868931614518,9.0
Fix,FLP,-33.9183027000,151.2276447000,48.3,1.62369,6.019,336.53125,1678265745649,,,40869465362177,9.0
Fix,GPS,-33.9182983333,151.2276466667,48.599999999999994,1.6069628,1.5,349.8,1678265746000,0.7,16.8,40869801000000,9.0
Fix,NLP,-33.9178760000,151.2283660000,,,40.0,,1678265746311,,,40870127682930,
Fix,GPS,-33.9182850000,151.2276416667,49.0,1.5863739,1.5,350.63,1678265747000,0.9,23.5,40870801000000,9.1
Fix,FLP,-33.9182883000,151.2276414000,49.0,1.6109525,5.856,338.43463,1678265746716,,,40870532856977,9.1
Fix,GPS,-33.9182700000,151.2276383333,49.5,1.6090217,1.6,352.81,1678265748000,0.7,13.8,40871801000000,9.2
Fix,FLP,-33.9182735000,151.2276373000,49.5,1.605019,5.825,339.7883,1678265747783,,,40871600351723,9.2
Fix,GPS,-33.9182533333,151.2276350000,49.5,1.6162277,1.5,346.13,1678265749000,0.7,14.5,40872801000000,9.3
Fix,FLP,-33.9182595000,151.2276328000,49.5,1.6001648,5.839,340.8918,1678265748851,,,40872667845624,9.3
Fix,NLP,-33.9178760000,151.2283660000,,,40.0,,1678265749323,,,40873140420238,
Fix,FLP,-33.9182447000,151.2276281000,49.5,1.6037294,5.848,341.3097,1678265749912,,,40873728000000,9.3
Fix,GPS,-33.9182366667,151.2276283333,49.599999999999994,1.6136541,1.6,342.75,1678265750000,0.8,17.8,40873801000000,9.2
Fix,FLP,-33.9182265000,151.2276226000,49.599999999999994,1.6095482,6.397,341.59534,1678265750986,,,40874802833043,9.2
Fix,GPS,-33.9182233333,151.2276233333,49.8,1.6218897,1.6,341.24,1678265751000,0.8,17.9,40874801000000,9.3
Fix,FLP,-33.9182096000,151.2276167000,49.8,1.6131784,6.626,341.7596,1678265752053,,,40875870326406,9.3
Fix,GPS,-33.9182100000,151.2276183333,50.3,1.6115953,1.6,348.53,1678265752000,0.7,19.6,40875801000000,9.3
Fix,NLP,-33.9178760000,151.2283660000,,,40.0,,1678265752331,,,40876148068161,
Fix,GPS,-33.9181966667,151.2276150000,50.4,1.6079922,1.6,346.82,1678265753000,0.8,21.1,40876800000000,9.3
Fix,FLP,-33.9181982000,151.2276122000,50.4,1.6087503,6.602,342.0804,1678265752587,,,40876404073009,9.3
Fix,FLP,-33.9181912000,151.2276113000,50.4,1.6068382,6.602,342.2996,1678265753121,,,40876937819786,9.3
Fix,GPS,-33.9181800000,151.2276116667,50.599999999999994,1.6481405,1.6,342.86,1678265754000,0.8,19.8,40877800000000,9.2
Fix,FLP,-33.9181847000,151.2276103000,50.599999999999994,1.6067412,6.637,342.40744,1678265753654,,,40877471566206,9.2
Fix,FLP,-33.9181737000,151.2276083000,50.599999999999994,1.6091431,6.697,342.61194,1678265754710,,,40878527000000,9.2
Fix,GPS,-33.9181650000,151.2276050000,51.099999999999994,1.7165986,1.6,342.02,1678265755000,0.9,19.0,40878800000000,9.3
Fix,NLP,-33.9178760000,151.2283660000,,,40.0,,1678265755339,,,40879156182007,
Fix,FLP,-33.9181613000,151.2276045000,51.099999999999994,1.6142516,6.772,342.75616,1678265755256,,,40879072805420,9.3
Fix,GPS,-33.9181500000,151.2275983333,51.5,1.7515997,1.6,341.21,1678265756000,0.8,16.3,40879800000000,9.1
Fix,FLP,-33.9181562000,151.2276019000,51.5,1.6197205,6.807,342.69183,1678265755790,,,40879606551754,9.1
Fix,FLP,-33.9181427000,151.2275957000,51.5,1.6315182,6.914,342.5231,1678265756831,,,40880647000000,9.1
Fix,GPS,-33.9181366667,151.2275983333,51.599999999999994,1.7685856,1.6,347.17,1678265757000,0.8,18.9,40880800000000,9.1
Fix,FLP,-33.9181293000,151.2275917000,51.599999999999994,1.6433722,6.966,342.52408,1678265757390,,,40881207789951,9.1
Fix,GPS,-33.9181216667,151.2275950000,51.9,1.7536587,1.6,346.32,1678265758000,0.8,20.2,40881800000000,9.1
Fix,FLP,-33.9181257000,151.2275915000,51.9,1.6500634,6.925,342.5722,1678265757924,,,40881741535846,9.1
Fix,NLP,-33.9178760000,151.2283660000,,,40.0,,1678265758348,,,40882164605392,
Fix,FLP,-33.9181176000,151.2275900000,51.9,1.6556752,6.953,342.70547,1678265758452,,,40882268000000,9.1
Fix,GPS,-33.9181083333,151.2275933333,52.099999999999994,1.695495,1.6,344.35,1678265759000,0.8,22.9,40882800000000,9.2
Fix,FLP,-33.9181092000,151.2275890000,52.099999999999994,1.6630933,6.978,343.04755,1678265758992,,,40882809027560,9.2
Fix,FLP,-33.9181011000,151.2275874000,52.099999999999994,1.6646897,6.936,343.19412,1678265759509,,,40883325000000,9.2
Fix,GPS,-33.9180950000,151.2275900000,52.0,1.64917,1.6,342.07,1678265760000,0.8,24.1,40883800000000,9.1
Fix,FLP,-33.9180946000,151.2275867000,52.0,1.6656628,6.899,343.42993,1678265760060,,,40883876519123,9.1
Fix,GPS,-33.9180800000,151.2275883333,51.8,1.6224045,1.6,344.91,1678265761000,0.8,21.6,40884800000000,9.3
Fix,FLP,-33.9180821000,151.2275833000,51.8,1.6625336,6.9,343.35162,1678265760594,,,40884410264827,9.3
Fix,NLP,-33.9178760000,151.2283660000,,,40.0,,1678265761360,,,40885177033469,
Fix,FLP,-33.9180763000,151.2275829000,51.8,1.6551864,6.852,343.29758,1678265761127,,,40884944010464,9.3
Fix,GPS,-33.9180650000,151.2275833333,51.4,1.6646117,1.6,330.59,1678265762000,0.8,16.4,40885800000000,9.2
Fix,FLP,-33.9180714000,151.2275822000,51.4,1.6522124,6.831,343.42648,1678265761660,,,40885477755806,9.2
Fix,FLP,-33.9180664000,151.2275807000,51.4,1.6536611,6.784,342.91757,1678265762194,,,40886011501394,9.2
Fix,FLP,-33.9180583000,151.2275771000,51.4,1.654874,6.749,342.36502,1678265762711,,,40886528000000,9.2
Fix,GPS,-33.9180516667,151.2275800000,51.2,1.6960098,1.6,337.28,1678265763000,0.8,18.9,40886800000000,9.4
Fix,FLP,-33.9180491000,151.2275748000,51.2,1.6561159,6.579,341.74945,1678265763257,,,40887073964141,9.4
Fix,FLP,-33.9180403000,151.2275720000,51.2,1.6586041,6.365,341.5301,1678265763796,,,40887612737567,9.4
Fix,GPS,-33.9180350000,151.2275783333,51.2,1.6913772,1.6,342.1,1678265764000,0.9,20.6,40887800000000,9.3
Fix,NLP,-33.9178760000,151.2283660000,,,40.0,,1678265764365,,,40888182218008,
Fix,FLP,-33.9180322000,151.2275711000,51.2,1.6611922,6.098,341.50366,1678265764329,,,40888146482961,9.3
Fix,FLP,-33.9180234000,151.2275698000,51.2,1.6631539,6.096,341.79416,1678265764864,,,40888680228426,9.3
Fix,GPS,-33.9180216667,151.2275733333,50.9,1.6728473,1.6,338.95,1678265765000,1.0,23.1,40888800000000,9.4
Fix,FLP,-33.9180152000,151.2275687000,50.9,1.6644804,6.125,341.92722,1678265765397,,,40889213973668,9.4
Fix,FLP,-33.9180069000,151.2275659000,50.9,1.6651013,6.078,341.7006,1678265765931,,,40889747718849,9.4
Fix,GPS,-33.9180083333,151.2275666667,50.5,1.6553466,1.6,332.67,1678265766000,0.9,20.6,40889800000000,9.3
Fix,FLP,-33.9179994000,151.2275629000,50.5,1.6637647,6.126,341.0788,1678265766465,,,40890281464090,9.3
Fix,GPS,-33.9179950000,151.2275600000,50.5,1.6625528,1.6,329.83,1678265767000,0.9,19.2,40890800000000,9.4
Fix,FLP,-33.9179929000,151.2275595000,50.5,1.6630954,6.153,340.62683,1678265766999,,,40890815209407,9.4
Fix,NLP,-33.9178760000,151.2283660000,,,40.0,,1678265767370,,,40891187359547,
Fix,FLP,-33.9179851000,151.2275544000,50.5,1.660558,6.215,339.7184,1678265767531,,,40891348954654,9.4
Fix,GPS,-33.9179816667,151.2275516667,50.4,1.658435,1.6,333.82,1678265768000,0.9,21.9,40891800000000,9.4
Fix,FLP,-33.9179793000,151.2275504000,50.4,1.6608318,6.259,339.22546,1678265768066,,,40891882699774,9.4
Fix,FLP,-33.9179705000,151.2275465000,50.4,1.6581165,6.5,338.36414,1678265768600,,,40892416445234,9.4
Fix,GPS,-33.9179750000,151.2275383333,50.8,1.6620381,1.6,299.2,1678265769000,1.2,33.2,40892800000000,9.2
Fix,FLP,-33.9179659000,151.2275413000,50.8,1.6299987,6.865,336.32544,1678265769134,,,40892950190499,9.2
Fix,FLP,-33.9179629000,151.2275341000,50.8,1.5740073,6.887,333.88135,1678265769667,,,40893483935768,9.2
Fix,GPS,-33.9179750000,151.2275283333,51.099999999999994,1.6460817,1.6,253.41,1678265770000,1.0,35.3,40893800000000,9.0
Fix,NLP,-33.9178760000,151.2283660000,,,40.0,,1678265770380,,,40894196748162,
Fix,FLP,-33.9179633000,151.2275263000,51.099999999999994,1.4544892,6.902,328.70636,1678265770200,,,40894017681286,9.0
Fix,FLP,-33.9179648000,151.2275207000,51.099999999999994,1.364393,6.867,326.12845,1678265770735,,,40894551426311,9.0
Fix,GPS,-33.9179866667,151.2275216667,51.099999999999994,1.6249781,1.6,215.55,1678265771000,1.2,36.1,40894800000000,9.4
Fix,GPS,-33.9180033333,151.2275200000,51.2,1.5915211,1.6,202.2,1678265772000,1.2,30.0,40895800000000,9.4
Fix,FLP,-33.9179727000,151.2275124000,51.099999999999994,1.1854912,6.753,320.2955,1678265771801,,,40895618916847,9.4
Fix,FLP,-33.9179861000,151.2275121000,51.2,1.0236683,6.681,313.63226,1678265772336,,,40896152662156,9.4
Fix,FLP,-33.9179936000,151.2275109000,51.2,0.9505294,6.627,309.6244,1678265772869,,,40896686407462,9.4
Fix,GPS,-33.9180216667,151.2275233333,51.3,1.5940948,1.6,190.51,1678265773000,1.0,19.8,40896800000000,9.1
Fix,NLP,-33.9178760000,151.2283660000,,,40.0,,1678265773396,,,40897213145162,
Fix,FLP,-33.9180050000,151.2275111000,51.3,0.8190967,6.589,301.53024,1678265773404,,,40897220152625,9.1
Fix,GPS,-33.9180400000,151.2275250000,51.3,1.5812267,1.6,184.56,1678265774000,1.1,26.1,40897800000000,9.3
Fix,FLP,-33.9180127000,151.2275120000,51.3,0.74726343,6.607,297.08688,1678265773937,,,40897753897878,9.3
Fix,FLP,-33.9180248000,151.2275142000,51.3,0.6350352,6.645,286.454,1678265774452,,,40898268234230,9.3
Fix,GPS,-33.9180550000,151.2275233333,51.2,1.5606378,1.7,190.71,1678265775000,1.2,26.8,40898800000000,9.7
Fix,FLP,-33.9180317000,151.2275154000,51.2,0.600085,6.666,280.04208,1678265775004,,,40898821388122,9.7
Fix,FLP,-33.9180446000,151.2275145000,51.2,0.5665219,6.706,266.47137,1678265775539,,,40899355133253,9.7
Fix,GPS,-33.9180733333,151.2275216667,51.099999999999994,1.5760795,1.7,193.59,1678265776000,1.4,26.7,40899800000000,10.1
Fix,FLP,-33.9180512000,151.2275143000,51.099999999999994,0.56865144,6.73,259.96274,1678265776072,,,40899888878139,10.1
Fix,NLP,-33.9178760000,151.2283660000,,,40.0,,1678265776402,,,40900219011932,
Fix,FLP,-33.9180642000,151.2275119000,51.099999999999994,0.58465147,6.761,247.82533,1678265776605,,,40900422623173,10.1
Fix,GPS,-33.9180916667,151.2275200000,50.8,1.6146836,1.7,185.23,1678265777000,1.2,20.4,40900800000000,9.9
Fix,FLP,-33.9180758000,151.2275130000,50.8,0.6098779,6.786,236.91212,1678265777140,,,40900956368048,9.9
Fix,FLP,-33.9180853000,151.2275119000,50.8,0.63297254,6.862,231.74622,1678265777674,,,40901490113379,9.9
Fix,GPS,-33.9181116667,151.2275166667,50.4,1.7088778,1.7,180.03,1678265778000,1.4,20.0,40901800000000,9.6
Fix,FLP,-33.9180976000,151.2275113000,50.4,0.6841653,6.908,223.45204,1678265778207,,,40902023858320,9.6
Fix,GPS,-33.9181333333,151.2275100000,50.4,1.8514558,1.7,188.99,1678265779000,1.4,19.6,40902800000000,9.6
Fix,FLP,-33.9181069000,151.2275092000,50.4,0.72154576,6.932,220.20804,1678265778740,,,40902557602912,9.6
Fix,NLP,-33.9178760000,151.2283660000,,,40.0,,1678265779406,,,40903222594932,
Fix,FLP,-33.9181179000,151.2275084000,50.4,0.7626397,6.941,216.53781,1678265779257,,,40903073964141,9.6
Fix,GPS,-33.9181550000,151.2275016667,50.599999999999994,2.034697,1.8,182.64,1678265780000,1.5,18.1,40903800000000,9.6
Fix,FLP,-33.9181291000,151.2275078000,50.599999999999994,0.7959601,6.949,212.37962,1678265779808,,,40903625092722,9.6
Fix,FLP,-33.9181423000,151.2275037000,50.599999999999994,0.85059154,6.915,209.49013,1678265780341,,,40904158838002,9.6
Fix,GPS,-33.9181733333,151.2274950000,50.9,2.2076435,1.8,189.74,1678265781000,1.3,16.4,40904800000000,9.6
Fix,FLP,-33.9181541000,151.2275009000,50.9,0.90322506,6.919,207.10362,1678265780876,,,40904692583119,9.6
Fix,FLP,-33.9181676000,151.2274963000,50.9,0.96469927,6.873,205.21016,1678265781410,,,40905226328401,9.6
Fix,GPS,-33.9181883333,151.2274916667,51.099999999999994,2.3208826,1.8,189.77,1678265782000,1.4,19.2,40905800000000,9.7
Fix,FLP,-33.9181784000,151.2274935000,51.099999999999994,1.0223715,6.86,203.59868,1678265781944,,,40905760073980,9.7
Fix,NLP,-33.9178760000,151.2283660000,,,40.0,,1678265782410,,,40906226974009,
Fix,FLP,-33.9181920000,151.2274902000,51.099999999999994,1.1226207,6.841,201.1812,1678265782476,,,40906293819726,9.7
Fix,GPS,-33.9181983333,151.2274866667,51.5,2.3491921,1.8,191.21,1678265783000,1.3,23.2,40906800000000,10.2
Fix,FLP,-33.9181995000,151.2274886000,51.5,1.1732619,6.84,200.27966,1678265783011,,,40906827565614,10.2
Fix,FLP,-33.9182085000,151.2274842000,51.5,1.2207545,6.828,199.61493,1678265783545,,,40907361311874,10.2
Fix,GPS,-33.9182033333,151.2274816667,51.7,2.3126469,1.8,201.76,1678265784000,1.3,37.0,40907800000000,10.1
Fix,FLP,-33.9182146000,151.2274819000,51.7,1.2684877,6.865,198.97238,1678265784078,,,40907895058354,10.1
Fix,FLP,-33.9182220000,151.2274775000,51.7,1.342942,6.853,198.41568,1678265784611,,,40908428804992,10.1
Fix,GPS,-33.9182116667,151.2274783333,52.2,2.2761016,1.7,198.75,1678265785000,1.2,39.0,40908800000000,9.8
Fix,NLP,-33.9178760000,151.2283660000,,,40.0,,1678265785423,,,40909240466086,
Fix,FLP,-33.9182289000,151.2274730000,52.2,1.402796,6.827,198.49998,1678265785680,,,40909496299196,9.8
Fix,GPS,-33.9182183333,151.2274800000,52.4,2.1453621,1.7,196.26,1678265786000,1.3,86.5,40909800000000,9.9
Fix,FLP,-33.9182388000,151.2274700000,52.4,1.4549547,6.845,198.22664,1678265786746,,,40910563794524,9.9
Fix,GPS,-33.9182266667,151.2274833333,52.9,1.9935192,1.7,187.47,1678265787000,1.0,61.7,40910800000000,10.1
Fix,FLP,-33.9182429000,151.2274724000,52.9,1.4900169,6.842,197.16682,1678265787256,,,40911073964141,10.1
Fix,FLP,-33.9182479000,151.2274736000,52.9,1.506275,6.838,196.40442,1678265787814,,,40911631290586,10.1
Fix,GPS,-33.9182366667,151.2274816667,53.0,1.8190284,1.7,190.8,1678265788000,0.9,40.1,40911800000000,10.2
Fix,NLP,-33.9178760000,151.2283660000,,,40.0,,1678265788431,,,40912248232163,
Fix,FLP,-33.9182522000,151.2274752000,53.0,1.5261005,6.773,195.46407,1678265788348,,,40912165039113,10.2
Fix,FLP,-33.9182566000,151.2274748000,53.0,1.5346179,6.671,195.24611,1678265788881,,,40912698787788,10.2
Fix,GPS,-33.9182500000,151.2274800000,53.3,1.6594645,1.7,189.71,1678265789000,1.2,37.4,40912800000000,10.1
Fix,FLP,-33.9182621000,151.2274734000,53.3,1.5418679,6.613,194.79323,1678265789416,,,40913232536989,10.1
Fix,GPS,-33.9182683333,151.2274766667,53.400000000000006,1.5282103,1.7,194.88,1678265790000,1.2,27.1,40913800000000,10.1
Fix,FLP,-33.9182653000,151.2274727000,53.400000000000006,1.5443314,6.645,194.47542,1678265789950,,,40913766285885,10.1
Fix,GPS,-33.9182883333,151.2274716667,53.3,1.419604,1.7,199.11,1678265791000,1.3,26.6,40914800000000,10.0
Fix,FLP,-33.9182792000,151.2274699000,53.3,1.5477688,6.687,194.23909,1678265791016,,,40914833784371,10.0
Fix,NLP,-33.9178760000,151.2283660000,,,40.0,,1678265791438,,,40915255095625,
Fix,FLP,-33.9182934000,151.2274670000,53.3,1.5460107,6.676,194.3709,1678265791550,,,40915367533859,10.0
Fix,GPS,-33.9183083333,151.2274700000,53.400000000000006,1.3480575,1.8,196.57,1678265792000,1.6,28.9,40915800000000,10.3
Fix,FLP,-33.9183029000,151.2274650000,53.400000000000006,1.539075,6.593,194.47783,1678265792084,,,40915901283438,10.3
Fix,GPS,-33.9183283333,151.2274716667,53.2,1.35269,1.8,190.63,1678265793000,1.5,26.1,40916800000000,10.2
Fix,FLP,-33.9183142000,151.2274619000,53.2,1.5346797,6.593,194.46242,1678265792619,,,40916435032897,10.2
Fix,FLP,-33.9183226000,151.2274613000,53.2,1.5324236,6.428,194.29341,1678265793152,,,40916968782639,10.2
Fix,FLP,-33.9183327000,151.2274594000,53.2,1.5279894,6.311,194.30652,1678265793686,,,40917502532382,10.2
Fix,GPS,-33.9183500000,151.2274700000,53.0,1.4618111,1.8,188.65,1678265794000,1.4,23.4,40917800000000,10.5
Fix,FLP,-33.9183414000,151.2274583000,53.0,1.5233773,6.015,194.38574,1678265794219,,,40918036282187,10.5
Fix,NLP,-33.9178760000,151.2283660000,,,40.0,,1678265794442,,,40918259470087,
Fix,GPS,-33.9183683333,151.2274716667,53.0,1.5199747,1.7,184.78,1678265795000,1.3,27.7,40918800000000,9.8
Fix,FLP,-33.9183509000,151.2274563000,53.0,1.5238138,5.833,194.31952,1678265794753,,,40918570032028,9.8
Fix,GPS,-33.9183833333,151.2274700000,53.099999999999994,1.6620381,1.7,182.42,1678265796000,1.2,24.5,40919800000000,9.9
Fix,FLP,-33.9183678000,151.2274556000,53.099999999999994,1.5253885,5.527,193.26831,1678265795820,,,40919637532009,9.9
Fix,FLP,-33.9183790000,151.2274587000,53.099999999999994,1.5315473,5.308,191.93477,1678265796355,,,40920171281695,9.9
Fix,GPS,-33.9183983333,151.2274733333,53.099999999999994,1.7809389,1.7,177.99,1678265797000,1.1,20.9,40920800000000,10.0
Fix,FLP,-33.9183873000,151.2274600000,53.099999999999994,1.5407494,5.335,191.80408,1678265796889,,,40920705032048,10.0
Fix,NLP,-33.9178760000,151.2283660000,,,40.0,,1678265797461,,,40921277935318,
Fix,FLP,-33.9184011000,151.2274648000,53.099999999999994,1.5595044,5.14,190.87408,1678265797422,,,40921238781867,10.0
Fix,GPS,-33.9184116667,151.2274766667,53.599999999999994,1.8818245,1.7,183.32,1678265798000,1.0,18.4,40921800000000,10.0
Fix,FLP,-33.9184097000,151.2274671000,53.599999999999994,1.5715858,5.041,190.05536,1678265797955,,,40921772532083,10.0
Fix,FLP,-33.9184197000,151.2274691000,53.599999999999994,1.5889921,5.006,188.88985,1678265798489,,,40922306281979,10.0
Fix,GPS,-33.9184250000,151.2274716667,53.599999999999994,1.9327819,1.7,194.15,1678265799000,1.2,23.7,40922800000000,9.8
Fix,FLP,-33.9184254000,151.2274698000,53.599999999999994,1.599988,5.174,188.37616,1678265799023,,,40922840032108,9.8
Fix,FLP,-33.9184353000,151.2274690000,53.599999999999994,1.6195207,5.553,188.37943,1678265799556,,,40923373782197,9.8
Fix,GPS,-33.9184350000,151.2274683333,53.8,1.9384439,1.7,199.25,1678265800000,1.0,16.2,40923800000000,9.8
Fix,FLP,-33.9184405000,151.2274672000,53.8,1.629644,5.657,189.07751,1678265800091,,,40923907532131,9.8
Fix,NLP,-33.9178760000,151.2283660000,,,40.0,,1678265800467,,,40924283715549,
Fix,FLP,-33.9184505000,151.2274646000,53.8,1.6432468,5.899,190.29312,1678265800625,,,40924441282502,9.8
Fix,GPS,-33.9184516667,151.2274666667,54.099999999999994,1.9060163,1.7,192.01,1678265801000,1.1,20.5,40924800000000,9.8
Fix,FLP,-33.9184559000,151.2274635000,54.099999999999994,1.6562827,6.173,190.78168,1678265801159,,,40924975032442,9.8
Fix,FLP,-33.9184616000,151.2274628000,54.099999999999994,1.6631038,6.175,190.11993,1678265801691,,,40925508782515,9.8
Fix,GPS,-33.9184616667,151.2274633333,54.2,1.867927,1.6,189.89,1678265802000,1.0,22.6,40925800000000,9.6
Fix,FLP,-33.9184679000,151.2274612000,54.2,1.6743666,6.131,189.29083,1678265802225,,,40926042532384,9.6
Fix,FLP,-33.9184758000,151.2274599000,54.2,1.6796929,6.308,188.80133,1678265802760,,,40926576282818,9.6
Fix,GPS,-33.9184733333,151.2274600000,54.5,1.8056456,1.6,192.98,1678265803000,0.8,20.0,40926800000000,9.6
Fix,FLP,-33.9184819000,151.2274587000,54.5,1.6865312,6.665,188.47957,1678265803294,,,40927110032761,9.6
Fix,NLP,-33.9178760000,151.2283660000,,,40.0,,1678265803475,,,40927292069087,
Fix,FLP,-33.9184906000,151.2274568000,54.5,1.688805,6.665,188.70522,1678265803826,,,40927643782866,9.6
Fix,GPS,-33.9184866667,151.2274550000,54.5,1.7258636,1.6,208.4,1678265804000,0.8,19.4,40927800000000,9.6
Fix,FLP,-33.9185026000,151.2274508000,54.5,1.677614,6.653,190.41777,1678265804895,,,40928711283045,9.6
Fix,GPS,-33.9185000000,151.2274483333,54.5,1.6975539,1.6,208.48,1678265805000,1.0,24.1,40928800000000,9.9
Fix,FLP,-33.9185088000,151.2274457000,54.5,1.6618263,6.675,192.69646,1678265805429,,,40929245033269,9.9
Fix,FLP,-33.9185139000,151.2274418000,54.5,1.6546197,6.696,193.92502,1678265805962,,,40929778783203,9.9
Fix,GPS,-33.9185133333,151.2274466667,54.400000000000006,1.636302,1.7,198.27,1678265806000,1.0,26.5,40929800000000,10.1
Fix,NLP,-33.9178760000,151.2283660000,,,40.0,,1678265806479,,,40930295806703,
Fix,FLP,-33.9185230000,151.2274393000,54.400000000000006,1.6473169,6.742,195.14218,1678265806496,,,40930312533212,10.1
Fix,GPS,-33.9185300000,151.2274450000,54.400000000000006,1.6167425,1.7,203.85,1678265807000,1.0,22.4,40930800000000,10.1
Fix,FLP,-33.9185280000,151.2274387000,54.400000000000006,1.6479682,6.759,195.08885,1678265807030,,,40930846283174,10.1
Fix,FLP,-33.9185389000,151.2274368000,54.400000000000006,1.6452677,6.83,195.14896,1678265807563,,,40931380033217,10.1
Fix,GPS,-33.9185483333,151.2274416667,54.3,1.6151984,1.7,196.0,1678265808000,1.0,21.7,40931800000000,10.1
Fix,FLP,-33.9185429000,151.2274360000,54.3,1.6456124,6.882,195.18408,1678265808096,,,40931913782790,10.1
Fix,FLP,-33.9185557000,151.2274350000,54.3,1.6451503,6.905,195.20181,1678265808631,,,40932447532664,10.1
Fix,GPS,-33.9185633333,151.2274383333,54.0,1.6290958,1.7,200.04,1678265809000,1.1,20.7,40932800000000,10.1
Fix,FLP,-33.9185625000,151.2274352000,54.0,1.6437131,6.853,195.38815,1678265809164,,,40932981282286,10.1
Fix,NLP,-33.9178760000,151.2283660000,,,40.0,,1678265809493,,,40933310256165,
Fix,FLP,-33.9185719000,151.2274323000,54.0,1.6430418,6.852,195.60806,1678265809698,,,40933515031757,10.1
Fix,GPS,-33.9185816667,151.2274366667,53.8,1.6522583,1.7,184.14,1678265810000,1.0,16.5,40933800000000,10.2
Fix,FLP,-33.9185792000,151.2274318000,53.8,1.6419904,6.805,195.13823,1678265810231,,,40934048781635,10.2
Fix,FLP,-33.9185891000,151.2274307000,53.8,1.6405159,6.79,194.27711,1678265810765,,,40934582530921,10.2
Fix,GPS,-33.9185966667,151.2274366667,54.099999999999994,1.6733619,1.7,187.4,1678265811000,1.1,21.0,40934800000000,9.7
Fix,FLP,-33.9185970000,151.2274312000,54.099999999999994,1.6395397,6.769,193.15263,1678265811300,,,40935116280082,9.7
Fix,FLP,-33.9186056000,151.2274304000,54.099999999999994,1.640847,6.803,192.71207,1678265811834,,,40935650029322,9.7
Fix,GPS,-33.9186133333,151.2274333333,54.3,1.6949803,1.7,188.14,1678265812000,1.0,17.1,40935800000000,9.8
Fix,FLP,-33.9186150000,151.2274306000,54.3,1.6454245,6.821,192.25267,1678265812366,,,40936183778551,9.8
Fix,NLP,-33.9178760000,151.2283660000,,,40.0,,1678265812498,,,40936315447319,
Fix,GPS,-33.9186333333,151.2274316667,54.3,1.7330698,1.7,183.89,1678265813000,0.9,14.4,40936800000000,9.8
Fix,FLP,-33.9186249000,151.2274290000,54.3,1.6488767,6.817,192.46832,1678265812900,,,40936717527534,9.8
Fix,FLP,-33.9186343000,151.2274290000,54.3,1.6553771,6.777,192.00505,1678265813433,,,40937250000000,9.8
Fix,FLP,-33.9186458000,151.2274286000,54.3,1.6598182,6.852,191.41144,1678265813969,,,40937785025309,9.8
Fix,GPS,-33.9186533333,151.2274316667,54.5,1.8010131,1.7,180.73,1678265814000,1.0,10.8,40937800000000,9.9
Fix,FLP,-33.9186561000,151.2274293000,54.5,1.6689627,6.804,190.45164,1678265814501,,,40938318774281,9.9
Fix,FLP,-33.9186660000,151.2274290000,54.5,1.6749287,6.747,190.03862,1678265815036,,,40938852523058,9.9
Fix,GPS,-33.9186733333,151.2274300000,54.2,1.8396173,1.7,178.66,1678265815000,1.0,13.9,40938800000000,9.8
Fix,NLP,-33.9178760000,151.2283660000,,,40.0,,1678265815508,,,40939325165165,
Fix,FLP,-33.9186775000,151.2274288000,54.2,1.6859726,6.723,189.06071,1678265815570,,,40939386271916,9.8
Fix,GPS,-33.9186883333,151.2274233333,53.8,1.8905747,1.7,191.8,1678265816000,0.8,13.2,40939800000000,9.8
Fix,FLP,-33.9186851000,151.2274289000,53.8,1.6919367,6.743,188.316,1678265816103,,,40939920020905,9.8
Fix,FLP,-33.9186966000,151.2274265000,53.8,1.7045622,6.761,187.93173,1678265816629,,,40940446000000,9.8
Fix,GPS,-33.9187016667,151.2274183333,53.599999999999994,1.9358703,1.7,198.09,1678265817000,0.8,11.6,40940800000000,9.8
Fix,FLP,-33.9187046000,151.2274223000,53.599999999999994,1.7183437,6.706,188.6061,1678265817174,,,40940990000000,9.8
Fix,GPS,-33.9187150000,151.2274100000,53.400000000000006,1.9528561,1.6,204.3,1678265818000,0.9,14.6,40941800000000,9.3
Fix,FLP,-33.9187150000,151.2274175000,53.400000000000006,1.7294896,6.68,189.39238,1678265817704,,,40941521267203,9.3
Fix,FLP,-33.9187184000,151.2274141000,53.400000000000006,1.7356235,6.679,190.03795,1678265818212,,,40942028000000,9.3
Fix,NLP,-33.9178760000,151.2283660000,,,40.0,,1678265818514,,,40942331148550,
Fix,GPS,-33.9187283333,151.2274000000,52.9,1.8931483,1.6,194.32,1678265819000,0.8,18.0,40942800000000,9.4
Fix,FLP,-33.9187295000,151.2274086000,52.9,1.7413374,6.693,190.65346,1678265818771,,,40942588764641,9.4
Fix,FLP,-33.9187334000,151.2274049000,52.9,1.7465531,6.662,190.8921,1678265819279,,,40943095000000,9.4
Fix,FLP,-33.9187412000,151.2274010000,52.9,1.7523586,6.701,190.98517,1678265819793,,,40943610000000,9.4
Fix,GPS,-33.9187383333,151.2273916667,52.7,1.838073,1.6,200.04,1678265820000,0.7,13.5,40943800000000,9.4
Fix,FLP,-33.9187484000,151.2273954000,52.7,1.7559031,6.773,191.52644,1678265820373,,,40944190010831,9.4
Fix,GPS,-33.9187500000,151.2273833333,52.8,1.7963805,1.6,193.96,1678265821000,0.7,14.8,40944800000000,9.4
