Fix,FLP,-33.8975939000,151.2277972000,57.80000305175781,0.4115671,3.9,175.91498,1677974370999,1.0737784,5.706925,387203647769302,15.035997
Fix,GPS,-33.8975945900,151.2277988100,67.23492431640625,0.42,3.7900925,176.8,1677974371000,1.0737784,5.706925,387203647769302,2.5
Fix,GPS,-33.8975943600,151.2277960100,66.6707763671875,0.0,3.7900925,,1677974372000,0.092195444,,387204647768104,2.5
Fix,FLP,-33.8975955000,151.2277970000,57.80000305175781,0.41267288,3.9,175.93326,1677974371999,0.092195444,,387204647768104,15.045998
Fix,FLP,-33.8975953000,151.2277966000,57.80000305175781,0.40079704,3.914,176.5529,1677974372095,0.092195444,,387204743000000,11.324688
Fix,GPS,-33.8976096100,151.2277986300,65.98016357421875,0.82,3.7900925,176.7,1677974373000,1.0685036,9.884767,387205647769198,2.5
Fix,FLP,-33.8976067000,151.2277981000,57.80000305175781,0.81831306,3.914,175.9909,1677974372999,1.0685036,9.884767,387205647769198,11.333735
Fix,FLP,-33.8975957000,151.2277952000,57.80000305175781,0.71777505,3.908,267.31622,1677974373752,,,387206400010953,11.333735
Fix,GPS,-33.8976146500,151.2278094400,65.958740234375,1.12,3.7900925,136.8,1677974374000,0.09433981,3.065158,387206646629940,2.5
Fix,FLP,-33.8975963000,151.2277931000,57.80000305175781,1.073323,3.935,251.90701,1677974374254,,,387206902599495,11.343724
Fix,GPS,-33.8976261400,151.2278182500,65.35595703125,0.7,3.7900925,176.3,1677974375000,1.1661904,26.04038,387207645223898,2.5
Fix,FLP,-33.8975979000,151.2277918000,57.80000305175781,1.1102608,3.996,250.67224,1677974374757,,,387207405190224,11.35371
Fix,FLP,-33.8976033000,151.2277935000,57.80000305175781,0.72817177,4.073,229.55934,1677974375259,,,387207907780120,11.35371
Fix,GPS,-33.8976397200,151.2278269800,65.24493408203125,1.25,3.7900925,160.1,1677974376000,0.31890437,8.696759,387208643474471,2.5
Fix,FLP,-33.8976056000,151.2277950000,57.80000305175781,0.7030154,4.152,230.49811,1677974375762,,,387208410370901,11.363692
Fix,FLP,-33.8976149000,151.2277986000,57.80000305175781,1.1458747,4.237,211.79178,1677974376265,,,387208912962464,11.363692
Fix,NLP,-33.8975880000,151.2275970000,,,80.61491,,1677974376628,,,387209276109262,
Fix,FLP,-33.8976222000,151.2277990000,57.80000305175781,1.2376989,4.366,211.10417,1677974376767,,,387209415554755,11.363692
Fix,GPS,-33.8976478200,151.2278296900,64.53228759765625,0.96,3.7900925,169.6,1677974377000,1.053945,50.003845,387209647769303,2.5
Fix,FLP,-33.8976336000,151.2278010000,57.80000305175781,1.1155083,4.557,203.56813,1677974377270,,,387209918146005,11.373735
Fix,FLP,-33.8976362000,151.2278026000,57.80000305175781,1.0740908,4.605,200.89255,1677974377772,,,387210420739755,11.324688
Fix,GPS,-33.8976564800,151.2278319800,64.26055908203125,1.03,3.7900925,167.4,1677974378000,0.840595,40.577442,387210647768625,2.5
Fix,FLP,-33.8976506000,151.2278051000,57.80000305175781,1.0271354,4.747,192.41496,1677974378275,,,387210923331787,11.332275
Fix,GPS,-33.8976676800,151.2278357800,64.591064453125,1.2,3.7900925,169.3,1677974379000,0.8628441,36.48485,387211647768834,2.5
Fix,FLP,-33.8976556000,151.2278070000,57.80000305175781,1.0350043,4.864,189.86613,1677974378777,,,387211425925537,11.342276
Fix,FLP,-33.8976633000,151.2278102000,57.80000305175781,1.1053599,4.817,186.83437,1677974379280,,,387211928520120,11.342276
Fix,GPS,-33.8976788900,151.2278372000,63.89300537109375,1.08,3.7900925,180.6,1677974380000,0.88752466,40.58616,387212638388428,2.5
Fix,FLP,-33.8976698000,151.2278124000,57.80000305175781,1.1472969,4.845,184.48207,1677974379783,,,387212431113870,11.352181
Fix,FLP,-33.8976781000,151.2278163000,57.80000305175781,1.1418707,4.822,180.37404,1677974380285,,,387212933707620,11.352181
Fix,GPS,-33.8976895100,151.2278370600,63.35858154296875,1.11,3.7900925,178.3,1677974381000,0.8736704,39.008587,387213647213844,2.5
Fix,FLP,-33.8976828000,151.2278185000,57.80000305175781,1.1291146,4.828,175.75067,1677974380788,,,387213436301370,11.36227
Fix,FLP,-33.8976899000,151.2278229000,57.80000305175781,1.1122558,4.763,166.2284,1677974381290,,,387213938895537,11.36227
Fix,GPS,-33.8977027700,151.2278407400,63.226806640625,1.35,3.7900925,154.7,1677974382000,0.85982555,32.84913,387214647207281,2.5
Fix,FLP,-33.8976944000,151.2278260000,57.80000305175781,1.1208081,4.696,164.89723,1677974381793,,,387214441488792,11.37227
Fix,FLP,-33.8977003000,151.2278301000,57.80000305175781,1.1872909,4.569,162.16672,1677974382296,,,387214944082542,11.37227
Fix,FLP,-33.8977077000,151.2278346000,57.80000305175781,1.2289371,4.572,161.41774,1677974382798,,,387215446676292,11.37227
Fix,GPS,-33.8977172400,151.2278469600,62.2401123046875,1.58,3.7900925,153.4,1677974383000,1.1733712,38.62498,387215647769406,2.5
Fix,NLP,-33.8975880000,151.2275970000,,,80.61491,,1677974383338,,,387215986121083,
Fix,FLP,-33.8977114000,151.2278376000,57.80000305175781,1.3010073,4.554,162.81902,1677974383301,,,387215949270042,11.332665
Fix,GPS,-33.8977298100,151.2278526500,61.7412109375,1.17,3.7900925,154.4,1677974384000,0.8544004,37.044712,387216647768990,2.5
Fix,FLP,-33.8977288000,151.2278430000,57.80000305175781,1.2949737,4.587,166.72403,1677974383803,,,387216451862333,11.342666
Fix,FLP,-33.8977335000,151.2278434000,57.80000305175781,1.2558726,4.616,170.71785,1677974384306,,,387216954456083,11.342666
Fix,GPS,-33.8977405500,151.2278572300,61.21453857421875,1.13,3.7900925,159.3,1677974385000,0.8544004,38.1353,387217647769302,2.5
Fix,FLP,-33.8977380000,151.2278429000,57.80000305175781,1.2370284,4.657,173.61551,1677974384810,,,387217457049833,11.352666
Fix,FLP,-33.8977441000,151.2278449000,57.80000305175781,1.2092434,4.723,174.51018,1677974385311,,,387217959642021,11.352666
Fix,GPS,-33.8977541800,151.2278621600,61.07354736328125,1.43,3.7900925,159.3,1677974386000,0.840595,30.686342,387218647769303,2.5
Fix,FLP,-33.8977469000,151.2278469000,57.80000305175781,1.2034281,4.751,173.22638,1677974385815,,,387218462235771,11.362665
Fix,NLP,-33.8977860000,151.2276730000,,,93.327484,,1677974386082,,,387218730724363,
Fix,GPS,-33.8977631800,151.2278656300,60.8980712890625,0.93,3.7900925,158.9,1677974387000,0.840595,43.92945,387219635883529,2.5
Fix,FLP,-33.8977582000,151.2278532000,57.80000305175781,1.2149055,4.843,171.28792,1677974386819,,,387219467423010,11.372547
Fix,FLP,-33.8977656000,151.2278588000,57.80000305175781,1.2063923,4.91,170.14001,1677974387322,,,387219970017906,11.372547
Fix,FLP,-33.8977678000,151.2278605000,57.80000305175781,1.1912935,4.924,170.11389,1677974387824,,,387220472612385,11.382573
Fix,GPS,-33.8977730900,151.2278703400,60.992431640625,1.24,3.7900925,154.0,1677974388000,0.840595,34.858833,387220638493477,2.5
Fix,FLP,-33.8977772000,151.2278648000,63.5,1.1763086,4.916,169.77373,1677974388327,,,387220975208427,13.445324
Fix,GPS,-33.8977832900,151.2278745000,60.9984130859375,1.17,3.7900925,159.8,1677974389000,1.1250777,46.675213,387221636748268,2.5
Fix,FLP,-33.8977820000,151.2278671000,63.5,1.1758788,4.934,169.3264,1677974388829,,,387221477804260,13.455307
Fix,NLP,-33.8977860000,151.2276730000,,,93.327484,,1677974389110,,,387221758649362,
Fix,FLP,-33.8977870000,151.2278696000,63.5,1.1745907,4.946,168.58116,1677974389332,,,387221980401135,13.455307
Fix,GPS,-33.8977926500,151.2278782600,60.44061279296875,1.06,3.7900925,159.2,1677974390000,1.1250777,50.352894,387222643520663,2.5
Fix,FLP,-33.8977904000,151.2278710000,63.5,1.1745343,4.959,168.37303,1677974389834,,,387222482997542,13.465375
Fix,FLP,-33.8977944000,151.2278734000,63.5,1.1704017,4.929,168.07889,1677974390341,,,387222989000000,13.465375
Fix,FLP,-33.8977998000,151.2278759000,63.5,1.1660367,4.969,167.75304,1677974390843,,,387223491000000,13.465375
Fix,GPS,-33.8978030500,151.2278812400,59.8624267578125,1.09,3.7900925,162.0,1677974391000,0.840595,38.619568,387223639451913,2.5
Fix,FLP,-33.8978053000,151.2278791000,63.5,1.1586478,4.955,167.33846,1677974391369,,,387224017000000,13.475334
Fix,GPS,-33.8978127900,151.2278844900,60.05419921875,1.1,3.7900925,159.6,1677974392000,0.89872134,39.78829,387224644251340,2.5
Fix,FLP,-33.8978117000,151.2278816000,63.5,1.1558192,4.962,167.29887,1677974391945,,,387224593912385,13.485382
Fix,NLP,-33.8977860000,151.2276730000,,,93.327484,,1677974392117,,,387224765246288,
Fix,FLP,-33.8978187000,151.2278847000,63.5,1.1484008,4.968,166.99341,1677974392449,,,387225096511448,13.485382
Fix,GPS,-33.8978231700,151.2278878700,60.38824462890625,1.09,3.7900925,159.1,1677974393000,0.84599054,38.950016,387225644952173,2.5
Fix,FLP,-33.8978210000,151.2278859000,63.5,1.1476017,4.968,166.70328,1677974392951,,,387225599110406,13.495389
Fix,FLP,-33.8978323000,151.2278910000,63.5,1.1341858,4.967,165.83467,1677974393453,,,387226101709365,8.491607
Fix,GPS,-33.8978339800,151.2278911100,60.087646484375,1.09,3.7900925,161.1,1677974394000,0.840595,38.669342,387226636363526,2.5
Fix,FLP,-33.8978323000,151.2278916000,63.5,1.1314266,4.963,165.37642,1677974393955,,,387226603866630,8.501521
Fix,FLP,-33.8978420000,151.2278956000,63.5,1.1294076,4.925,164.88768,1677974394961,,,387227609510615,8.511616
Fix,GPS,-33.8978450900,151.2278917900,59.3271484375,1.2,3.7900925,177.3,1677974395000,0.840595,36.07265,387227645863839,2.5
Fix,NLP,-33.8977860000,151.2276730000,,,93.327484,,1677974395129,,,387227777619672,
Fix,FLP,-33.8978485000,151.2278979000,63.5,1.1301317,4.896,164.11815,1677974395464,,,387228112112490,8.511616
Fix,GPS,-33.8978590300,151.2278930100,59.0604248046875,1.22,3.7900925,172.3,1677974396000,0.8736704,35.88703,387228647768625,2.5
Fix,FLP,-33.8978519000,151.2278991000,63.5,1.1349176,4.852,163.72011,1677974395967,,,387228614715354,8.521635
Fix,FLP,-33.8978600000,151.2279011000,63.5,1.1420071,4.834,163.09999,1677974396469,,,387229117318271,8.521635
Fix,GPS,-33.8978723100,151.2278970300,58.62127685546875,1.21,3.7900925,163.6,1677974397000,1.0373042,41.625797,387229647769354,2.5
Fix,FLP,-33.8978632000,151.2279020000,63.5,1.147823,4.812,162.88017,1677974396972,,,387229619920250,8.531635
Fix,FLP,-33.8978757000,151.2279052000,63.5,1.1583399,4.78,162.48407,1677974397977,,,387230625128583,8.541533
Fix,GPS,-33.8978858200,151.2279023700,58.98626708984375,1.27,3.7900925,162.2,1677974398000,1.09,41.770943,387230637608942,2.5
Fix,NLP,-33.8977860000,151.2276730000,,,93.327484,,1677974398170,,,387230818525973,
Fix,FLP,-33.8978885000,151.2279078000,57.80000305175781,1.1671419,4.723,162.25691,1677974398479,,,387231127732750,13.235287
Fix,FLP,-33.8978935000,151.2279090000,57.80000305175781,1.1719531,4.731,162.22092,1677974398988,,,387231636000000,13.235287
Fix,GPS,-33.8978981000,151.2279096000,58.85748291015625,1.29,3.7900925,158.0,1677974399000,0.8736704,34.474094,387231647769459,2.5
Fix,NLP,-33.8977860000,151.2276730000,,,93.327484,,1677974399199,,,387231847249097,
Fix,FLP,-33.8979019000,151.2279118000,57.80000305175781,1.1822774,4.68,161.83043,1677974399585,,,387232233463115,13.245388
Fix,GPS,-33.8979103600,151.2279140400,58.96820068359375,1.27,3.7900925,167.2,1677974400000,0.8653323,34.702774,387232647769250,2.5
Fix,FLP,-33.8979078000,151.2279142000,57.80000305175781,1.1909003,4.591,161.12186,1677974400088,,,387232736068062,13.255388
Fix,FLP,-33.8979142000,151.2279169000,57.80000305175781,1.1948838,4.583,161.02344,1677974400590,,,387233238673740,13.255388
Fix,GPS,-33.8979244500,151.2279148500,59.20941162109375,1.3,3.7900925,177.9,1677974401000,0.88481635,34.264137,387233647769355,2.5
Fix,FLP,-33.8979204000,151.2279192000,57.80000305175781,1.202242,4.502,161.26476,1677974401093,,,387233741278219,13.2653885
Fix,NLP,-33.8977860000,151.2276730000,,,93.327484,,1677974401704,,,387234352429669,
Fix,FLP,-33.8979260000,151.2279209000,57.80000305175781,1.2058725,4.5,161.79843,1677974401595,,,387234243884365,13.2653885
Fix,GPS,-33.8979371900,151.2279165000,59.0843505859375,1.27,3.7900925,167.0,1677974402000,0.840595,34.11808,387234647769303,2.5
Fix,FLP,-33.8979335000,151.2279223000,57.80000305175781,1.2108767,4.383,162.77315,1677974402099,,,387234746489260,13.275388
Fix,FLP,-33.8979391000,151.2279234000,57.80000305175781,1.2143646,4.365,163.03506,1677974402601,,,387235249095875,13.285388
Fix,GPS,-33.8979485900,151.2279216900,58.83099365234375,1.31,3.7900925,154.7,1677974403000,0.8792042,33.722916,387235647769250,2.5
Fix,FLP,-33.8979427000,151.2279238000,57.80000305175781,1.2216972,4.355,163.08847,1677974403104,,,387235751700979,13.285388
Fix,FLP,-33.8979546000,151.2279272000,57.80000305175781,1.2297373,4.364,162.85574,1677974403606,,,387236254307750,7.645283
Fix,GPS,-33.8979594700,151.2279273000,58.29229736328125,1.3,3.7900925,154.9,1677974404000,0.840595,33.333427,387236647083731,2.5
Fix,FLP,-33.8979602000,151.2279292000,57.80000305175781,1.2332811,4.337,162.14563,1677974404108,,,387236756914521,7.6552763
Fix,NLP,-33.8977860000,151.2276730000,,,93.327484,,1677974404749,,,387237397371127,
Fix,FLP,-33.8979664000,151.2279322000,57.80000305175781,1.235305,4.359,161.5705,1677974404612,,,387237259521292,7.6552763
Fix,GPS,-33.8979691500,151.2279331000,58.37799072265625,1.25,3.7900925,153.2,1677974405000,0.85982555,34.891106,387237647769198,2.5
Fix,FLP,-33.8979721000,151.2279353000,57.80000305175781,1.2358191,4.394,160.42119,1677974405114,,,387237762128062,7.665283
Fix,FLP,-33.8979765000,151.2279382000,57.80000305175781,1.2341684,4.413,159.6321,1677974405616,,,387238264736604,7.665283
Fix,GPS,-33.8979782000,151.2279394100,58.439697265625,1.21,3.7900925,158.8,1677974406000,0.88481635,36.3745,387238647769146,2.5
Fix,FLP,-33.8979815000,151.2279415000,57.80000305175781,1.229932,4.434,158.248,1677974406119,,,387238767343375,7.675283
Fix,GPS,-33.8979854100,151.2279457000,58.3668212890625,1.05,3.7900925,154.2,1677974407000,0.840595,39.8385,387239647769302,2.5
Fix,FLP,-33.8979860000,151.2279445000,57.80000305175781,1.2289171,4.44,157.7343,1677974406621,,,387239269952229,7.685283
Fix,FLP,-33.8979893000,151.2279468000,57.80000305175781,1.2208678,4.421,157.22699,1677974407125,,,387239772559469,7.685283
Fix,FLP,-33.8979952000,151.2279510000,57.80000305175781,1.2099599,4.464,156.50383,1677974407628,,,387240275168844,7.685283
Fix,GPS,-33.8979937000,151.2279485700,58.71820068359375,1.11,3.7900925,159.1,1677974408000,0.87091905,38.73836,387240644089615,2.5
Fix,FLP,-33.8979954000,151.2279521000,58.71820068359375,1.189517,4.453,154.89293,1677974408129,,,387240777778219,2.5
Fix,FLP,-33.8980053000,151.2279604000,58.71820068359375,1.1394237,4.458,152.6572,1677974408632,,,387241280386135,2.5
Fix,GPS,-33.8980020600,151.2279494900,58.3349609375,1.11,3.7900925,165.4,1677974409000,0.840595,37.984238,387241641018417,2.5
Fix,FLP,-33.8980080000,151.2279664000,58.3349609375,1.0941486,4.476,149.3714,1677974409637,,,387242285604885,2.5
Fix,GPS,-33.8980100200,151.2279584300,57.497802734375,1.31,3.7900925,134.9,1677974410000,0.91586024,35.9106,387242646333729,2.5
Fix,FLP,-33.8980106000,151.2279707000,57.497802734375,1.0950034,4.448,147.57281,1677974410140,,,387242788215250,2.5
Fix,FLP,-33.8980153000,151.2279752000,57.497802734375,1.1042881,4.482,147.2121,1677974410643,,,387243290825146,2.5
Fix,GPS,-33.8980201200,151.2279619900,57.75018310546875,1.32,3.7900925,154.0,1677974411000,0.8792042,33.87575,387243647769198,2.5
Fix,FLP,-33.8980188000,151.2279773000,57.75018310546875,1.1217144,4.481,147.1091,1677974411145,,,387243793434521,2.5
Fix,GPS,-33.8980269800,151.2279644600,57.59521484375,0.93,3.7900925,154.7,1677974412000,0.8930845,45.1772,387244642710342,2.5
Fix,FLP,-33.8980257000,151.2279812000,57.59521484375,1.1298046,4.525,147.308,1677974411648,,,387244296044417,2.5
Fix,FLP,-33.8980309000,151.2279825000,57.59521484375,1.1248244,4.586,147.78847,1677974412150,,,387244798654937,2.5
Fix,GPS,-33.8980345700,151.2279685000,57.391845703125,1.08,3.7900925,149.8,1677974413000,0.99045444,43.072395,387245639468050,2.5
Fix,FLP,-33.8980346000,151.2279840000,57.391845703125,1.1144797,4.599,148.10997,1677974412653,,,387245301264312,2.5
Fix,GPS,-33.8980451800,151.2279736800,56.44873046875,1.28,3.7900925,158.9,1677974414000,0.840595,33.97421,387246640611227,2.5
Fix,GPS,-33.8980578600,151.2279741400,56.033203125,1.33,3.7900925,173.6,1677974415000,0.9102197,34.18936,387247647769250,2.5
Fix,GPS,-33.8980721200,151.2279731900,56.13995361328125,1.44,3.7900925,177.7,1677974416000,1.0511898,36.607094,387248647769354,2.5
Fix,GPS,-33.8980802300,151.2279723400,56.1900634765625,0.72,3.7900925,179.5,1677974417000,1.1164676,63.56957,387249644254299,2.5
Fix,GPS,-33.8980902300,151.2279725200,56.56121826171875,0.97,3.7900925,176.0,1677974418000,0.98229325,46.55814,387250647769303,2.5
Fix,GPS,-33.8981057100,151.2279703200,57.65826416015625,1.43,3.7900925,186.5,1677974419000,0.91525954,32.751274,387251647769459,2.5
Fix,GPS,-33.8981223100,151.2279689800,58.16253662109375,1.62,3.7900925,181.1,1677974420000,1.0012492,31.542244,387252647769406,2.5
Fix,GPS,-33.8981357900,151.2279738200,58.74176025390625,1.43,3.7900925,163.9,1677974421000,0.981835,34.74906,387253647769250,2.5
Fix,GPS,-33.8981475200,151.2279789400,60.203857421875,1.33,3.7900925,160.7,1677974422000,0.9102197,34.09845,387254647768730,2.5
Fix,GPS,-33.8981592500,151.2279847800,61.0283203125,1.41,3.7900925,156.1,1677974423000,0.98737025,35.44095,387255647768104,2.5
Fix,GPS,-33.8981667000,151.2279949100,60.435546875,1.3,3.7900925,134.7,1677974424000,0.98473346,37.277695,387256647768677,2.5
Fix,GPS,-33.8981778500,151.2280035100,59.5147705078125,1.28,3.7900925,143.0,1677974425000,0.9013878,35.29524,387257647769198,2.5
Fix,GPS,-33.8981931800,151.2280072000,59.60296630859375,1.49,3.7900925,166.4,1677974426000,0.8544004,29.933966,387258647768625,2.5
Fix,GPS,-33.8982024100,151.2280024100,59.83001708984375,1.19,3.7900925,193.0,1677974427000,0.8628441,36.689716,387259645607837,2.5
Fix,GPS,-33.8982134400,151.2279982800,60.20947265625,1.17,3.7900925,192.0,1677974428000,0.9404786,39.09954,387260645672211,2.5
Fix,GPS,-33.8982247700,151.2279977600,60.56280517578125,1.17,3.7900925,179.9,1677974429000,0.9596354,40.500866,387261647769354,2.5
Fix,GPS,-33.8982334200,151.2279989500,60.95343017578125,0.82,3.7900925,171.5,1677974430000,0.840595,48.054234,387262647769042,2.5
Fix,GPS,-33.8982424300,151.2280045400,60.5943603515625,1.06,3.7900925,147.4,1677974431000,0.9596354,43.6461,387263647768000,2.5
Fix,GPS,-33.8982548000,151.2280020900,60.842041015625,1.22,3.7900925,184.9,1677974432000,0.8930845,36.69567,387264647768573,2.5
Fix,GPS,-33.8982683400,151.2280056800,61.2943115234375,1.06,3.7900925,160.9,1677974433000,0.9404786,42.240673,387265647768678,2.5
Fix,GPS,-33.8982795800,151.2280075500,62.05816650390625,0.92,3.7900925,158.5,1677974434000,0.9404786,47.02248,387266647769146,2.5
Fix,GPS,-33.8982929700,151.2280097800,61.3826904296875,1.13,3.7900925,166.0,1677974435000,0.8544004,37.98205,387267647769146,2.5
Fix,GPS,-33.8983055600,151.2280087700,61.7725830078125,1.03,3.7900925,190.8,1677974436000,0.9374433,43.713947,387268647768521,2.5
Fix,GPS,-33.8983152300,151.2280075300,61.89215087890625,0.97,3.7900925,185.4,1677974437000,0.9602083,45.55121,387269647769250,2.5
Fix,GPS,-33.8983243800,151.2280076600,62.745361328125,0.99,3.7900925,179.7,1677974438000,1.0241582,47.365974,387270647768729,2.5
Fix,GPS,-33.8983360200,151.2280143800,63.3663330078125,1.19,3.7900925,146.6,1677974439000,0.9660745,38.911423,387271647768834,2.5
Fix,GPS,-33.8983496500,151.2280119600,64.0177001953125,1.29,3.7900925,185.9,1677974440000,0.9404786,36.135666,387272647768833,2.5
Fix,GPS,-33.8983614000,151.2280110100,64.2049560546875,1.07,3.7900925,181.1,1677974441000,0.9660745,42.498047,387273647769146,2.5
Fix,GPS,-33.8983745100,151.2280134600,64.4481201171875,1.11,3.7900925,168.8,1677974442000,0.93813646,40.410614,387274647769302,2.5
Fix,GPS,-33.8983856500,151.2280162000,64.26531982421875,1.14,3.7900925,156.7,1677974443000,0.9265528,39.278915,387275647769146,2.5
Fix,GPS,-33.8983987100,151.2280135300,63.19866943359375,1.17,3.7900925,176.6,1677974444000,0.9544108,39.35921,387276641191216,2.5
Fix,GPS,-33.8984114600,151.2280070100,63.49212646484375,1.17,3.7900925,190.3,1677974445000,0.9300538,38.214054,387277642546215,2.5
Fix,GPS,-33.8984232000,151.2280035700,63.7423095703125,1.11,3.7900925,180.0,1677974446000,0.9265528,40.404972,387278647769198,2.5239134
Fix,GPS,-33.8984351500,151.2280015000,63.44927978515625,1.16,3.7900925,191.8,1677974447000,0.9220087,37.92928,387279647769198,2.5
Fix,GPS,-33.8984455800,151.2279990200,63.63861083984375,1.16,3.7900925,191.6,1677974448000,1.020784,42.20297,387280644696995,2.5984726
Fix,GPS,-33.8984559500,151.2279955600,63.74298095703125,1.16,3.7900925,199.7,1677974449000,0.98737025,41.357132,387281647769198,2.6469665
Fix,GPS,-33.8984657300,151.2279928200,63.00054931640625,1.17,3.7900925,196.3,1677974450000,1.0707474,43.36054,387282647769146,2.7098548
Fix,GPS,-33.8984776700,151.2279961000,62.2152099609375,1.22,3.7900925,180.5,1677974451000,0.9420191,36.93026,387283647769146,2.7326877
Fix,GPS,-33.8984890200,151.2279991300,61.69464111328125,1.14,3.7900925,168.7,1677974452000,0.8653323,37.836567,387284647477827,2.519512
Fix,GPS,-33.8985008700,151.2280015700,61.3797607421875,1.08,3.7900925,169.4,1677974453000,0.87091905,39.473125,387285634065066,2.5
Fix,GPS,-33.8985130300,151.2279988200,61.48297119140625,1.25,3.7900925,191.1,1677974454000,0.90801984,35.293907,387286647769303,2.5
Fix,GPS,-33.8985240700,151.2279938700,61.61322021484375,1.17,3.7900925,199.1,1677974455000,0.93813646,38.876034,387287647769042,2.5
Fix,GPS,-33.8985362700,151.2279948200,61.56365966796875,1.36,3.7900925,170.0,1677974456000,0.93600214,33.698265,387288647769198,2.5118961
Fix,GPS,-33.8985505300,151.2279955700,60.8262939453125,1.52,3.7900925,183.9,1677974457000,0.95210296,31.190004,387289647769146,2.5
Fix,GPS,-33.8985641900,151.2279928400,60.38787841796875,1.4,3.7900925,193.1,1677974458000,0.98737025,35.414913,387290647768990,2.5
Fix,GPS,-33.8985753400,151.2279878500,61.2196044921875,0.98,3.7900925,198.7,1677974459000,0.932309,44.234257,387291646384075,2.5
Fix,GPS,-33.8985851000,151.2279831000,61.89801025390625,0.78,3.7900925,208.7,1677974460000,0.9462558,53.13926,387292647768938,2.5
Fix,GPS,-33.8985990700,151.2279798400,60.781494140625,1.22,3.7900925,192.6,1677974461000,0.84599054,35.24052,387293647768885,2.5
Fix,GPS,-33.8986113300,151.2279741000,61.76226806640625,1.21,3.7900925,203.0,1677974462000,0.85982555,35.992767,387294647768677,2.5
Fix,GPS,-33.8986233200,151.2279703500,62.7354736328125,1.17,3.7900925,197.1,1677974463000,0.9300538,38.372177,387295647768677,2.5
Fix,GPS,-33.8986376400,151.2279745700,61.43505859375,1.3,3.7900925,177.8,1677974464000,0.8653323,33.629147,387296647769250,2.5
Fix,GPS,-33.8986511300,151.2279809500,60.3699951171875,1.2,3.7900925,171.5,1677974465000,0.9462558,38.44544,387297646281989,2.5
Fix,GPS,-33.8986645500,151.2279741000,59.6192626953125,1.59,3.7900925,217.9,1677974466000,0.90443355,29.034857,387298647769407,2.5
Fix,GPS,-33.8986781600,151.2279697400,59.27130126953125,1.24,3.7900925,202.1,1677974467000,1.018332,39.729923,387299639576363,2.5
Fix,FLP,-33.8980346000,151.2279685000,57.391845703125,1.08,3.9,149.0,1677974412992,0.99045444,43.072395,387245639468050,2.5
Fix,FLP,-33.8980452000,151.2279737000,56.44873046875,1.28,3.9,158.0,1677974413992,0.840595,33.97421,387246640611227,2.5
Fix,FLP,-33.8980574000,151.2279752000,56.033203125,1.290445,3.9,165.57028,1677974414999,0.9102197,34.18936,387247647769250,2.5
Fix,FLP,-33.8980735000,151.2279768000,56.13995361328125,1.2924352,3.872,166.4907,1677974415999,1.0511898,36.607094,387248647769354,2.5
Fix,FLP,-33.8980840000,151.2279758000,56.1900634765625,1.1911566,3.863,169.72182,1677974416997,1.1164676,63.56957,387249644254299,2.5
Fix,FLP,-33.8980948000,151.2279751000,56.56121826171875,1.1605663,3.858,171.68187,1677974417999,0.98229325,46.55814,387250647769303,2.5
Fix,FLP,-33.8981076000,151.2279729000,57.65826416015625,1.141999,3.858,174.96555,1677974418999,0.91525954,32.751274,387251647769459,2.5
Fix,FLP,-33.8981223000,151.2279714000,58.16253662109375,1.1660665,3.858,176.1427,1677974420000,1.0012492,31.542244,387252647769406,2.5
Fix,FLP,-33.8981368000,151.2279734000,58.74176025390625,1.2036003,3.856,175.55127,1677974420999,0.981835,34.74906,387253647769250,2.5
Fix,FLP,-33.8981503000,151.2279770000,60.203857421875,1.2328796,3.858,173.89575,1677974422000,0.9102197,34.09845,387254647768730,2.5
Fix,FLP,-33.8981628000,151.2279829000,61.0283203125,1.2462183,3.856,170.55785,1677974422999,0.98737025,35.44095,387255647768104,2.5
Fix,FLP,-33.8981720000,151.2279919000,60.435546875,1.2169553,3.856,165.4621,1677974424000,0.98473346,37.277695,387256647768677,2.5
Fix,FLP,-33.8981825000,151.2280010000,59.5147705078125,1.2158132,3.856,161.53734,1677974425000,0.9013878,35.29524,387257647769198,2.5
Fix,FLP,-33.8981951000,151.2280077000,59.60296630859375,1.2317137,3.856,160.00514,1677974425999,0.8544004,29.933966,387258647768625,2.5
Fix,FLP,-33.8982055000,151.2280076000,59.83001708984375,1.1859611,3.856,162.77388,1677974426998,0.8628441,36.689716,387259645607837,2.5
Fix,FLP,-33.8982172000,151.2280050000,60.20947265625,1.1830124,3.856,166.75449,1677974427997,0.9404786,39.09954,387260645672211,2.5
Fix,FLP,-33.8982282000,151.2280022000,60.56280517578125,1.1559727,3.858,171.01617,1677974428999,0.9596354,40.500866,387261647769354,2.5
Fix,FLP,-33.8982375000,151.2280009000,60.95343017578125,1.0960405,3.856,173.14299,1677974430000,0.840595,48.054234,387262647769042,2.5
Fix,FLP,-33.8982467000,151.2280040000,60.5943603515625,1.0739653,3.856,170.98781,1677974430999,0.9596354,43.6461,387263647768000,2.5
Fix,FLP,-33.8982557000,151.2280042000,60.842041015625,1.0421273,3.851,170.83687,1677974431999,0.8930845,36.69567,387264647768573,2.5
Fix,FLP,-33.8982665000,151.2280061000,61.2943115234375,1.0449814,3.858,169.68651,1677974432999,0.9404786,42.240673,387265647768678,2.5
Fix,FLP,-33.8982775000,151.2280080000,62.05816650390625,1.0346129,3.863,168.58466,1677974434000,0.9404786,47.02248,387266647769146,2.5
Fix,FLP,-33.8982898000,151.2280101000,61.3826904296875,1.0493791,3.881,168.29422,1677974434999,0.8544004,37.98205,387267647769146,2.5
Fix,FLP,-33.8983022000,151.2280103000,61.7725830078125,1.044414,3.9,170.78027,1677974436000,0.9374433,43.713947,387268647768521,2.5
Fix,FLP,-33.8983132000,151.2280096000,61.89215087890625,1.03677,3.9,172.4841,1677974437000,0.9602083,45.55121,387269647769250,2.5
Fix,FLP,-33.8983234000,151.2280093000,62.745361328125,1.0334076,3.9,173.25162,1677974437999,1.0241582,47.365974,387270647768729,2.5
Fix,FLP,-33.8983342000,151.2280129000,63.3663330078125,1.0398773,3.9,170.23653,1677974438999,0.9660745,38.911423,387271647768834,2.5
Fix,FLP,-33.8983466000,151.2280132000,64.0177001953125,1.0634786,3.9,172.25325,1677974439999,0.9404786,36.135666,387272647768833,2.5
Fix,FLP,-33.8983587000,151.2280128000,64.2049560546875,1.066211,3.9,173.38358,1677974441000,0.9660745,42.498047,387273647769146,2.5
Fix,FLP,-33.8983713000,151.2280139000,64.4481201171875,1.0748153,3.9,172.78458,1677974441999,0.93813646,40.410614,387274647769302,2.5
Fix,FLP,-33.8983831000,151.2280161000,64.26531982421875,1.080981,3.9,170.85374,1677974443000,0.9265528,39.278915,387275647769146,2.5
Fix,FLP,-33.8983957000,151.2280157000,63.19866943359375,1.0925198,3.9,171.60655,1677974443994,0.9544108,39.35921,387276641191216,2.5
Fix,FLP,-33.8984084000,151.2280120000,63.49212646484375,1.0979471,3.9,174.15318,1677974444994,0.9300538,38.214054,387277642546215,2.5
Fix,FLP,-33.8984207000,151.2280084000,63.7423095703125,1.1015716,3.9,175.11174,1677974446000,0.9265528,40.404972,387278647769198,2.5239134
Fix,FLP,-33.8984328000,151.2280053000,63.44927978515625,1.1061885,3.9,177.2861,1677974446999,0.9220087,37.92928,387279647769198,2.5
Fix,FLP,-33.8984441000,151.2280023000,63.63861083984375,1.1100782,3.881,178.85956,1677974447997,1.020784,42.20297,387280644696995,2.5984726
Fix,FLP,-33.8984550000,151.2279988000,63.74298095703125,1.1102124,3.856,181.12283,1677974448999,0.98737025,41.357132,387281647769198,2.6469665
Fix,FLP,-33.8984657000,151.2279928000,63.00054931640625,1.17,3.79,196.0,1677974449999,1.0707474,43.36054,387282647769146,2.7098548
Fix,FLP,-33.8984789000,151.2279935000,62.2152099609375,1.1608618,3.826,190.04863,1677974450999,0.9420191,36.93026,387283647769146,2.7326877
Fix,FLP,-33.8984912000,151.2279957000,61.69464111328125,1.1152596,3.834,185.0818,1677974452000,0.8653323,37.836567,387284647477827,2.519512
Fix,FLP,-33.8985009000,151.2279988000,61.3797607421875,1.1007454,3.826,181.43217,1677974452986,0.87091905,39.473125,387285634065066,2.5
Fix,FLP,-33.8985167000,151.2279978000,61.48297119140625,1.1061603,3.821,183.10081,1677974453999,0.90801984,35.293907,387286647769303,2.5
Fix,FLP,-33.8985228000,151.2279948000,61.61322021484375,1.1278352,3.826,183.37265,1677974455000,0.93813646,38.876034,387287647769042,2.5
Fix,FLP,-33.8985355000,151.2279973000,61.56365966796875,1.2121413,3.831,177.25282,1677974456000,0.93600214,33.698265,387288647769198,2.5118961
Fix,FLP,-33.8985518000,151.2279950000,60.8262939453125,1.2365049,3.831,182.41187,1677974456999,0.95210296,31.190004,387289647769146,2.5
Fix,FLP,-33.8985652000,151.2279937000,60.38787841796875,1.2802747,3.838,182.39958,1677974458000,0.98737025,35.414913,387290647768990,2.5
Fix,FLP,-33.8985757000,151.2279902000,61.2196044921875,1.23602,3.834,184.3606,1677974458999,0.932309,44.234257,387291646384075,2.5
Fix,FLP,-33.8985886000,151.2279851000,61.89801025390625,1.1713712,3.834,187.56725,1677974459999,0.9462558,53.13926,387292647768938,2.5
Fix,FLP,-33.8986013000,151.2279808000,60.781494140625,1.1479034,3.834,189.2397,1677974460999,0.84599054,35.24052,387293647768885,2.5
Fix,FLP,-33.8986128000,151.2279751000,61.76226806640625,1.1069195,3.834,192.55139,1677974461999,0.85982555,35.992767,387294647768677,2.5
Fix,FLP,-33.8986252000,151.2279708000,62.7354736328125,1.1154147,3.834,193.12883,1677974462999,0.9300538,38.372177,387295647768677,2.5
Fix,FLP,-33.8986387000,151.2279712000,61.43505859375,1.1286631,3.831,191.62756,1677974463999,0.8653323,33.629147,387296647769250,2.5
Fix,FLP,-33.8986520000,151.2279747000,60.3699951171875,1.1211954,3.834,189.32172,1677974464998,0.9462558,38.44544,387297646281989,2.5
Fix,FLP,-33.8986658000,151.2279721000,59.6192626953125,1.1589457,3.831,191.85312,1677974465999,0.90443355,29.034857,387298647769407,2.5
Fix,FLP,-33.8986794000,151.2279702000,59.27130126953125,1.1523598,3.834,190.96568,1677974466992,1.018332,39.729923,387299639576363,2.5
Fix,FLP,-33.8986932000,151.2279673000,59.11883544921875,1.1772689,3.834,193.17001,1677974467991,0.9220087,36.18601,387300639316884,2.5
Fix,FLP,-33.8987036000,151.2279672000,58.7762451171875,1.1710801,3.826,191.73256,1677974468993,0.90210867,37.72677,387301641406623,2.5
Fix,FLP,-33.8987142000,151.2279640000,58.21038818359375,1.2455491,3.826,198.954,1677974469995,0.9183681,36.754192,387302642153289,2.5
Fix,FLP,-33.8987288000,151.2279636000,56.91546630859375,1.2552878,3.826,189.4269,1677974470999,0.84599054,34.75409,387303647769094,2.5
Fix,FLP,-33.8987352000,151.2279481000,58.2252197265625,1.1789176,3.821,218.92332,1677974471999,0.85982555,26.494783,387304647769198,2.5
Fix,FLP,-33.8987515000,151.2279439000,58.35430908203125,1.4097848,3.821,202.8056,1677974473000,0.91263354,29.671524,387305647769146,2.5
Fix,FLP,-33.8987650000,151.2279420000,57.5081787109375,1.2669201,3.821,199.5537,1677974473999,0.93813646,36.44725,387306647769146,2.5
Fix,FLP,-33.8987797000,151.2279335000,57.79949951171875,1.1932195,3.821,207.71797,1677974474999,0.8628441,34.608864,387307647768782,2.5
Fix,FLP,-33.8987938000,151.2279297000,57.9031982421875,1.2011347,3.826,204.53342,1677974475999,0.906973,37.709335,387308647768782,2.5
Fix,FLP,-33.8987934000,151.2279326000,57.9031982421875,1.1669122,3.861,200.5766,1677974476086,0.906973,37.709335,387308734000000,2.5
Fix,FLP,-33.8988020000,151.2279323000,57.40374755859375,1.1644357,4.164,187.61308,1677974476999,0.9462558,37.740562,387309647769042,2.5
Fix,FLP,-33.8988082000,151.2279347000,57.40374755859375,0.6969789,4.446,158.95018,1677974477554,,,387310202000000,2.5
Fix,FLP,-33.8988109000,151.2279383000,56.393798828125,0.80415815,4.913,146.49808,1677974478738,,,387311386000000,2.5
Fix,FLP,-33.8988203000,151.2279394000,55.98248291015625,1.0103866,5.44,170.51663,1677974479904,,,387312552000000,2.5
Fix,FLP,-33.8988284000,151.2279369000,56.11383056640625,1.1240193,5.904,178.57605,1677974480450,,,387313098000000,2.5
Fix,FLP,-33.8988387000,151.2279342000,56.20709228515625,1.2043082,5.859,181.57439,1677974481000,,,387313647768625,2.5
Fix,FLP,-33.8988472000,151.2279324000,56.20709228515625,1.1958529,6.349,182.95932,1677974481647,,,387314295000000,2.5
Fix,NLP,-33.8977860000,151.2276730000,,,93.327484,,1677974481750,,,387314398013128,
Fix,GPS,-33.8988694500,151.2279234800,56.05084228515625,1.14,3.7900925,197.6,1677974482000,1.012571,42.183342,387314647769198,2.5
Fix,NLP,-33.8977860000,151.2276730000,,,93.327484,,1677974482715,,,387315363631722,
Fix,GPS,-33.8988794000,151.2279203200,55.76678466796875,1.11,3.7900925,193.9,1677974483000,0.88481635,38.96547,387315802964013,2.5
Fix,FLP,-33.8988640000,151.2279276000,55.76678466796875,1.1717536,6.274,185.7539,1677974483154,,,387315802964013,2.5
Fix,FLP,-33.8988735000,151.2279244000,56.1109619140625,1.1531554,5.868,187.26701,1677974484000,,,387316647769458,2.5
Fix,GPS,-33.8988990000,151.2279111400,55.5723876953125,1.1,3.7900925,207.3,1677974485000,0.87091905,38.96356,387317647769146,2.5
Fix,FLP,-33.8988838000,151.2279208000,57.80000305175781,0.783429,5.307,190.12695,1677974484999,,,387317647769146,3.968006
Fix,NLP,-33.8986120000,151.2279200000,,,78.56471,,1677974485422,,,387318069955367,
Fix,FLP,-33.8988899000,151.2279194000,57.80000305175781,0.9866406,5.052,190.01729,1677974485973,,,387318621000000,3.968006
Fix,GPS,-33.8989088800,151.2279057200,55.10205078125,1.1,3.7900925,199.1,1677974486000,0.932309,40.69328,387318645719481,2.5
Fix,FLP,-33.8988969000,151.2279179000,57.80000305175781,1.0659621,5.312,189.59726,1677974486575,,,387319223000000,3.9779854
Fix,GPS,-33.8989181900,151.2279017900,55.1949462890625,1.11,3.7900925,196.3,1677974487000,0.8792042,38.923817,387319647769302,2.5
Fix,GPS,-33.8989284100,151.2279027400,55.352783203125,1.14,3.7900925,171.2,1677974488000,0.8653323,37.67324,387320647769250,2.5
Fix,GPS,-33.8989381900,151.2279008700,55.35546875,1.17,3.7900925,185.7,1677974489000,0.8736704,37.42056,387321647769302,2.5
Fix,GPS,-33.8989481100,151.2278964500,54.97869873046875,1.14,3.7900925,198.4,1677974490000,0.93813646,39.34651,387322646818490,2.5
Fix,FLP,-33.8989184000,151.2279131000,57.80000305175781,1.0222362,6.893,189.98013,1677974490527,,,387323175000000,3.9779854
Fix,GPS,-33.8989593200,151.2278925300,55.25341796875,1.12,3.7900925,197.3,1677974491000,0.840595,37.97361,387323647769094,2.5
Fix,FLP,-33.8989255000,151.2279118000,57.80000305175781,1.0781187,7.682,189.18965,1677974491749,,,387324396000000,4.028006
Fix,GPS,-33.8989706500,151.2278858300,55.97515869140625,1.19,3.7900925,210.1,1677974492000,0.88752466,37.20797,387324647769198,2.5
Fix,FLP,-33.8989467000,151.2279078000,57.80000305175781,1.1180693,7.502,188.43478,1677974492872,,,387325520000000,16.6011
Fix,GPS,-33.8989840500,151.2278802500,56.63909912109375,1.41,3.7900925,203.8,1677974493000,0.84599054,31.193378,387325647769355,2.5
Fix,FLP,-33.8989650000,151.2279004000,57.80000305175781,1.1819988,7.421,188.80713,1677974493994,,,387326642000000,16.611101
Fix,GPS,-33.8989964100,151.2278784800,56.60162353515625,1.24,3.7900925,188.7,1677974494000,1.0290287,40.634052,387326647769250,2.5
Fix,GPS,-33.8990087700,151.2278754000,56.6319580078125,1.32,3.7900925,191.0,1677974495000,0.840595,33.006824,387327647769198,2.5
Fix,FLP,-33.8989869000,151.2278873000,57.80000305175781,1.2524213,7.024,190.15962,1677974495000,,,387327647769198,16.631102
Fix,GPS,-33.8990192500,151.2278724500,56.8349609375,1.2,3.7900925,194.6,1677974496000,0.8653323,36.330425,387328647769302,2.5
Fix,GPS,-33.8990298500,151.2278681400,57.26837158203125,1.23,3.7900925,200.2,1677974497000,0.89872134,36.45292,387329647768937,2.5
Fix,GPS,-33.8990410100,151.2278634300,57.1707763671875,1.23,3.7900925,204.8,1677974498000,0.87091905,35.578808,387330647769198,2.5
Fix,GPS,-33.8990514800,151.2278581300,57.0743408203125,1.15,3.7900925,208.5,1677974499000,0.87091905,37.73307,387331644219372,2.5
Fix,GPS,-33.8990642700,151.2278557100,56.9619140625,1.3,3.7900925,188.1,1677974500000,0.87091905,33.971676,387332647067861,2.5
Fix,GPS,-33.8990754100,151.2278503400,56.503173828125,1.24,3.7900925,202.1,1677974501000,0.89872134,35.745968,387333647769093,2.5
Fix,GPS,-33.8990875200,151.2278474700,56.8345947265625,1.33,3.7900925,190.0,1677974502000,0.840595,32.750378,387334647768937,2.5
Fix,GPS,-33.8990982700,151.2278400100,57.21917724609375,1.33,3.7900925,214.5,1677974503000,0.87091905,33.36707,387335647768781,2.5
Fix,GPS,-33.8991079300,151.2278366800,57.1552734375,1.18,3.7900925,202.2,1677974504000,0.89587945,37.696922,387336647768885,2.5
Fix,GPS,-33.8991189400,151.2278378100,57.155029296875,1.28,3.7900925,184.2,1677974505000,0.906973,35.591908,387337647768938,2.5
Fix,GPS,-33.8991293000,151.2278352400,57.1927490234375,1.26,3.7900925,197.5,1677974506000,0.90443355,35.77186,387338647768261,2.5
Fix,GPS,-33.8991393500,151.2278315300,57.01568603515625,1.22,3.7900925,202.2,1677974507000,0.9183681,37.026627,387339647769302,2.5
Fix,GPS,-33.8991476800,151.2278270700,57.21923828125,1.03,3.7900925,204.7,1677974508000,0.840595,40.642227,387340643170254,2.5
Fix,GPS,-33.8991600300,151.2278231500,57.00799560546875,1.12,3.7900925,200.0,1677974509000,0.8792042,38.85397,387341646142128,2.5
Fix,GPS,-33.8991742300,151.2278209700,56.0703125,1.21,3.7900925,196.0,1677974510000,1.012571,40.2436,387342647769354,2.5
Fix,GPS,-33.8991901600,151.2278193200,54.9691162109375,1.21,3.7900925,194.9,1677974511000,1.0241582,40.50176,387343647769302,2.5
Fix,GPS,-33.8992063100,151.2278182400,54.3690185546875,1.21,3.7900925,190.6,1677974512000,0.9102197,36.981358,387344647769302,2.5
Fix,GPS,-33.8992202600,151.2278216600,54.1639404296875,1.22,3.7900925,173.6,1677974513000,0.906973,36.887234,387345647769355,2.5
Fix,GPS,-33.8992333100,151.2278266300,52.9849853515625,1.19,3.7900925,169.8,1677974514000,0.9486833,38.876892,387346647769303,2.5
Fix,FLP,-33.8990192000,151.2278725000,57.80000305175781,1.2,3.9,194.0,1677974495999,0.8653323,36.330425,387328647769302,16.641102
Fix,FLP,-33.8990297000,151.2278683000,57.80000305175781,1.2132248,3.9,196.96942,1677974496999,0.89872134,36.45292,387329647768937,16.651102
Fix,FLP,-33.8990405000,151.2278636000,57.80000305175781,1.2181691,3.9,199.37743,1677974498000,0.87091905,35.578808,387330647769198,16.661102
Fix,FLP,-33.8990509000,151.2278584000,57.80000305175781,1.1990483,3.9,201.5222,1677974498996,0.87091905,37.73307,387331644219372,16.671066
Fix,FLP,-33.8990629000,151.2278551000,57.80000305175781,1.216346,3.9,198.32433,1677974500000,0.87091905,33.971676,387332647067861,16.681095
Fix,FLP,-33.8990743000,151.2278505000,57.80000305175781,1.2228409,3.9,198.97214,1677974500999,0.89872134,35.745968,387333647769093,16.691101
Fix,FLP,-33.8990863000,151.2278471000,57.80000305175781,1.240648,3.9,197.2664,1677974501999,0.840595,32.750378,387334647768937,16.701101
Fix,FLP,-33.8990975000,151.2278411000,57.80000305175781,1.2479839,3.9,199.8444,1677974502999,0.87091905,33.36707,387335647768781,16.711102
Fix,FLP,-33.8991079000,151.2278366000,57.80000305175781,1.2390814,3.9,200.11081,1677974503999,0.89587945,37.696922,387336647768885,16.721102
Fix,FLP,-33.8991187000,151.2278352000,57.80000305175781,1.2363628,3.9,197.8163,1677974504999,0.906973,35.591908,387337647768938,16.731102
Fix,FLP,-33.8991293000,151.2278331000,57.80000305175781,1.2382559,3.9,197.6099,1677974505999,0.90443355,35.77186,387338647768261,16.741102
Fix,FLP,-33.8991396000,151.2278301000,57.80000305175781,1.2352287,3.9,198.06848,1677974506999,0.9183681,37.026627,387339647769302,16.751102
Fix,FLP,-33.8991487000,151.2278265000,57.80000305175781,1.2069069,3.9,198.71896,1677974507995,0.840595,40.642227,387340643170254,16.761055
Fix,FLP,-33.8991593000,151.2278234000,57.80000305175781,1.1895479,3.9,196.9407,1677974508998,0.8792042,38.85397,387341646142128,16.771086
Fix,FLP,-33.8991736000,151.2278205000,57.80000305175781,1.2437664,3.9,196.77228,1677974509999,1.012571,40.2436,387342647769354,16.781101
Fix,FLP,-33.8991883000,151.2278172000,57.80000305175781,1.2277712,3.9,198.77003,1677974510999,1.0241582,40.50176,387343647769302,16.791101
Fix,FLP,-33.8992057000,151.2278192000,57.80000305175781,1.2837094,3.9,190.11066,1677974511999,0.9102197,36.981358,387344647769302,16.801102
Fix,FLP,-33.8992189000,151.2278221000,57.80000305175781,1.2506151,3.9,186.45921,1677974513000,0.906973,36.887234,387345647769355,16.811102
Fix,FLP,-33.8992318000,151.2278251000,57.80000305175781,1.2312144,3.9,181.47743,1677974514000,0.9486833,38.876892,387346647769303,16.821102
Fix,GPS,-33.8992454000,151.2278287600,53.18682861328125,1.17,3.7900925,181.1,1677974515000,0.8736704,37.269585,387347647769250,2.5
Fix,FLP,-33.8992416000,151.2278249000,57.80000305175781,1.1867102,3.805,186.58391,1677974514999,0.8736704,37.269585,387347647769250,16.831102
Fix,FLP,-33.8992547000,151.2278252000,57.80000305175781,1.188239,3.821,186.97914,1677974515999,0.8736704,37.21377,387348647769146,16.8411
Fix,GPS,-33.8992577000,151.2278275400,53.74102783203125,1.17,3.7900925,191.9,1677974516000,0.8736704,37.21377,387348647769146,2.5
Fix,GPS,-33.8992674700,151.2278261600,53.66278076171875,0.91,3.7900925,198.3,1677974517000,0.89044935,46.38152,387349640588063,2.5
Fix,FLP,-33.8992660000,151.2278247000,57.80000305175781,1.1595135,3.837,187.9145,1677974516993,0.89044935,46.38152,387349640588063,16.85103
Fix,NLP,-33.8986120000,151.2279200000,,,78.56471,,1677974517687,,,387350335751344,
Fix,GPS,-33.8992764400,151.2278243400,54.009765625,0.91,3.7900925,193.4,1677974518000,0.88204306,46.31888,387350647769303,2.5
Fix,FLP,-33.8992735000,151.2278243000,57.80000305175781,1.1082575,3.858,189.15074,1677974517999,0.88204306,46.31888,387350647769303,16.861101
Fix,FLP,-33.8992839000,151.2278217000,57.80000305175781,1.0929723,3.872,190.47232,1677974518998,0.90972525,45.235462,387351646567802,16.87109
Fix,GPS,-33.8992849800,151.2278211800,53.88690185546875,0.96,3.7900925,204.5,1677974519000,0.90972525,45.235462,387351646567802,2.5
Fix,GPS,-33.8992949300,151.2278206100,53.47052001953125,1.02,3.7900925,192.9,1677974520000,0.840595,40.84642,387352647769146,2.5
Fix,FLP,-33.8992925000,151.2278200000,57.80000305175781,1.0719509,3.9,191.66714,1677974519999,0.840595,40.84642,387352647769146,16.881102
Fix,NLP,-33.8986120000,151.2279200000,,,78.56471,,1677974520718,,,387353366014572,
Fix,GPS,-33.8993035100,151.2278203700,53.592529296875,0.86,3.7900925,188.7,1677974521000,0.88481635,47.441666,387353647769406,2.5
Fix,FLP,-33.8993021000,151.2278191000,57.80000305175781,1.049519,3.9,191.2557,1677974520999,0.88481635,47.441666,387353647769406,16.891102
Fix,FLP,-33.8993113000,151.2278163000,57.80000305175781,1.0360526,3.9,193.01326,1677974521999,0.840595,42.965828,387354647769198,16.901102
Fix,GPS,-33.8993115800,151.2278161000,52.99676513671875,0.96,3.7900925,210.4,1677974522000,0.840595,42.965828,387354647769198,2.5
Fix,GPS,-33.8993189400,151.2278107500,52.9404296875,0.87,3.7900925,216.7,1677974523000,0.98737025,50.89055,387355637966863,2.5
Fix,FLP,-33.8993188000,151.2278124000,57.80000305175781,1.0083125,3.9,195.99599,1677974522990,0.98737025,50.89055,387355637966863,16.911003
Fix,NLP,-33.8986120000,151.2279200000,,,78.56471,,1677974523734,,,387356381936029,
Fix,GPS,-33.8993269400,151.2278066400,52.97784423828125,0.9,3.7900925,206.8,1677974524000,0.89872134,46.34953,387356647769459,2.5
Fix,FLP,-33.8993257000,151.2278082000,57.80000305175781,0.984595,3.9,198.12859,1677974523999,0.89872134,46.34953,387356647769459,16.921103
Fix,GPS,-33.8993360400,151.2278046900,52.67852783203125,0.89,3.7900925,197.8,1677974525000,1.059481,52.916584,387357647769302,2.5
Fix,FLP,-33.8993347000,151.2278046000,57.80000305175781,0.97309744,3.9,198.58797,1677974525000,1.059481,52.916584,387357647769302,16.9311
Fix,GPS,-33.8993455300,151.2278043500,52.35687255859375,0.91,3.7900925,190.2,1677974526000,0.8653323,45.385376,387358647474205,2.5
Fix,FLP,-33.8993441000,151.2278028000,57.80000305175781,0.9666132,3.9,197.60237,1677974525999,0.8653323,45.385376,387358647474205,16.9411
Fix,NLP,-33.8986120000,151.2279200000,,,78.56471,,1677974526742,,,387359390194934,
Fix,GPS,-33.8993553100,151.2278026600,52.34039306640625,0.94,3.7900925,195.3,1677974527000,0.8653323,44.04524,387359647769406,2.5
Fix,FLP,-33.8993529000,151.2278017000,57.80000305175781,0.9586052,3.9,196.55765,1677974526999,0.8653323,44.04524,387359647769406,16.951101
Fix,GPS,-33.8993673000,151.2277986000,51.7564697265625,0.96,3.7900925,198.5,1677974528000,0.8930845,44.22566,387360647769302,2.5
Fix,FLP,-33.8993639000,151.2277987000,57.80000305175781,0.96201867,3.9,196.64816,1677974527999,0.8930845,44.22566,387360647769302,16.961102
Fix,GPS,-33.8993792000,151.2277954900,51.8055419921875,0.98,3.7900925,190.8,1677974529000,0.8653323,42.895267,387361644768996,2.5
Fix,FLP,-33.8993740000,151.2277963000,57.80000305175781,0.96405286,3.9,196.18909,1677974528996,0.8653323,42.895267,387361644768996,16.971071
Fix,NLP,-33.8986120000,151.2279200000,,,78.56471,,1677974529794,,,387362441850245,
Fix,GPS,-33.8993939900,151.2277904800,51.7005615234375,1.24,3.7900925,195.9,1677974530000,0.84599054,35.137383,387362633443266,2.5
Fix,FLP,-33.8993852000,151.2277931000,57.80000305175781,0.99014276,3.9,195.49573,1677974529985,0.84599054,35.137383,387362633443266,16.980959
Fix,FLP,-33.8994001000,151.2277898000,57.80000305175781,1.0166837,3.9,193.77983,1677974531000,0.840595,34.402542,387363647769146,16.991102
Fix,GPS,-33.8994078000,151.2277887700,51.662109375,1.26,3.7900925,181.6,1677974531000,0.840595,34.402542,387363647769146,2.5
Fix,GPS,-33.8994205700,151.2277880500,51.956787109375,1.16,3.7900925,185.7,1677974532000,1.0068763,41.87952,387364640186495,2.5
Fix,FLP,-33.8994147000,151.2277878000,57.80000305175781,1.0606725,3.9,190.76161,1677974531992,1.0068763,41.87952,387364640186495,17.001026
Fix,NLP,-33.8986120000,151.2279200000,,,78.56471,,1677974532836,,,387365484771911,
Fix,GPS,-33.8994325900,151.2277857500,51.632568359375,1.21,3.7900925,192.1,1677974533000,0.8905055,36.464794,387365647769354,2.5
Fix,FLP,-33.8994272000,151.2277863000,57.80000305175781,1.0833975,3.9,190.1134,1677974532999,0.8905055,36.464794,387365647769354,17.0111
Fix,GPS,-33.8994454600,151.2277836700,51.2596435546875,1.16,3.7900925,188.3,1677974534000,0.8792042,37.78009,387366638354202,2.5
Fix,FLP,-33.8994406000,151.2277840000,57.80000305175781,1.1010766,3.9,190.0607,1677974533990,0.8792042,37.78009,387366638354202,17.021008
Fix,GPS,-33.8994551600,151.2277803400,51.0587158203125,1.07,3.7900925,193.8,1677974535000,0.840595,39.366436,387367635721233,2.5
Fix,FLP,-33.8994525000,151.2277812000,57.80000305175781,1.100782,3.9,190.34181,1677974534987,0.840595,39.366436,387367635721233,17.030981
Fix,NLP,-33.8986120000,151.2279200000,,,78.56471,,1677974535855,,,387368503250139,
Fix,GPS,-33.8994646500,151.2277757200,50.4791259765625,1.12,3.7900925,200.9,1677974536000,0.840595,37.917946,387368634860920,2.5
Fix,FLP,-33.8994627000,151.2277777000,57.80000305175781,1.0976748,3.9,191.61693,1677974535986,0.840595,37.917946,387368634860920,17.040972
Fix,GPS,-33.8994765700,151.2277733700,50.593994140625,1.15,3.7900925,198.1,1677974537000,0.8736704,37.87634,387369635537586,2.5
Fix,FLP,-33.8994727000,151.2277743000,57.80000305175781,1.1031045,3.9,192.87126,1677974536987,0.8736704,37.87634,387369635537586,17.05098
Fix,GPS,-33.8994894400,151.2277728400,50.7071533203125,1.27,3.7900925,185.9,1677974538000,0.840595,34.14574,387370636391597,2.5
Fix,FLP,-33.8994854000,151.2277721000,57.80000305175781,1.1209364,3.9,192.45218,1677974537988,0.840595,34.14574,387370636391597,17.060987
Fix,NLP,-33.8986120000,151.2279200000,,,78.56471,,1677974538894,,,387371542222534,
Fix,GPS,-33.8995017700,151.2277716500,50.29541015625,1.18,3.7900925,191.2,1677974539000,0.8653323,36.689137,387371647768313,2.5
Fix,FLP,-33.8994978000,151.2277708000,57.80000305175781,1.1374613,3.9,191.61824,1677974538999,0.8653323,36.689137,387371647768313,17.071102
Fix,GPS,-33.8995141900,151.2277697900,50.47515869140625,1.18,3.7900925,188.2,1677974540000,0.88481635,37.09892,387372646593002,2.5
Fix,FLP,-33.8995108000,151.2277691000,57.80000305175781,1.1433383,3.9,191.22607,1677974539998,0.88481635,37.09892,387372646593002,17.081089
Fix,GPS,-33.8995264500,151.2277709500,50.7711181640625,1.17,3.7900925,182.0,1677974541000,0.85982555,37.000626,387373635360918,2.5
Fix,FLP,-33.8995236000,151.2277689000,57.80000305175781,1.1488985,3.9,190.00185,1677974540987,0.85982555,37.000626,387373635360918,17.090977
Fix,NLP,-33.8986120000,151.2279200000,,,78.56471,,1677974541909,,,387374557265397,
Fix,FLP,-33.8995339000,151.2277706000,57.80000305175781,1.1504557,3.9,187.88097,1677974541998,1.0043904,40.722183,387374646598626,17.10109
Fix,GPS,-33.8995391100,151.2277738800,51.2239990234375,1.18,3.7900925,180.3,1677974542000,1.0043904,40.722183,387374646598626,2.5
Fix,GPS,-33.8995516700,151.2277755900,51.61236572265625,1.18,3.7900925,183.7,1677974543000,1.010198,40.737476,387375635086230,2.5
Fix,FLP,-33.8995471000,151.2277724000,57.80000305175781,1.1555293,3.9,186.8649,1677974542988,1.010198,40.737476,387375635086230,17.110975
Fix,GPS,-33.8995644500,151.2277764000,52.00408935546875,1.26,3.7900925,186.8,1677974544000,0.840595,34.193752,387376630431855,2.5
Fix,FLP,-33.8995597000,151.2277739000,57.80000305175781,1.167585,3.9,186.40077,1677974543982,0.840595,34.193752,387376630431855,17.120928
Fix,NLP,-33.8986120000,151.2279200000,,,78.56471,,1677974544912,,,387377559851177,
Fix,GPS,-33.8995765100,151.2277760300,52.40850830078125,1.22,3.7900925,188.5,1677974545000,0.840595,35.081844,387377636733625,2.5
Fix,FLP,-33.8995720000,151.2277748000,57.80000305175781,1.1860038,3.9,186.3984,1677974544989,0.840595,35.081844,387377636733625,17.130991
Fix,GPS,-33.8995882700,151.2277764100,53.04150390625,1.18,3.7900925,190.3,1677974546000,0.8792042,36.87449,387378638123885,2.5
Fix,FLP,-33.8995833000,151.2277751000,57.80000305175781,1.1907548,3.9,186.85672,1677974545991,0.8792042,36.87449,387378638123885,17.141005
Fix,GPS,-33.8996000700,151.2277764200,53.2420654296875,1.19,3.7900925,184.3,1677974547000,0.8792042,36.794827,387379645740031,2.5
Fix,FLP,-33.8995945000,151.2277753000,57.80000305175781,1.1894629,3.9,187.01845,1677974546997,0.8792042,36.794827,387379645740031,17.151081
Fix,NLP,-33.8986120000,151.2279200000,,,78.56471,,1677974547950,,,387380598716801,
Fix,GPS,-33.8996133800,151.2277788000,53.57763671875,1.18,3.7900925,181.6,1677974548000,0.8653323,36.74762,387380637495030,2.5
Fix,FLP,-33.8996080000,151.2277761000,57.80000305175781,1.1908059,3.9,186.2482,1677974547989,0.8653323,36.74762,387380637495030,17.161
Fix,FLP,-33.8996211000,151.2277784000,57.80000305175781,1.1910301,3.9,184.95863,1677974548986,0.8930845,36.94477,387381634595342,17.170969
Fix,GPS,-33.8996261100,151.2277816800,53.7550048828125,1.2,3.7900925,180.5,1677974549000,0.8930845,36.94477,387381634595342,2.5
Fix,GPS,-33.8996393900,151.2277822000,53.62042236328125,1.22,3.7900925,185.1,1677974550000,1.0043904,39.966343,387382638447269,2.5
Fix,FLP,-33.8996333000,151.2277801000,57.80000305175781,1.1941298,3.9,184.49605,1677974549990,1.0043904,39.966343,387382638447269,17.18101
Fix,NLP,-33.8986120000,151.2279200000,,,78.56471,,1677974550953,,,387383601721852,
Fix,GPS,-33.8996526900,151.2277811100,53.1162109375,1.3,3.7900925,188.4,1677974551000,0.840595,33.273357,387383638136748,2.5
Fix,FLP,-33.8996454000,151.2277808000,57.80000305175781,1.205573,3.9,184.79979,1677974550990,0.840595,33.273357,387383638136748,17.191006
Fix,GPS,-33.8996656300,151.2277803800,53.281982421875,1.19,3.7900925,186.5,1677974552000,0.85982555,36.36536,387384637215914,2.5
Fix,FLP,-33.8996597000,151.2277801000,57.80000305175781,1.2143509,3.9,185.12709,1677974551989,0.85982555,36.36536,387384637215914,17.200996
Fix,GPS,-33.8996790300,151.2277802800,53.7391357421875,1.29,3.7900925,177.6,1677974553000,0.840595,33.517532,387385631821643,2.5
Fix,FLP,-33.8996735000,151.2277798000,53.7391357421875,1.2185789,3.9,184.53671,1677974552984,0.840595,33.517532,387385631821643,2.5
Fix,GPS,-33.8996913300,151.2277806000,53.659423828125,1.23,3.7900925,178.8,1677974554000,0.85982555,35.41525,387386636961903,2.5
Fix,NLP,-33.8986120000,151.2279200000,,,78.56471,,1677974553993,,,387386641643153,
Fix,FLP,-33.8996860000,151.2277800000,53.659423828125,1.2280561,3.9,182.91719,1677974553988,0.85982555,35.41525,387386636961903,2.5
Fix,GPS,-33.8997032000,151.2277803100,53.3572998046875,1.22,3.7900925,184.6,1677974555000,0.840595,35.372456,387387636210757,2.5
Fix,FLP,-33.8996974000,151.2277801000,53.3572998046875,1.2274443,3.9,182.30116,1677974554988,0.840595,35.372456,387387636210757,2.5
Fix,GPS,-33.8997146600,151.2277767700,52.75689697265625,1.24,3.7900925,200.4,1677974556000,0.87091905,35.348614,387388643239038,2.5
Fix,FLP,-33.8997105000,151.2277785000,52.75689697265625,1.2262414,3.9,183.74818,1677974555995,0.87091905,35.348614,387388643239038,2.5
Fix,GPS,-33.8997276700,151.2277778300,52.64990234375,1.35,3.7900925,177.0,1677974557000,0.8765843,32.88598,387389639182318,2.5
Fix,FLP,-33.8997231000,151.2277770000,52.64990234375,1.2313534,3.9,185.27794,1677974556991,0.8765843,32.88598,387389639182318,2.5
Fix,NLP,-33.8986120000,151.2279200000,,,78.56471,,1677974557034,,,387389682231433,
Fix,GPS,-33.8997397000,151.2277763400,52.1043701171875,1.27,3.7900925,190.6,1677974558000,0.840595,34.289803,387390646075756,2.5
Fix,FLP,-33.8997354000,151.2277766000,52.1043701171875,1.2465959,3.9,184.4655,1677974557998,0.840595,34.289803,387390646075756,2.5
Fix,GPS,-33.8997534700,151.2277755600,51.9224853515625,1.34,3.7900925,184.7,1677974559000,0.84905833,32.788227,387391647769459,2.5
Fix,FLP,-33.8997470000,151.2277757000,51.9224853515625,1.2547946,3.9,184.85017,1677974558999,0.84905833,32.788227,387391647769459,2.5
Fix,FLP,-33.8997613000,151.2277751000,51.78759765625,1.2634282,3.9,184.48839,1677974559999,0.93193346,37.021187,387392647769302,2.5
Fix,GPS,-33.8997664500,151.2277755000,51.78759765625,1.26,3.7900925,181.5,1677974560000,0.93193346,37.021187,387392647769302,2.5
Fix,NLP,-33.8986120000,151.2279200000,,,78.56471,,1677974560078,,,387392726453359,
Fix,FLP,-33.8997743000,151.2277755000,52.1944580078125,1.2604133,3.9,183.89674,1677974561000,0.85982555,35.96449,387393647768989,2.5
Fix,GPS,-33.8997781100,151.2277773000,52.1944580078125,1.21,3.7900925,183.3,1677974561000,0.85982555,35.96449,387393647768989,2.5
Fix,GPS,-33.8997914600,151.2277796900,52.25836181640625,1.29,3.7900925,173.7,1677974562000,0.8628441,34.386307,387394647769407,2.5
Fix,FLP,-33.8997859000,151.2277772000,52.25836181640625,1.2548076,3.9,182.87933,1677974561999,0.8628441,34.386307,387394647769407,2.5
Fix,GPS,-33.8998054800,151.2277826100,52.46392822265625,1.23,3.7900925,176.3,1677974563000,0.8930845,36.11357,387395634260754,2.5
Fix,FLP,-33.8998003000,151.2277795000,52.46392822265625,1.2568104,3.9,181.57458,1677974562986,0.8930845,36.11357,387395634260754,2.5
Fix,NLP,-33.8986120000,151.2279200000,,,78.56471,,1677974563120,,,387395767962056,
Fix,GPS,-33.8998184100,151.2277882200,53.0810546875,1.35,3.7900925,160.7,1677974564000,0.840595,32.289925,387396638771535,2.5
Fix,FLP,-33.8998141000,151.2277837000,53.0810546875,1.2563338,3.9,179.00313,1677974563990,0.840595,32.289925,387396638771535,2.5
Fix,GPS,-33.8998298500,151.2277880100,53.00640869140625,1.22,3.7900925,184.3,1677974565000,0.840595,35.213985,387397635436690,2.5
Fix,FLP,-33.8998265000,151.2277872000,53.00640869140625,1.2580347,3.9,176.70721,1677974564988,0.840595,35.213985,387397635436690,2.5
Fix,GPS,-33.8998412200,151.2277902100,53.22052001953125,1.29,3.7900925,166.3,1677974566000,0.8736704,34.245434,387398640921430,2.5
Fix,FLP,-33.8998393000,151.2277890000,53.22052001953125,1.2571216,3.9,176.33475,1677974565992,0.8736704,34.245434,387398640921430,2.5
Fix,NLP,-33.8986120000,151.2279200000,,,78.56471,,1677974566130,,,387398778646325,
Fix,GPS,-33.8998519200,151.2277909200,53.09930419921875,1.25,3.7900925,175.1,1677974567000,0.9013878,36.170322,387399636061013,2.5
Fix,FLP,-33.8998478000,151.2277906000,53.09930419921875,1.2565374,3.9,174.74452,1677974566988,0.9013878,36.170322,387399636061013,2.5
Fix,GPS,-33.8998615200,151.2277904700,52.68792724609375,1.13,3.7900925,177.2,1677974568000,0.840595,37.65859,387400646106741,2.5
Fix,FLP,-33.8998601000,151.2277912000,52.68792724609375,1.2474343,3.9,174.9561,1677974567998,0.840595,37.65859,387400646106741,2.5
Fix,GPS,-33.8998722500,151.2277884200,52.85345458984375,1.22,3.7900925,199.0,1677974569000,0.840595,35.209652,387401647769406,2.5
Fix,FLP,-33.8998717000,151.2277902000,52.85345458984375,1.2369123,3.9,177.16847,1677974569000,0.840595,35.209652,387401647769406,2.5
Fix,NLP,-33.8986120000,151.2279200000,,,78.56471,,1677974569161,,,387401809729658,
Fix,GPS,-33.8998831700,151.2277872600,52.919921875,1.22,3.7900925,184.9,1677974570000,0.840595,35.491093,387402647769042,2.5
Fix,FLP,-33.8998801000,151.2277883000,52.919921875,1.2200288,3.9,181.1307,1677974569999,0.840595,35.491093,387402647769042,2.5
Fix,GPS,-33.8998921300,151.2277869600,52.7550048828125,1.16,3.7900925,181.3,1677974571000,0.85982555,37.29726,387403647769094,2.5
Fix,FLP,-33.8998908000,151.2277874000,52.7550048828125,1.2154175,3.9,181.3621,1677974571000,0.85982555,37.29726,387403647769094,2.5
Fix,GPS,-33.8999018000,151.2277856200,52.8564453125,1.21,3.7900925,189.0,1677974572000,0.9291394,37.992702,387404640492781,2.5
Fix,FLP,-33.8999004000,151.2277864000,52.8564453125,1.2094398,3.9,181.93852,1677974571992,0.9291394,37.992702,387404640492781,2.5
Fix,NLP,-33.8986120000,151.2279200000,,,78.56471,,1677974572203,,,387404850965958,
Fix,GPS,-33.8999125300,151.2277871300,53.512939453125,1.22,3.7900925,177.7,1677974573000,0.9349331,38.392353,387405647768625,2.5
Fix,FLP,-33.8999096000,151.2277862000,53.512939453125,1.2075998,3.9,182.08714,1677974572999,0.9349331,38.392353,387405647768625,2.5
Fix,GPS,-33.8999224700,151.2277892800,53.2906494140625,1.17,3.7900925,169.1,1677974574000,0.84905833,36.666187,387406634950177,2.5
Fix,FLP,-33.8999212000,151.2277875000,53.2906494140625,1.2030088,3.9,180.81706,1677974573986,0.84905833,36.666187,387406634950177,2.5
Fix,GPS,-33.8999333000,151.2277917200,53.17486572265625,1.15,3.7900925,169.9,1677974575000,0.88481635,37.67275,387407645710593,2.5
Fix,FLP,-33.8999309000,151.2277899000,53.17486572265625,1.189532,3.9,177.98567,1677974574998,0.88481635,37.67275,387407645710593,2.5
Fix,NLP,-33.8986120000,151.2279200000,,,78.56471,,1677974575212,,,387407860505697,
Fix,FLP,-33.8999406000,151.2277907000,52.87957763671875,1.1859244,3.9,177.77858,1677974575999,0.8544004,35.934242,387408647768990,2.5
Fix,GPS,-33.8999447900,151.2277900200,52.87957763671875,1.21,3.7900925,184.5,1677974576000,0.8544004,35.934242,387408647768990,2.5
Fix,NLP,-33.8986120000,151.2279200000,,,78.56471,,1677974576364,,,387409012704499,
Fix,GPS,-33.8999559400,151.2277938400,53.49249267578125,1.12,3.7900925,172.5,1677974577000,0.840595,37.799656,387409647769406,2.5
Fix,FLP,-33.8999526000,151.2277919000,53.49249267578125,1.1829038,3.9,177.75938,1677974576999,0.840595,37.799656,387409647769406,2.5
Fix,FLP,-33.8999653000,151.2277978000,54.1492919921875,1.174255,3.9,174.73103,1677974578000,0.8792042,35.25236,387410647769094,2.5
Fix,GPS,-33.8999672500,151.2278035700,54.1492919921875,1.26,3.7900925,147.4,1677974578000,0.8792042,35.25236,387410647769094,2.5
Fix,GPS,-33.8999769800,151.2278112000,54.5860595703125,1.14,3.7900925,156.5,1677974579000,0.9291394,40.013905,387411646301112,2.5
Fix,FLP,-33.8999743000,151.2278055000,54.5860595703125,1.1647007,3.9,169.32675,1677974578999,0.9291394,40.013905,387411646301112,2.5
Fix,GPS,-33.8999873300,151.2278154300,54.18060302734375,1.17,3.7900925,168.3,1677974580000,1.018332,41.67401,387412647768209,2.5
Fix,FLP,-33.8999830000,151.2278117000,54.18060302734375,1.1585596,3.9,167.40004,1677974580000,1.018332,41.67401,387412647768209,2.5
Fix,NLP,-33.9030290000,151.2289480000,,,43.597404,,1677974580373,,,387413021049757,
