Fix,GPS,-33.9181266667,151.2275083333,57.8,0.71031666,5.315711,94.6,1678265273000,0.4619892,3.6505873,1162298680486276,15.053
Fix,NLP,-33.9179081714,151.2287512424,,,36.692944,,1678265274105,,,1162298710811797,
Fix,GPS,-33.9181250000,151.2275116667,57.7,0.59193057,5.398267,47.14,1678265274000,0.4893506,2.7686791,1162299683188567,16.85
Fix,GPS,-33.9181200000,151.2275166667,57.7,0.52501667,5.3026147,25.94,1678265275000,0.45916665,0.8131175,1162300702732577,14.608
Fix,GPS,-33.9181116667,151.2275216667,57.5,0.47869167,5.0286827,30.01,1678265276000,0.25480974,0.24323475,1162301688033775,13.755
Fix,GPS,-33.9181033333,151.2275283333,57.2,0.47869167,5.0344696,35.86,1678265277000,0.21004046,0.15166743,1162302713817681,13.652
Fix,NLP,-33.9175690000,151.2277120000,,,15.0,,1678265278375,,,1162302981314920,
Fix,GPS,-33.9180950000,151.2275350000,56.900000000000006,0.5353111,4.8955827,41.99,1678265278000,0.33244848,0.22753936,1162303694645441,13.353
Fix,GPS,-33.9180866667,151.2275450000,56.7,0.59193057,4.9412785,55.93,1678265279000,0.3845127,0.23340002,1162304689748513,13.492
Fix,GPS,-33.9180783333,151.2275533333,56.5,0.68458056,5.07933,41.08,1678265280000,0.426522,0.26344985,1162305702524763,14.021
Fix,GPS,-33.9180700000,151.2275600000,56.3,0.7926722,4.939706,31.11,1678265281000,0.38856146,0.25388902,1162306700401898,14.115
Fix,GPS,-33.9180583333,151.2275700000,56.099999999999994,0.93679446,4.687625,37.45,1678265282000,0.36873028,0.24152753,1162307717140075,14.433
Fix,GPS,-33.9180466667,151.2275800000,55.900000000000006,1.0757694,4.7884903,35.89,1678265283000,0.4125688,0.19843718,1162308692493824,14.724
Fix,GPS,-33.9180333333,151.2275883333,55.599999999999994,1.158125,4.798251,27.46,1678265284000,0.34507972,0.1605411,1162309702465803,16.865
Fix,GPS,-33.9180216667,151.2275966667,55.5,1.2250389,4.806966,35.07,1678265285000,0.3438895,0.20025139,1162310703468980,16.039
Fix,GPS,-33.9180116667,151.2276066667,55.400000000000006,1.2610694,4.9030223,42.14,1678265286000,0.3771273,0.1871368,1162311701479136,16.539
Fix,GPS,-33.9180016667,151.2276166667,55.099999999999994,1.2816583,4.923237,41.8,1678265287000,0.4014536,0.21771625,1162312715630594,16.585
Fix,GPS,-33.9179933333,151.2276266667,55.099999999999994,1.2971,4.982633,46.69,1678265288000,0.3104384,0.17525584,1162313703709968,15.905
Fix,GPS,-33.9179850000,151.2276350000,54.900000000000006,1.3125417,4.853093,47.58,1678265289000,0.33376786,0.17849523,1162314702691270,14.059
Fix,GPS,-33.9179766667,151.2276450000,54.7,1.3125417,4.8886037,46.79,1678265290000,0.42325404,0.23315288,1162315699524186,12.891
Fix,GPS,-33.9179700000,151.2276550000,54.5,1.317689,4.779631,58.72,1678265291000,0.43350318,0.27860904,1162316685816321,13.291
Fix,GPS,-33.9179633333,151.2276650000,54.400000000000006,1.2919527,4.7491374,59.72,1678265292000,0.3994008,0.22102243,1162317687839394,13.541
Fix,GPS,-33.9179583333,151.2276750000,54.2,1.2559222,4.7976313,62.08,1678265293000,0.40701964,0.2068199,1162318701305487,13.374
Fix,GPS,-33.9179566667,151.2276816667,53.599999999999994,1.2610694,4.885087,52.72,1678265294000,0.38356355,0.2203605,1162319705726633,13.308
Fix,GPS,-33.9179500000,151.2276916667,53.400000000000006,1.2404805,4.8395767,55.34,1678265295000,0.3478764,0.18475601,1162320698025278,13.586
Fix,GPS,-33.9179416667,151.2276983333,53.3,1.2198917,4.7805424,39.65,1678265296000,0.372945,0.2024554,1162321718570069,13.064
Fix,NLP,-33.9175690000,151.2277120000,,,15.0,,1678265297462,,,1162322067582361,
Fix,GPS,-33.9179283333,151.2277100000,53.900000000000006,1.20445,4.9043803,50.4,1678265297000,0.3319036,0.22178088,1162322695639756,13.411
Fix,GPS,-33.9179183333,151.2277200000,54.5,1.1838611,4.7321,58.82,1678265298000,0.37030393,0.22885711,1162323704235277,13.371
Fix,GPS,-33.9179100000,151.2277333333,55.0,1.1838611,4.771898,51.09,1678265299000,0.34592775,0.20658623,1162324690765381,13.396
Fix,GPS,-33.9179050000,151.2277433333,54.900000000000006,1.1890084,4.588571,59.87,1678265300000,0.33343816,0.18496752,1162325686148714,13.403
Fix,GPS,-33.9179000000,151.2277550000,55.099999999999994,1.1735667,4.533752,76.83,1678265301000,0.3460997,0.2033385,1162326692529547,13.055
Fix,GPS,-33.9178966667,151.2277666667,55.3,1.1529778,4.622675,75.32,1678265302000,0.39164397,0.24954467,1162327700453817,13.162
Fix,GPS,-33.9178933333,151.2277783333,55.400000000000006,1.1529778,4.5308256,71.61,1678265303000,0.33049208,0.21598552,1162328700221265,13.147
Fix,GPS,-33.9178883333,151.2277933333,55.3,1.1478306,4.599751,74.08,1678265304000,0.31933054,0.17816098,1162329704615379,13.318
Fix,GPS,-33.9178850000,151.2278083333,55.0,1.1529778,4.652374,74.04,1678265305000,0.34509417,0.1941493,1162330692195847,13.571
Fix,GPS,-33.9178800000,151.2278233333,54.8,1.1890084,4.601434,74.34,1678265306000,0.3346909,0.16445155,1162331702398607,13.323
Fix,GPS,-33.9178800000,151.2278383333,54.599999999999994,1.20445,4.6288404,80.32,1678265307000,0.33401346,0.14307047,1162332697412096,13.711
Fix,GPS,-33.9178766667,151.2278516667,54.5,1.2353333,4.706124,67.77,1678265308000,0.35006428,0.15309666,1162333707745742,13.813
Fix,GPS,-33.9178733333,151.2278666667,54.2,1.2456278,4.64679,83.41,1678265309000,0.3408959,0.14645405,1162334694854544,13.585
Fix,GPS,-33.9178733333,151.2278800000,53.900000000000006,1.2662166,4.474909,89.24,1678265310000,0.3104094,0.13547938,1162335713725533,12.755
Fix,GPS,-33.9178750000,151.2278933333,53.599999999999994,1.3073944,4.516609,88.48,1678265311000,0.36444068,0.14812459,1162336711041730,12.837
Fix,GPS,-33.9178750000,151.2279083333,53.2,1.3485723,4.4407763,100.57,1678265312000,0.29562983,0.11828215,1162337688353969,12.649
Fix,GPS,-33.9178766667,151.2279216667,52.9,1.3537195,4.5393863,103.58,1678265313000,0.2948525,0.117680244,1162338691681729,13.077
Fix,GPS,-33.9178800000,151.2279350000,52.8,1.3485723,4.410503,101.14,1678265314000,0.28595454,0.13226555,1162339699781000,12.754
Fix,GPS,-33.9178800000,151.2279483333,52.7,1.3382778,4.436724,92.38,1678265315000,0.39614645,0.21253115,1162340695200218,12.663
Fix,GPS,-33.9178783333,151.2279616667,52.4,1.3228362,4.464105,90.24,1678265316000,0.31162316,0.16193391,1162341710853655,12.865
Fix,GPS,-33.9178800000,151.2279750000,52.3,1.3022472,4.4578156,101.6,1678265317000,0.31560102,0.14671788,1162342712008030,12.694
Fix,NLP,-33.9175690000,151.2277120000,,,15.0,,1678265318241,,,1162342847192509,
Fix,GPS,-33.9178800000,151.2279883333,52.2,1.2971,4.5494246,93.35,1678265318000,0.33845678,0.19565032,1162343696812457,12.917
Fix,GPS,-33.9178800000,151.2280033333,52.099999999999994,1.3022472,4.292465,103.15,1678265319000,0.28016603,0.13126642,1162344690049123,12.414
Fix,GPS,-33.9178816667,151.2280183333,52.2,1.3073944,4.3192234,99.47,1678265320000,0.28640008,0.12891354,1162345694632352,12.629
Fix,GPS,-33.9178866667,151.2280333333,52.099999999999994,1.3125417,4.308503,107.12,1678265321000,0.30378446,0.14288105,1162346700568549,12.377
Fix,GPS,-33.9178933333,151.2280466667,52.099999999999994,1.3073944,4.415342,114.3,1678265322000,0.34109384,0.14086445,1162347695108549,12.606
Fix,GPS,-33.9178983333,151.2280600000,52.0,1.3073944,4.3187656,115.47,1678265323000,0.32267168,0.15310928,1162348707062819,12.376
Fix,GPS,-33.9179033333,151.2280716667,52.0,1.3228362,4.369237,123.06,1678265324000,0.34085187,0.19482377,1162349701167246,12.514
Fix,GPS,-33.9179100000,151.2280833333,52.099999999999994,1.3382778,4.4121947,123.18,1678265325000,0.35592836,0.18170147,1162350703240319,12.753
Fix,GPS,-33.9179183333,151.2280950000,52.099999999999994,1.343425,4.3983717,127.92,1678265326000,0.32330325,0.16636056,1162351692551881,12.409
Fix,GPS,-33.9179250000,151.2281066667,52.099999999999994,1.3537195,4.496616,140.19,1678265327000,0.4272072,0.2260604,1162352692346672,12.7
Fix,GPS,-33.9179333333,151.2281166667,52.2,1.3228362,4.404469,135.28,1678265328000,0.28911072,0.17671546,1162353707042349,12.511
Fix,GPS,-33.9179400000,151.2281266667,52.2,1.3125417,4.4729495,131.01,1678265329000,0.3021738,0.19167876,1162354711746046,12.766
Fix,GPS,-33.9179483333,151.2281383333,52.3,1.2816583,4.433627,131.64,1678265330000,0.3113872,0.17332996,1162355707807973,12.636
Fix,GPS,-33.9179566667,151.2281500000,52.3,1.250775,4.4665375,133.44,1678265331000,0.34655446,0.22367,1162356694865785,12.694
Fix,GPS,-33.9179666667,151.2281616667,52.4,1.250775,4.4265594,127.77,1678265332000,0.32103893,0.18776307,1162357702792451,12.512
Fix,GPS,-33.9179750000,151.2281716667,52.3,1.2610694,4.4138775,132.32,1678265333000,0.30988547,0.16132614,1162358710537295,12.599
Fix,GPS,-33.9179833333,151.2281800000,52.2,1.2456278,4.5068398,137.78,1678265334000,0.33596575,0.17636243,1162359705765003,12.677
Fix,GPS,-33.9179916667,151.2281900000,52.2,1.250775,4.365252,137.47,1678265335000,0.27115494,0.1586359,1162360694091773,12.691
Fix,GPS,-33.9180016667,151.2281983333,52.2,1.250775,4.3765798,138.42,1678265336000,0.30630705,0.1586153,1162361693934429,12.666
Fix,NLP,-33.9175690000,151.2277120000,,,15.0,,1678265337302,,,1162361908237971,
Fix,GPS,-33.9180116667,151.2282083333,52.5,1.2559222,4.3732104,139.99,1678265337000,0.32337132,0.16625744,1162362710447762,12.633
Fix,GPS,-33.9180200000,151.2282166667,52.7,1.2662166,4.361276,146.68,1678265338000,0.3011262,0.1728851,1162363691884220,12.726
Fix,GPS,-33.9180283333,151.2282233333,52.8,1.2404805,4.4674582,139.28,1678265339000,0.35305098,0.20783456,1162364703303334,12.988
Fix,GPS,-33.9180366667,151.2282300000,52.9,1.2301861,4.4368243,150.18,1678265340000,0.32668638,0.22373766,1162365710541719,12.787
Fix,GPS,-33.9180450000,151.2282383333,52.8,1.2301861,4.53647,140.82,1678265341000,0.34863877,0.24262285,1162366715693281,13.056
Fix,GPS,-33.9180533333,151.2282466667,52.7,1.20445,4.432175,154.83,1678265342000,0.33021963,0.20145923,1162367706016145,12.504
Fix,GPS,-33.9180650000,151.2282516667,52.599999999999994,1.2147444,4.47909,168.36,1678265343000,0.376113,0.21666282,1162368690480937,12.614
Fix,GPS,-33.9180766667,151.2282566667,52.4,1.2250389,4.43121,159.44,1678265344000,0.3690664,0.16086903,1162369703096145,12.423
Fix,GPS,-33.9180866667,151.2282650000,52.4,1.20445,4.4556637,153.46,1678265345000,0.3173169,0.1673982,1162370688518905,12.543
Fix,GPS,-33.9180966667,151.2282716667,52.4,1.1941556,4.5566926,165.56,1678265346000,0.31649488,0.18244377,1162371698203436,12.977
Fix,GPS,-33.9181083333,151.2282750000,52.599999999999994,1.1993028,4.3614936,175.32,1678265347000,0.30968532,0.166446,1162372704101560,12.78
Fix,GPS,-33.9181216667,151.2282750000,52.7,1.2250389,4.319189,183.5,1678265348000,0.33456388,0.16418517,1162373707604477,12.824
Fix,GPS,-33.9181350000,151.2282733333,52.8,1.2559222,4.299145,190.38,1678265349000,0.37830278,0.19052346,1162374702105570,12.583
Fix,GPS,-33.9181466667,151.2282716667,52.7,1.2713639,4.270825,185.38,1678265350000,0.37406015,0.19348334,1162375692042965,12.587
Fix,GPS,-33.9181566667,151.2282716667,52.599999999999994,1.2765111,4.2432876,184.65,1678265351000,0.32846612,0.18985508,1162376691294319,12.501
Fix,GPS,-33.9181683333,151.2282716667,52.5,1.2816583,4.239158,178.51,1678265352000,0.33552945,0.18629107,1162377700136506,12.597
Fix,GPS,-33.9181800000,151.2282716667,52.3,1.2662166,4.2242928,175.89,1678265353000,0.30155927,0.16800249,1162378709074266,12.538
Fix,GPS,-33.9181916667,151.2282750000,52.3,1.2559222,4.2770042,182.84,1678265354000,0.31381842,0.15891269,1162379708030047,12.591
Fix,GPS,-33.9182033333,151.2282716667,52.099999999999994,1.250775,4.3423886,199.73,1678265355000,0.32393828,0.17070116,1162380705142026,12.909
Fix,GPS,-33.9182150000,151.2282650000,51.9,1.2765111,4.0632286,207.0,1678265356000,0.33109665,0.18442348,1162381699401140,11.979
Fix,NLP,-33.9175690000,151.2277120000,,,15.0,,1678265357135,,,1162381740596401,
Fix,GPS,-33.9182283333,151.2282600000,51.9,1.2816583,4.0927887,201.94,1678265357000,0.29627857,0.14433853,1162382715416713,12.429
Fix,GPS,-33.9182416667,151.2282550000,51.9,1.2559222,4.051723,204.06,1678265358000,0.3329294,0.16149017,1162383700528848,12.152
Fix,GPS,-33.9182500000,151.2282483333,51.8,1.250775,4.005875,218.67,1678265359000,0.28721595,0.16837184,1162384711995774,12.232
Fix,GPS,-33.9182600000,151.2282383333,51.9,1.2662166,4.074482,225.69,1678265360000,0.30761665,0.1681087,1162385705062024,12.314
Fix,GPS,-33.9182683333,151.2282250000,52.0,1.2919527,4.0419054,230.78,1678265361000,0.32994848,0.17018375,1162386721066451,12.267
Fix,GPS,-33.9182783333,151.2282116667,51.7,1.317689,4.0474534,232.81,1678265362000,0.3202249,0.1577079,1162387717124836,12.395
Fix,GPS,-33.9182866667,151.2281983333,51.599999999999994,1.3382778,4.109109,243.14,1678265363000,0.3291398,0.16106416,1162388701235096,12.809
Fix,GPS,-33.9182950000,151.2281833333,51.599999999999994,1.343425,4.0253415,253.11,1678265364000,0.32324138,0.1515947,1162389706220460,12.997
Fix,GPS,-33.9183016667,151.2281700000,51.5,1.343425,4.0510817,253.32,1678265365000,0.29793456,0.17826127,1162390694143428,13.784
Fix,GPS,-33.9183083333,151.2281566667,51.599999999999994,1.343425,4.0592084,242.4,1678265366000,0.2935183,0.1778404,1162391710571970,13.511
Fix,GPS,-33.9183133333,151.2281416667,51.8,1.3279834,4.079357,231.32,1678265367000,0.31472686,0.15811041,1162392704036136,13.737
Fix,GPS,-33.9183216667,151.2281316667,52.0,1.3382778,4.0012417,233.28,1678265368000,0.31539816,0.17717813,1162393699878688,13.186
Fix,GPS,-33.9183250000,151.2281183333,52.5,1.343425,3.9525099,251.12,1678265369000,0.28736737,0.16116223,1162394689436448,12.255
Fix,GPS,-33.9183283333,151.2281050000,52.8,1.3279834,3.946095,255.36,1678265370000,0.32163644,0.1772061,1162395692193218,12.201
Fix,GPS,-33.9183333333,151.2280916667,52.8,1.317689,4.049954,250.3,1678265371000,0.38616705,0.24412689,1162396698724937,12.554
Fix,GPS,-33.9183366667,151.2280783333,52.9,1.2971,4.039374,250.52,1678265372000,0.36497808,0.20640704,1162397698110092,12.55
Fix,GPS,-33.9183416667,151.2280633333,52.8,1.2765111,4.077389,262.95,1678265373000,0.39909148,0.24139431,1162398697206394,12.675
Fix,GPS,-33.9183433333,151.2280483333,52.9,1.2765111,3.9923472,258.94,1678265374000,0.3211386,0.16692513,1162399701388842,12.407
Fix,GPS,-33.9183450000,151.2280350000,52.9,1.2816583,4.0394745,251.24,1678265375000,0.36134884,0.2089982,1162400694009310,12.604
Fix,GPS,-33.9183500000,151.2280200000,52.8,1.2713639,4.0460143,253.57,1678265376000,0.365821,0.21515036,1162401694998268,12.698
Fix,GPS,-33.9183533333,151.2280033333,52.7,1.2971,4.110973,249.82,1678265377000,0.36607242,0.20596263,1162402707384257,12.665
Fix,GPS,-33.9183550000,151.2279883333,52.599999999999994,1.317689,4.142069,261.7,1678265378000,0.39961985,0.19382675,1162403699112173,12.742
Fix,NLP,-33.9175690000,151.2277120000,,,15.0,,1678265379369,,,1162403974843319,
Fix,GPS,-33.9183566667,151.2279700000,52.4,1.3331306,4.1131773,264.17,1678265379000,0.36786956,0.18825899,1162404700416027,12.724
Fix,GPS,-33.9183566667,151.2279533333,52.3,1.3588667,4.1922417,277.16,1678265380000,0.3597902,0.18150339,1162405690764464,12.814
Fix,GPS,-33.9183566667,151.2279366667,52.3,1.3691611,4.1213207,273.16,1678265381000,0.33717948,0.18587264,1162406698448839,12.701
Fix,GPS,-33.9183566667,151.2279183333,52.2,1.38975,4.080804,274.79,1678265382000,0.34900573,0.1863005,1162407704014099,12.509
Fix,GPS,-33.9183566667,151.2279033333,52.099999999999994,1.3846028,4.095813,277.44,1678265383000,0.34026167,0.1764765,1162408706892953,12.804
Fix,GPS,-33.9183583333,151.2278900000,52.099999999999994,1.3691611,4.1274433,289.12,1678265384000,0.34400582,0.20153092,1162409707364463,13.004
Fix,GPS,-33.9183566667,151.2278750000,52.0,1.3846028,4.185714,271.79,1678265385000,0.3246244,0.21867114,1162410705894983,13.333
Fix,GPS,-33.9183583333,151.2278600000,51.8,1.38975,3.8797333,272.35,1678265386000,0.35110256,0.19196962,1162411709951493,11.852
Fix,GPS,-33.9183600000,151.2278433333,51.7,1.3846028,3.9712567,269.01,1678265387000,0.39164397,0.21817778,1162412703589358,12.033
Fix,GPS,-33.9183600000,151.2278266667,51.5,1.3640139,4.0122137,278.97,1678265388000,0.37529323,0.19320515,1162413697131805,12.227
Fix,GPS,-33.9183633333,151.2278100000,51.4,1.3691611,4.024494,255.73,1678265389000,0.38444373,0.24774066,1162414712342950,12.111
Fix,GPS,-33.9183700000,151.2277916667,51.4,1.3846028,4.0060124,249.58,1678265390000,0.33703563,0.17825748,1162415703183888,12.082
Fix,GPS,-33.9183783333,151.2277750000,51.4,1.4000444,3.9785006,251.59,1678265391000,0.3733631,0.189181,1162416708827533,11.092
Fix,GPS,-33.9183883333,151.2277583333,51.2,1.4103389,3.9881535,241.48,1678265392000,0.3918941,0.19837752,1162417712182637,11.21
Fix,GPS,-33.9183950000,151.2277433333,51.099999999999994,1.4257805,4.018188,251.49,1678265393000,0.39357084,0.20121376,1162418696568418,11.259
Fix,GPS,-33.9184016667,151.2277283333,51.0,1.4618111,3.9344351,246.93,1678265394000,0.3068045,0.17454366,1162419693715657,11.324
Fix,GPS,-33.9184066667,151.2277150000,50.9,1.4618111,3.850758,245.19,1678265395000,0.28353658,0.15671901,1162420705658469,11.066
Fix,GPS,-33.9184116667,151.2277016667,50.8,1.4566638,3.7636688,246.32,1678265396000,0.30621886,0.17076926,1162421703061489,10.928
Fix,NLP,-33.9182020000,151.2274280000,,,43.0,,1678265397231,,,1162421836488573,
Fix,GPS,-33.9184166667,151.2276883333,50.599999999999994,1.436075,3.799854,236.15,1678265397000,0.5510898,0.31886888,1162422697377791,10.967
Fix,GPS,-33.9184233333,151.2276766667,50.5,1.4463694,3.8438048,228.86,1678265398000,0.3863936,0.21053115,1162423694404718,11.753
Fix,GPS,-33.9184283333,151.2276633333,50.3,1.4257805,3.8682761,237.47,1678265399000,0.3123732,0.16627784,1162424692215968,12.044
Fix,GPS,-33.9184316667,151.2276500000,50.099999999999994,1.38975,3.827276,238.73,1678265400000,0.29068196,0.17307764,1162425694950394,11.614
Fix,GPS,-33.9184383333,151.2276366667,49.9,1.3640139,3.8756702,234.07,1678265401000,0.28340253,0.1665074,1162426702153415,11.973
Fix,GPS,-33.9184433333,151.2276216667,49.8,1.343425,3.847475,237.14,1678265402000,0.321218,0.1782716,1162427702239352,11.654
Fix,GPS,-33.9184516667,151.2276100000,49.7,1.3382778,3.8283737,241.97,1678265403000,0.28539446,0.16033414,1162428695546278,11.903
Fix,GPS,-33.9184600000,151.2275950000,49.7,1.3537195,3.8791854,237.04,1678265404000,0.30486882,0.17536543,1162429698615184,11.77
Fix,GPS,-33.9184683333,151.2275800000,49.599999999999994,1.3640139,3.7829359,240.8,1678265405000,0.31092927,0.15459356,1162430698701642,12.054
Fix,GPS,-33.9184750000,151.2275650000,49.5,1.4000444,3.870044,237.21,1678265406000,0.33068416,0.17473125,1162431692593100,12.772
Fix,GPS,-33.9184850000,151.2275516667,49.4,1.4206333,3.8962286,240.04,1678265407000,0.35213777,0.1698598,1162432692757423,13.043
Fix,GPS,-33.9184950000,151.2275400000,49.2,1.4206333,3.9146383,243.89,1678265408000,0.33118728,0.17207849,1162433702622787,13.04
Fix,GPS,-33.9185016667,151.2275266667,49.099999999999994,1.4412222,3.9658604,243.84,1678265409000,0.31004032,0.17058761,1162434717560026,13.183
Fix,GPS,-33.9185100000,151.2275133333,49.0,1.4515166,4.031966,251.38,1678265410000,0.31583065,0.16320723,1162435697363359,13.49
Fix,GPS,-33.9185166667,151.2274983333,49.0,1.4618111,3.9831676,238.81,1678265411000,0.3067768,0.16436963,1162436698250286,13.237
Fix,GPS,-33.9185250000,151.2274866667,49.0,1.4669583,3.940132,230.91,1678265412000,0.30656973,0.1563476,1162437706718931,13.552
Fix,GPS,-33.9185333333,151.2274783333,49.0,1.4566638,3.942063,205.67,1678265413000,0.30522123,0.16164285,1162438698086118,13.505
Fix,GPS,-33.9185450000,151.2274733333,49.099999999999994,1.4515166,3.9240198,203.01,1678265414000,0.28732735,0.14774613,1162439722980597,13.629
Fix,GPS,-33.9185583333,151.2274683333,48.9,1.4515166,4.001463,195.94,1678265415000,0.26900184,0.124989815,1162440705525649,13.711
Fix,GPS,-33.9185716667,151.2274633333,48.9,1.4566638,3.9663806,200.36,1678265416000,0.2700833,0.118822,1162441683707055,13.667
Fix,GPS,-33.9185850000,151.2274616667,48.7,1.4515166,4.0346975,188.49,1678265417000,0.27295786,0.1171226,1162442703069554,13.999
Fix,GPS,-33.9185983333,151.2274600000,48.599999999999994,1.4463694,3.9467597,177.79,1678265418000,0.2788297,0.1390314,1162443707279242,13.026
Fix,GPS,-33.9186100000,151.2274650000,48.599999999999994,1.436075,4.048002,155.68,1678265419000,0.29167104,0.16141213,1162444701207314,13.535
Fix,GPS,-33.9186233333,151.2274716667,48.599999999999994,1.4206333,3.975757,157.47,1678265420000,0.28298587,0.15288423,1162445714425282,13.079
Fix,NLP,-33.9188989047,151.2273337270,,,33.33639,,1678265421820,,,1162446426149657,
Fix,GPS,-33.9186350000,151.2274783333,48.5,1.4051917,3.9484935,156.97,1678265421000,0.2842534,0.17267795,1162446706762574,13.18
Fix,GPS,-33.9186450000,151.2274850000,48.599999999999994,1.38975,3.940064,152.97,1678265422000,0.27392882,0.16169135,1162447691978042,13.202
Fix,GPS,-33.9186550000,151.2274900000,48.599999999999994,1.4000444,3.9195328,161.15,1678265423000,0.2650453,0.15971595,1162448705652938,13.121
Fix,GPS,-33.9186683333,151.2274950000,48.7,1.4051917,3.8983335,163.43,1678265424000,0.25371245,0.13722426,1162449716598718,13.066
Fix,GPS,-33.9186800000,151.2274983333,48.7,1.4051917,3.923111,165.59,1678265425000,0.24216524,0.11605567,1162450715846270,13.208
Fix,GPS,-33.9186933333,151.2275033333,48.7,1.3948972,3.880763,161.33,1678265426000,0.24339269,0.11509001,1162451704427728,12.922
Fix,NLP,-33.9191400000,151.2273340000,0.0000000000000000000000000000000000000000000000000000000000000000000000000000000000000000000000000000000000000000000000000000000000000000000000000000000000000000000000000000000000000000000000000000000000000000000000000000000000000000000000000000000000000000000000000000000000000000000000000000000000000000000000000000000000049,0.0,97.17989,359.0,1678265427350,,,1162451955534186,
Fix,GPS,-33.9187050000,151.2275100000,48.8,1.4051917,4.0030365,155.95,1678265427000,0.25636303,0.12182795,1162452709315748,13.383
Fix,GPS,-33.9187166667,151.2275166667,48.9,1.4309278,3.898285,151.34,1678265428000,0.25279438,0.11689606,1162453720322831,13.099
Fix,GPS,-33.9187266667,151.2275250000,48.9,1.4463694,3.976072,147.44,1678265429000,0.2623776,0.12473427,1162454699889446,12.43
Fix,GPS,-33.9187366667,151.2275350000,48.9,1.4824,3.9258773,147.13,1678265430000,0.2450653,0.1170213,1162455712501060,12.263
Fix,GPS,-33.9187500000,151.2275466667,48.8,1.5184306,4.0072017,149.41,1678265431000,0.2403539,0.109156,1162456702886737,12.376
Fix,GPS,-33.9187616667,151.2275566667,49.0,1.5596083,3.9955342,146.89,1678265432000,0.26325083,0.118608646,1162457715464132,12.693
Fix,GPS,-33.9187716667,151.2275666667,49.099999999999994,1.5853444,4.008187,147.62,1678265433000,0.25224197,0.112002686,1162458704526736,12.508
Fix,GPS,-33.9187800000,151.2275733333,49.2,1.5853444,3.9019282,140.05,1678265434000,0.23396154,0.10678583,1162459715449444,12.45
Fix,GPS,-33.9187883333,151.2275833333,49.3,1.5853444,3.9437861,146.69,1678265435000,0.24286005,0.1138841,1162460703205954,12.648
Fix,GPS,-33.9187983333,151.2275916667,49.3,1.5801972,3.9833598,137.63,1678265436000,0.2660075,0.12798037,1162461722225224,12.795
Fix,GPS,-33.9188066667,151.2276050000,49.4,1.5699028,4.037695,136.03,1678265437000,0.24520399,0.116745204,1162462716527463,13.08
Fix,GPS,-33.9188150000,151.2276200000,49.3,1.5801972,3.9971683,128.69,1678265438000,0.26285547,0.124031335,1162463698645432,12.712
Fix,NLP,-33.9175690000,151.2277120000,,,15.0,,1678265439306,,,1162463912180744,
Fix,GPS,-33.9188216667,151.2276316667,49.4,1.5853444,3.995496,131.25,1678265439000,0.24083188,0.104370736,1162464690212723,12.988
Fix,GPS,-33.9188283333,151.2276450000,49.4,1.5801972,3.978565,124.72,1678265440000,0.24147877,0.10648576,1162465705390900,12.917
Fix,GPS,-33.9188350000,151.2276583333,49.3,1.5699028,3.986849,119.5,1678265441000,0.25305533,0.10849864,1162466697224910,12.903
Fix,GPS,-33.9188433333,151.2276733333,49.2,1.5544611,3.9426453,122.56,1678265442000,0.24275914,0.10940406,1162467702639232,12.915
Fix,GPS,-33.9188500000,151.2276883333,49.2,1.5493139,3.9813552,114.8,1678265443000,0.2651886,0.12071863,1162468705129024,12.983
Fix,GPS,-33.9188550000,151.2277016667,49.099999999999994,1.5544611,3.8979,120.71,1678265444000,0.24187808,0.104722664,1162469710830638,12.763
Fix,GPS,-33.9188633333,151.2277150000,49.099999999999994,1.5493139,4.044819,118.2,1678265445000,0.26096743,0.11203223,1162470707445221,13.295
Fix,GPS,-33.9188700000,151.2277300000,48.9,1.5493139,3.9740193,110.86,1678265446000,0.25198412,0.117579356,1162471703332512,13.296
Fix,GPS,-33.9188733333,151.2277433333,48.7,1.5441667,4.039179,107.27,1678265447000,0.26618978,0.11517816,1162472698639699,13.534
Fix,GPS,-33.9188750000,151.2277566667,48.8,1.5029889,4.0236945,99.82,1678265448000,0.2637821,0.1185292,1162473699817459,13.239
Fix,GPS,-33.9188766667,151.2277683333,48.7,1.4669583,4.0132093,100.21,1678265449000,0.24545875,0.12944649,1162474711286313,13.354
Fix,GPS,-33.9188800000,151.2277816667,48.7,1.4309278,3.9692516,98.15,1678265450000,0.27930808,0.16236459,1162475701715583,13.108
Fix,GPS,-33.9188816667,151.2277966667,48.8,1.4103389,4.04494,92.26,1678265451000,0.27347028,0.14620054,1162476711466104,13.153
Fix,GPS,-33.9188816667,151.2278100000,48.8,1.38975,4.0676165,89.93,1678265452000,0.26487732,0.12758707,1162477706311624,13.456
Fix,GPS,-33.9188833333,151.2278250000,48.9,1.3537195,4.103821,99.6,1678265453000,0.2582576,0.13384017,1162478708417197,13.484
Fix,GPS,-33.9188866667,151.2278383333,48.9,1.317689,4.2492127,99.73,1678265454000,0.37561816,0.18103418,1162479708269853,14.099
Fix,GPS,-33.9188866667,151.2278533333,48.9,1.3022472,4.218282,79.55,1678265455000,0.33019388,0.19665529,1162480737285217,13.359
Fix,GPS,-33.9188833333,151.2278666667,48.9,1.2713639,4.2387033,71.33,1678265456000,0.32035762,0.16939196,1162481718780008,13.259
Fix,GPS,-33.9188800000,151.2278833333,48.8,1.2816583,4.077912,59.11,1678265457000,0.29417002,0.17199747,1162482717058185,13.019
Fix,GPS,-33.9188733333,151.2278983333,48.8,1.317689,4.1592565,75.05,1678265458000,0.29279685,0.13789928,1162483712022039,13.462
Fix,GPS,-33.9188683333,151.2279150000,48.7,1.3485723,4.0664544,70.2,1678265459000,0.29203597,0.12982842,1162484714018393,13.101
Fix,GPS,-33.9188666667,151.2279350000,48.599999999999994,1.38975,4.065908,82.77,1678265460000,0.30058774,0.13370314,1162485715472246,13.074
Fix,NLP,-33.9186357523,151.2281006377,,,41.854843,,1678265461824,,,1162486429776256,
Fix,GPS,-33.9188633333,151.2279500000,48.4,1.4154861,4.0185614,69.2,1678265461000,0.47192055,0.21223992,1162486712489642,12.987
Fix,GPS,-33.9188583333,151.2279650000,48.4,1.4515166,4.067103,66.17,1678265462000,0.30170515,0.13263483,1162487707194173,13.304
Fix,GPS,-33.9188533333,151.2279800000,48.3,1.4926945,4.0201983,67.54,1678265463000,0.30586597,0.123510435,1162488712047818,13.569
Fix,GPS,-33.9188466667,151.2279950000,48.2,1.5338722,4.0377507,69.13,1678265464000,0.35956222,0.14674462,1162489713147766,13.187
Fix,GPS,-33.9188416667,151.2280100000,48.099999999999994,1.5544611,3.9566565,69.08,1678265465000,0.28991377,0.12428978,1162490709249744,12.9
Fix,NLP,-33.9190230000,151.2284770000,0.0000000000000000000000000000000000000000000000000000000000000000000000000000000000000000000000000000000000000000000000000000000000000000000000000000000000000000000000000000000000000000000000000000000000000000000000000000000000000000000000000000000000000000000000000000000000000000000000000000000000000000000000000000000000049,0.0,95.09931,359.0,1678265466821,,,1162491426414119,
Fix,GPS,-33.9188350000,151.2280216667,48.099999999999994,1.5853444,4.0108914,63.53,1678265466000,0.31048512,0.14299408,1162491717412400,13.041
Fix,GPS,-33.9188283333,151.2280316667,48.2,1.5801972,3.9425607,67.81,1678265467000,0.2925645,0.14160925,1162492711539067,13.138
Fix,GPS,-33.9188216667,151.2280450000,48.099999999999994,1.5647556,3.917451,63.21,1678265468000,0.28897923,0.14981686,1162493721609691,12.238
Fix,GPS,-33.9188133333,151.2280583333,48.099999999999994,1.5647556,4.0116196,61.31,1678265469000,0.322343,0.16914488,1162494709367712,13.638
Fix,GPS,-33.9188050000,151.2280700000,48.099999999999994,1.5596083,3.9829187,59.78,1678265470000,0.26893866,0.12424021,1162495729200367,13.399
Fix,GPS,-33.9187983333,151.2280850000,47.9,1.5596083,3.984449,55.01,1678265471000,0.26926753,0.12804928,1162496714144013,13.387
Fix,GPS,-33.9187900000,151.2280966667,47.8,1.5493139,4.015415,53.35,1678265472000,0.26096934,0.12462834,1162497711300523,13.09
Fix,GPS,-33.9187816667,151.2281100000,47.7,1.5338722,4.061961,50.64,1678265473000,0.2954082,0.13579008,1162498714269273,13.193
Fix,GPS,-33.9187750000,151.2281216667,47.5,1.5081362,3.8594372,43.04,1678265474000,0.2991003,0.1436397,1162499710523074,12.593
Fix,GPS,-33.9187666667,151.2281333333,47.3,1.4926945,3.7968967,44.29,1678265475000,0.250715,0.1286645,1162500722648178,12.584
Fix,GPS,-33.9187566667,151.2281416667,47.2,1.4618111,3.6795664,32.75,1678265476000,0.25945327,0.13213491,1162501709897709,12.261
Fix,GPS,-33.9187483333,151.2281483333,47.099999999999994,1.4206333,3.7115693,35.84,1678265477000,0.24789111,0.14097612,1162502724192292,12.326
Fix,GPS,-33.9187400000,151.2281566667,46.9,1.38975,3.6272085,49.78,1678265478000,0.24872676,0.16194408,1162503721808958,11.059
Fix,GPS,-33.9187283333,151.2281633333,46.8,1.3537195,3.6972039,21.6,1678265479000,0.28386793,0.18032521,1162504721626927,12.021
Fix,NLP,-33.9175690000,151.2277120000,,,15.0,,1678265480480,,,1162505085731614,
Fix,GPS,-33.9187150000,151.2281700000,46.7,1.3331306,3.7359672,24.9,1678265480000,0.3175547,0.18941385,1162505709664791,12.407
Fix,GPS,-33.9187016667,151.2281766667,46.599999999999994,1.317689,3.8160355,32.76,1678265481000,0.29437393,0.15113613,1162506729457915,12.399
Fix,GPS,-33.9186916667,151.2281850000,46.7,1.2919527,3.7052493,36.87,1678265482000,0.26449198,0.13386796,1162507725562030,11.42
Fix,GPS,-33.9186816667,151.2281950000,46.7,1.2868055,3.6058488,40.73,1678265483000,0.23005435,0.11688947,1162508727319373,10.882
Fix,GPS,-33.9186733333,151.2282033333,46.8,1.2404805,3.6157472,49.96,1678265484000,0.2546213,0.12743954,1162509722620623,10.998
