Fix,FLP,-33.9180645000,151.2283581000,53.0,0.70637745,8.49,219.50705,1678267858606,,,680691126958572,1.3350652
Fix,GPS,-33.9181209900,151.2283696700,55.34271240234375,0.96,3.7900925,202.6,1678267860000,0.83216584,42.650135,680692520458863,2.5
Fix,FLP,-33.9180780000,151.2283445000,52.20000076293945,0.74484724,10.527,222.88416,1678267859611,,,680692132091228,1.0200446
Fix,FLP,-33.9180862000,151.2283394000,52.20000076293945,0.75861084,10.959,223.39696,1678267860617,,,680693137224874,1.0200446
Fix,GPS,-33.9181234600,151.2283608200,55.1402587890625,0.86,3.7900925,233.0,1678267861000,0.84599054,46.60302,680693520458915,2.5
Fix,GPS,-33.9181145300,151.2283522100,55.25897216796875,0.97,3.7900925,321.7,1678267862000,0.82680106,41.982746,680694520458707,2.5
Fix,FLP,-33.9180966000,151.2283332000,52.20000076293945,0.7252867,11.54,228.86053,1678267861621,,,680694142360291,1.0400445
Fix,GPS,-33.9181084800,151.2283474800,54.99542236328125,0.3,3.7900925,322.0,1678267863000,0.82680106,80.878426,680695520458967,2.5
Fix,FLP,-33.9181024000,151.2283278000,52.20000076293945,0.6956793,11.758,233.03041,1678267862626,,,680695147497530,1.0500445
Fix,FLP,-33.9181034000,151.2283287000,53.0,0.65388167,11.547,234.80609,1678267863631,,,680696152635655,1.6973773
Fix,GPS,-33.9181019300,151.2283406500,54.8406982421875,0.76,3.7900925,324.4,1678267864000,0.85146934,50.849194,680696520458134,2.5
Fix,FLP,-33.9181095000,151.2283216000,53.0,0.5735647,11.037,242.44386,1678267864134,,,680696655204301,1.7073773
Fix,FLP,-33.9181093000,151.2283205000,53.0,0.5520041,10.875,246.9711,1678267864637,,,680697157774613,1.7073773
Fix,GPS,-33.9180973700,151.2283359800,54.771728515625,0.49,3.7900925,323.8,1678267865000,0.82680106,66.20881,680697520458550,2.5
Fix,NLP,-33.9184590000,151.2286830000,,,125.04386,,1678267865254,,,680697775049136,
Fix,FLP,-33.9181081000,151.2283182000,53.0,0.51406753,10.444,254.66466,1678267865642,,,680698162913363,1.7173774
Fix,GPS,-33.9180954200,151.2283231800,54.609375,1.12,3.7900925,275.2,1678267866000,0.9027181,37.740032,680698520458655,2.5
Fix,FLP,-33.9181052000,151.2283150000,53.0,0.50144136,9.78,263.40228,1678267866647,,,680699168053988,1.7273774
Fix,GPS,-33.9180897100,151.2283139000,55.453369140625,1.19,3.7900925,290.6,1678267867000,0.8431489,35.80317,680699520458811,2.5
Fix,FLP,-33.9181012000,151.2283098000,53.0,0.52450264,9.322,273.42728,1678267867150,,,680699670625551,1.7373774
Fix,GPS,-33.9180828800,151.2283101500,55.46795654296875,0.69,3.7900925,331.9,1678267868000,0.82680106,53.74322,680700520458811,2.5
Fix,FLP,-33.9180990000,151.2283073000,53.0,0.6040509,9.241,289.06366,1678267867653,,,680700173195863,1.7473774
Fix,FLP,-33.9180947000,151.2283047000,53.0,0.5670857,8.769,302.96506,1678267868155,,,680700675767530,1.7473774
Fix,NLP,-33.9184590000,151.2286830000,,,125.04386,,1678267868779,,,680701299719500,
Fix,GPS,-33.9180815300,151.2282964400,55.62945556640625,1.37,3.7900925,272.7,1678267869000,0.9027181,31.62003,680701520458707,2.5
Fix,FLP,-33.9180923000,151.2283039000,52.900001525878906,0.57565665,8.55,310.17255,1678267868658,,,680701178338311,3.7401044
Fix,FLP,-33.9180842000,151.2282967000,52.900001525878906,0.8794245,7.852,320.62738,1678267869159,,,680701680909509,3.749739
Fix,GPS,-33.9180741700,151.2282891200,56.114501953125,1.03,3.7900925,322.4,1678267870000,0.83761567,40.377876,680702520458186,2.5
Fix,FLP,-33.9180801000,151.2282926000,52.900001525878906,1.0651233,7.488,320.5426,1678267869662,,,680702183480968,3.759739
Fix,FLP,-33.9180772000,151.2282897000,52.900001525878906,1.0496334,7.067,322.6884,1678267870166,,,680702686052270,3.759739
Fix,FLP,-33.9180725000,151.2282853000,52.900001525878906,1.0367953,6.524,323.9266,1678267870668,,,680703188623936,3.759739
Fix,GPS,-33.9180742600,151.2282779200,56.24505615234375,1.28,3.7900925,263.7,1678267871000,0.8840814,33.602947,680703520458864,2.5
Fix,FLP,-33.9180669000,151.2282789000,52.900001525878906,1.1285738,6.056,324.6083,1678267871672,,,680704193767791,3.769739
Fix,NLP,-33.9184590000,151.2286830000,,,125.04386,,1678267871792,,,680704312946582,
Fix,GPS,-33.9180674900,151.2282748200,55.89495849609375,1.04,3.7900925,330.5,1678267872000,0.82680106,39.79046,680704520458863,2.5
Fix,FLP,-33.9180625000,151.2282730000,52.900001525878906,1.1236349,5.613,323.01892,1678267872175,,,680704696338832,3.7797391
Fix,GPS,-33.9180579100,151.2282726700,55.8353271484375,1.04,3.7900925,339.7,1678267873000,0.82680106,39.931328,680705520458864,2.5
Fix,FLP,-33.9180589000,151.2282683000,52.900001525878906,1.0862976,5.081,320.80777,1678267872678,,,680705198911645,3.7897391
Fix,FLP,-33.9180552000,151.2282637000,52.900001525878906,1.0574535,4.815,320.70627,1678267873181,,,680705701483572,3.7897391
Fix,GPS,-33.9180477500,151.2282691500,55.44403076171875,1.05,3.7900925,335.3,1678267874000,0.82680106,39.568283,680706520458915,2.5
Fix,FLP,-33.9180525000,151.2282613000,52.900001525878906,1.0526967,4.691,321.80008,1678267873684,,,680706204055655,3.7997391
Fix,FLP,-33.9180446000,151.2282558000,52.900001525878906,1.0344007,4.66,322.7245,1678267874186,,,680706706628572,2.0977645
Fix,NLP,-33.9184590000,151.2286830000,,,125.04386,,1678267874830,,,680707351009549,
Fix,FLP,-33.9180416000,151.2282543000,52.900001525878906,1.0274811,4.644,322.89215,1678267874688,,,680707209200291,2.0977645
Fix,GPS,-33.9180386600,151.2282679900,55.36639404296875,0.88,3.7900925,352.1,1678267875000,0.84599054,45.648678,680707520458967,2.5
Fix,FLP,-33.9180379000,151.2282524000,52.900001525878906,0.99848425,4.639,322.86084,1678267875190,,,680707711772374,2.1077645
Fix,GPS,-33.9180290600,151.2282649000,55.1312255859375,0.89,3.7900925,342.6,1678267876000,0.85982555,45.732185,680708520458759,2.5
Fix,FLP,-33.9180346000,151.2282498000,52.900001525878906,0.98280835,4.684,322.705,1678267875694,,,680708214345291,2.1177645
Fix,FLP,-33.9180287000,151.2282453000,52.900001525878906,0.9644282,4.781,322.06268,1678267876698,,,680709219489613,2.1177645
Fix,GPS,-33.9180188900,151.2282552500,55.2628173828125,1.23,3.7900925,320.3,1678267877000,0.82680106,34.637455,680709520458915,2.5
Fix,FLP,-33.9180237000,151.2282419000,52.900001525878906,0.9791524,4.956,321.12134,1678267877202,,,680709722062530,2.1277645
Fix,FLP,-33.9180187000,151.2282374000,52.900001525878906,0.9971662,5.115,320.40448,1678267877703,,,680710224635447,2.1277645
Fix,NLP,-33.9184590000,151.2286830000,,,125.04386,,1678267877873,,,680710394256111,
Fix,GPS,-33.9180099400,151.2282437500,55.42498779296875,1.3,3.7900925,309.3,1678267878000,0.82680106,33.057312,680710520458655,2.5
Fix,FLP,-33.9180136000,151.2282328000,52.900001525878906,1.0294421,5.452,319.0863,1678267878207,,,680710727208363,2.1377645
Fix,FLP,-33.9180093000,151.2282280000,52.900001525878906,1.0441073,5.664,318.21356,1678267878708,,,680711229781280,2.1377645
Fix,GPS,-33.9179999200,151.2282328500,55.1778564453125,1.28,3.7900925,314.9,1678267879000,0.82680106,33.423653,680711520459020,2.5
Fix,FLP,-33.9179999000,151.2282173000,52.5,1.0641288,6.152,316.77673,1678267879212,,,680711732354197,1.4057128
Fix,GPS,-33.9179927200,151.2282242500,55.14288330078125,1.07,3.7900925,314.2,1678267880000,0.840595,39.222343,680712520458811,2.5
Fix,FLP,-33.9179974000,151.2282137000,52.5,1.0624903,6.354,316.73373,1678267879713,,,680712234927113,1.4157128
Fix,FLP,-33.9179940000,151.2282091000,52.5,1.054807,6.737,315.7323,1678267880217,,,680712737500030,1.4157128
Fix,NLP,-33.9184590000,151.2286830000,,,125.04386,,1678267880884,,,680713404609599,
Fix,GPS,-33.9179829600,151.2282185900,55.00640869140625,1.2,3.7900925,334.1,1678267881000,0.82680106,35.482418,680713520458864,2.5
Fix,FLP,-33.9179922000,151.2282060000,52.5,1.0479646,6.922,314.4699,1678267880720,,,680713240072947,1.4257128
Fix,FLP,-33.9179887000,151.2282016000,52.5,1.0551202,7.097,313.6513,1678267881222,,,680713742646749,1.4257128
Fix,FLP,-33.9179846000,151.2281958000,52.5,1.063393,7.363,313.07074,1678267881724,,,680714245220238,1.4257128
Fix,GPS,-33.9179763200,151.2282097900,55.029541015625,1.11,3.7900925,309.7,1678267882000,0.85982555,38.767845,680714520458811,2.5
Fix,FLP,-33.9179797000,151.2281894000,52.5,1.0707245,7.562,311.97675,1678267882226,,,680714747793155,1.4357128
Fix,GPS,-33.9179719700,151.2281985400,55.263671875,1.24,3.7900925,295.7,1678267883000,0.82680106,34.35618,680715520458812,2.5
Fix,FLP,-33.9179772000,151.2281857000,52.5,1.067746,7.762,310.9611,1678267882729,,,680715250367478,1.4457129
Fix,FLP,-33.9179716000,151.2281763000,52.5,1.0624359,7.96,308.31012,1678267883735,,,680716255515238,1.4457129
Fix,NLP,-33.9184590000,151.2286830000,,,125.04386,,1678267883893,,,680716414205744,
Fix,GPS,-33.9179673000,151.2281869000,55.54595947265625,1.22,3.7900925,293.5,1678267884000,0.82680106,34.88986,680716520458811,2.5
Fix,FLP,-33.9179643000,151.2281632000,52.80000305175781,1.0581625,8.108,305.41864,1678267884238,,,680716758088155,2.120993
Fix,GPS,-33.9179619600,151.2281777000,55.4771728515625,1.06,3.7900925,303.8,1678267885000,0.84599054,39.64276,680717520458915,2.5
Fix,FLP,-33.9179616000,151.2281576000,52.80000305175781,1.0567194,8.207,305.38034,1678267884739,,,680717260663207,2.130993
Fix,GPS,-33.9179573200,151.2281688400,55.152099609375,0.97,3.7900925,299.8,1678267886000,0.98229325,46.337463,680718520458915,2.5
Fix,FLP,-33.9179581000,151.2281481000,52.80000305175781,1.0394584,8.318,303.18915,1678267885744,,,680718265811280,2.1409929
Fix,FLP,-33.9179565000,151.2281400000,52.80000305175781,1.0078583,8.354,298.8509,1678267886753,,,680719274000000,2.1409929
Fix,NLP,-33.9184590000,151.2286830000,,,125.04386,,1678267886924,,,680719445388816,
Fix,GPS,-33.9179538200,151.2281570400,55.4051513671875,1.19,3.7900925,288.8,1678267887000,0.82680106,35.70091,680719520458811,2.5
Fix,FLP,-33.9179551000,151.2281325000,52.80000305175781,0.9960809,8.352,295.16968,1678267887356,,,680719876000000,2.150993
Fix,FLP,-33.9179533000,151.2281251000,52.80000305175781,1.0002561,8.391,293.69806,1678267887855,,,680720376622166,2.150993
Fix,GPS,-33.9179486500,151.2281468600,55.452392578125,1.21,3.7900925,296.6,1678267888000,0.82680106,35.161552,680720520458707,2.5
Fix,FLP,-33.9179518000,151.2281171000,52.80000305175781,1.0117106,8.4,291.5702,1678267888358,,,680720879196332,2.160993
Fix,GPS,-33.9179463200,151.2281362000,55.58880615234375,1.21,3.7900925,286.9,1678267889000,0.82680106,35.14822,680721520458811,2.5
Fix,FLP,-33.9179506000,151.2281115000,52.80000305175781,1.0207869,8.429,291.06378,1678267888861,,,680721381769301,2.170993
Fix,FLP,-33.9179461000,151.2280948000,52.20000076293945,1.0306429,8.527,290.27975,1678267889363,,,680721884344405,1.6641971
Fix,NLP,-33.9184590000,151.2286830000,,,125.04386,,1678267889937,,,680722458356523,
Fix,GPS,-33.9179431400,151.2281236100,55.62255859375,1.21,3.7900925,287.0,1678267890000,0.82680106,35.235916,680722520458968,2.5
Fix,FLP,-33.9179458000,151.2280936000,52.20000076293945,1.029468,8.568,290.28152,1678267889865,,,680722386917322,1.6741971
Fix,FLP,-33.9179447000,151.2280896000,52.20000076293945,1.0372933,8.584,289.9339,1678267890368,,,680722889492426,1.6741971
Fix,FLP,-33.9179429000,151.2280828000,52.20000076293945,1.0448903,8.629,289.65775,1678267890871,,,680723392065325,1.6741971
Fix,GPS,-33.9179388000,151.2281115700,55.26947021484375,1.11,3.7900925,287.6,1678267891000,0.84599054,38.155968,680723520458655,2.5
Fix,FLP,-33.9179413000,151.2280773000,52.20000076293945,1.0526457,8.678,288.92892,1678267891374,,,680723894640377,1.6841971
Fix,GPS,-33.9179341100,151.2280991900,55.19635009765625,1.19,3.7900925,290.5,1678267892000,0.82680106,35.52909,680724520458395,2.5
Fix,FLP,-33.9179398000,151.2280720000,52.20000076293945,1.0535885,8.725,288.31088,1678267891876,,,680724397213293,1.694197
Fix,FLP,-33.9179376000,151.2280647000,52.20000076293945,1.0590614,8.801,287.35583,1678267892379,,,680724899788241,1.694197
Fix,NLP,-33.9184590000,151.2286830000,,,125.04386,,1678267892941,,,680725462326209,
Fix,GPS,-33.9179290500,151.2280885400,55.29351806640625,1.12,3.7900925,302.6,1678267893000,0.84599054,37.933304,680725520458759,2.5
Fix,FLP,-33.9179366000,151.2280605000,52.20000076293945,1.064673,8.849,286.98904,1678267892881,,,680725402361158,1.704197
Fix,GPS,-33.9179244000,151.2280780400,55.11614990234375,1.06,3.7900925,295.2,1678267894000,0.8736704,40.282322,680726520458967,2.5
Fix,FLP,-33.9179331000,151.2280490000,52.20000076293945,1.0722092,8.967,287.31732,1678267893886,,,680726407508866,1.714197
Fix,FLP,-33.9179277000,151.2280357000,52.80000305175781,1.0717359,9.015,287.98322,1678267894389,,,680726910082877,2.5365455
Fix,GPS,-33.9179193700,151.2280675000,54.80987548828125,1.07,3.7900925,288.1,1678267895000,0.84599054,39.419006,680727520458811,2.5
Fix,FLP,-33.9179252000,151.2280321000,52.80000305175781,1.0700302,9.069,288.09778,1678267894892,,,680727412656575,2.5465455
Fix,FLP,-33.9179212000,151.2280279000,52.80000305175781,1.0650687,9.117,289.29837,1678267895395,,,680727915230116,2.5465455
Fix,NLP,-33.9184590000,151.2286830000,,,125.04386,,1678267895948,,,680728468627823,
Fix,GPS,-33.9179131200,151.2280578900,54.671875,1.07,3.7900925,304.5,1678267896000,1.012571,44.569553,680728520459020,2.5
Fix,FLP,-33.9179185000,151.2280243000,52.80000305175781,1.065897,9.141,289.97986,1678267895896,,,680728417804387,2.5565455
Fix,FLP,-33.9179143000,151.2280164000,52.80000305175781,1.0655932,9.155,290.40808,1678267896400,,,680728920377981,2.5565455
Fix,GPS,-33.9179128700,151.2280438700,54.8914794921875,1.28,3.7900925,271.3,1678267897000,0.85146934,33.879772,680729520458863,2.5
Fix,FLP,-33.9179119000,151.2280146000,52.80000305175781,1.0660172,9.152,291.26547,1678267896902,,,680729422952200,2.5665455
Fix,FLP,-33.9179051000,151.2280034000,52.80000305175781,1.0757341,9.157,292.59167,1678267897907,,,680730428100793,2.5665455
Fix,GPS,-33.9179093200,151.2280281700,54.7877197265625,1.31,3.7900925,285.1,1678267898000,0.82680106,32.886005,680730520458707,2.5
Fix,NLP,-33.9184590000,151.2286830000,,,125.04386,,1678267898960,,,680731481420894,
Fix,GPS,-33.9179046800,151.2280170700,54.74530029296875,1.09,3.7900925,291.5,1678267899000,0.84599054,38.6383,680731520458968,2.5
Fix,FLP,-33.9178958000,151.2279917000,52.80000305175781,1.0871595,8.987,295.37024,1678267898912,,,680731433250012,2.5865455
Fix,GPS,-33.9179001900,151.2280052200,54.608154296875,1.16,3.7900925,288.6,1678267900000,0.84599054,36.91813,680732520458707,2.5
Fix,FLP,-33.9178818000,151.2279735000,52.60000228881836,1.0918939,8.857,298.32132,1678267899917,,,680732438401054,1.8606797
Fix,GPS,-33.9178970700,151.2279941600,54.3858642578125,1.11,3.7900925,283.7,1678267901000,0.85146934,38.336517,680733520458551,2.5
Fix,FLP,-33.9178741000,151.2279662000,52.60000228881836,1.0915506,8.664,299.65698,1678267900922,,,680733443550793,1.8706797
Fix,NLP,-33.9184590000,151.2286830000,,,125.04386,,1678267901982,,,680734503253706,
Fix,GPS,-33.9178931000,151.2279822000,54.1165771484375,1.17,3.7900925,288.6,1678267902000,0.82680106,36.191063,680734520458759,2.5
Fix,FLP,-33.9178664000,151.2279588000,52.60000228881836,1.0915854,8.54,301.59772,1678267901927,,,680734448703085,1.8806797
Fix,FLP,-33.9178626000,151.2279547000,52.60000228881836,1.0965217,8.438,302.23264,1678267902431,,,680734951279179,1.8806797
Fix,GPS,-33.9178907900,151.2279682600,53.84893798828125,1.3,3.7900925,277.8,1678267903000,0.82680106,32.973713,680735520458967,2.5
Fix,FLP,-33.9178580000,151.2279498000,52.60000228881836,1.1014004,8.35,302.80594,1678267902933,,,680735453854700,1.8906797
Fix,FLP,-33.9178538000,151.2279437000,52.60000228881836,1.1126865,8.319,303.0975,1678267903436,,,680735956432043,1.8906797
Fix,GPS,-33.9178893800,151.2279527600,53.865234375,1.36,3.7900925,272.2,1678267904000,0.82680106,31.732512,680736520458655,2.5
Fix,FLP,-33.9178505000,151.2279399000,52.60000228881836,1.1235951,8.339,303.30325,1678267903938,,,680736459007564,1.9006797
Fix,FLP,-33.9178442000,151.2279163000,52.60000228881836,1.1394099,8.246,302.90997,1678267904440,,,680736961585064,1.0079546
Fix,NLP,-33.9184590000,151.2286830000,,,125.04386,,1678267905024,,,680737544632507,
Fix,GPS,-33.9178886900,151.2279373200,53.624267578125,1.4,3.7900925,271.5,1678267905000,0.82680106,31.075989,680737520458967,2.5
Fix,FLP,-33.9178440000,151.2279093000,52.60000228881836,1.1446713,8.185,302.63956,1678267904944,,,680737464160637,1.0179546
Fix,FLP,-33.9178423000,151.2278951000,52.60000228881836,1.1546094,8.085,301.01746,1678267905446,,,680737966738189,1.0179546
Fix,GPS,-33.9178894800,151.2279221000,53.58905029296875,1.4,3.7900925,261.7,1678267906000,0.82680106,30.937174,680738520458446,2.5
Fix,FLP,-33.9178427000,151.2278917000,52.60000228881836,1.164115,8.075,299.80426,1678267905949,,,680738469313970,1.0279546
Fix,FLP,-33.9178408000,151.2278796000,52.60000228881836,1.1680651,8.021,298.0492,1678267906451,,,680738971892095,1.0279546
Fix,GPS,-33.9178903900,151.2279088400,53.34112548828125,1.35,3.7900925,267.2,1678267907000,0.840595,32.356377,680739520458707,2.5
Fix,FLP,-33.9178415000,151.2278761000,52.60000228881836,1.1739291,8.04,296.53818,1678267906953,,,680739474468241,1.0379546
Fix,GPS,-33.9178933500,151.2278944700,53.349365234375,1.37,3.7900925,257.8,1678267908000,0.82680106,31.608145,680740520458968,2.5
Fix,FLP,-33.9178396000,151.2278614000,52.60000228881836,1.1795827,8.039,295.08752,1678267907959,,,680740479624075,1.0479546
Fix,NLP,-33.9184590000,151.2286830000,,,125.04386,,1678267908066,,,680740587098547,
Fix,GPS,-33.9178959700,151.2278819600,53.30859375,1.21,3.7900925,257.2,1678267909000,0.88204306,36.667236,680741520458811,2.5
Fix,FLP,-33.9178403000,151.2278449000,52.60000228881836,1.1896696,8.037,292.43973,1678267908964,,,680741484778554,1.0579545
Fix,GPS,-33.9178991400,151.2278676100,52.78564453125,1.27,3.7900925,256.0,1678267910000,0.85982555,34.3836,680742520458968,2.5
Fix,FLP,-33.9178406000,151.2278197000,52.60000228881836,1.1951059,8.311,289.9555,1678267909968,,,680742489933189,1.0177746
Fix,GPS,-33.9179023000,151.2278490300,52.84674072265625,1.45,3.7900925,250.2,1678267911000,0.82680106,29.95736,680743520458863,2.5
Fix,FLP,-33.9178436000,151.2278089000,52.60000228881836,1.1910323,8.599,288.8351,1678267910975,,,680743495088814,1.0277746
Fix,NLP,-33.9184590000,151.2286830000,,,125.04386,,1678267911114,,,680743634568494,
Fix,GPS,-33.9179033100,151.2278309000,52.84857177734375,1.29,3.7900925,259.9,1678267912000,0.840595,33.4445,680744520458655,2.5
Fix,FLP,-33.9178464000,151.2277967000,52.60000228881836,1.1998111,8.807,287.05487,1678267911980,,,680744500243762,1.0277746
Fix,FLP,-33.9178503000,151.2277891000,52.60000228881836,1.2079686,8.851,284.80673,1678267912482,,,680745002821262,1.0377746
Fix,GPS,-33.9179073500,151.2278140600,53.078125,1.42,3.7900925,245.9,1678267913000,0.82680106,30.65312,680745520458915,2.5
Fix,FLP,-33.9178515000,151.2277824000,52.60000228881836,1.2080668,8.884,283.60587,1678267912985,,,680745505399387,1.0477746
Fix,FLP,-33.9178540000,151.2277735000,52.60000228881836,1.2134417,8.98,282.21716,1678267913486,,,680746007977512,1.0477746
Fix,GPS,-33.9179120100,151.2277981700,53.3994140625,1.32,3.7900925,244.5,1678267914000,0.840595,32.88274,680746520458707,2.5
Fix,FLP,-33.9178559000,151.2277682000,52.60000228881836,1.2187575,9.011,280.75525,1678267913989,,,680746510555637,1.0577745
Fix,NLP,-33.9184590000,151.2286830000,,,125.04386,,1678267914118,,,680746638629014,
Fix,FLP,-33.9178612000,151.2277466000,54.0,1.2253006,9.042,279.0986,1678267914493,,,680747013133762,1.5896554
Fix,GPS,-33.9179146400,151.2277818300,53.2301025390625,1.3,3.7900925,244.8,1678267915000,0.85146934,33.623623,680747520458968,2.5
Fix,FLP,-33.9178644000,151.2277413000,54.0,1.2276284,9.003,278.8256,1678267914994,,,680747515711887,1.5996554
Fix,FLP,-33.9178701000,151.2277294000,54.0,1.2221671,8.933,276.29285,1678267915498,,,680748018290533,1.5996554
Fix,GPS,-33.9179202400,151.2277687500,53.21490478515625,1.29,3.7900925,237.5,1678267916000,0.85146934,33.684807,680748520458707,2.5
Fix,FLP,-33.9178728000,151.2277268000,54.0,1.2209848,8.907,274.30692,1678267916000,,,680748520867564,1.6096554
Fix,FLP,-33.9178770000,151.2277161000,54.0,1.2142673,8.841,271.993,1678267916502,,,680749023445689,1.6096554
Fix,GPS,-33.9179260900,151.2277551300,53.3773193359375,1.27,3.7900925,240.0,1678267917000,1.012571,38.90254,680749520458915,2.5
Fix,FLP,-33.9178803000,151.2277143000,54.0,1.2117848,8.791,269.99222,1678267917005,,,680749526023814,1.6196554
Fix,NLP,-33.9184590000,151.2286830000,,,125.04386,,1678267917158,,,680749679040992,
Fix,FLP,-33.9178865000,151.2277010000,54.0,1.2062149,8.685,267.65863,1678267918010,,,680750531178189,1.6196554
Fix,GPS,-33.9179342700,151.2277399200,53.41326904296875,1.51,3.7900925,234.4,1678267918000,0.82680106,28.928345,680750520458864,2.5
Fix,FLP,-33.9178954000,151.2276942000,54.0,1.2088219,8.627,263.79135,1678267918512,,,680751033756106,1.6296555
Fix,GPS,-33.9179420100,151.2277234500,54.02508544921875,1.47,3.7900925,232.1,1678267919000,0.82680106,29.773642,680751520458863,2.5
Fix,FLP,-33.9178998000,151.2276890000,54.0,1.2170486,8.556,262.05124,1678267919015,,,680751536333033,1.6396555
Fix,GPS,-33.9179491500,151.2277104600,54.44207763671875,1.27,3.7900925,233.4,1678267920000,0.85702974,34.140003,680752520458915,2.5
Fix,FLP,-33.9179128000,151.2276695000,52.20000076293945,1.23057,8.717,257.21158,1678267920020,,,680752541486887,1.0319624
Fix,NLP,-33.9184590000,151.2286830000,,,125.04386,,1678267920199,,,680752719733334,
Fix,GPS,-33.9179595800,151.2276991500,54.41033935546875,1.37,3.7900925,218.6,1678267921000,0.85146934,32.03666,680753520458915,2.5
Fix,FLP,-33.9179236000,151.2276628000,52.20000076293945,1.2156085,8.963,253.35133,1678267921026,,,680753546640793,1.0419624
Fix,GPS,-33.9179695800,151.2276885400,54.33782958984375,1.32,3.7900925,218.7,1678267922000,0.85146934,33.139538,680754520458863,2.5
Fix,FLP,-33.9179360000,151.2276566000,52.20000076293945,1.1878179,9.147,249.03458,1678267922031,,,680754551795064,1.0519624
Fix,GPS,-33.9179788600,151.2276769100,53.96173095703125,1.37,3.7900925,232.2,1678267923000,0.82680106,31.639704,680755520458916,2.5
Fix,FLP,-33.9179498000,151.2276520000,52.20000076293945,1.1510702,9.35,244.08981,1678267923036,,,680755556950533,1.0619624
Fix,GPS,-33.9179892100,151.2276644000,53.4874267578125,1.54,3.7900925,227.5,1678267924000,0.82680106,28.430431,680756520458759,2.5
Fix,FLP,-33.9179653000,151.2276505000,52.20000076293945,1.1085056,9.591,237.06093,1678267923539,,,680756059527981,1.0719624
Fix,FLP,-33.9179730000,151.2276540000,52.0,1.1126097,9.358,234.53651,1678267924041,,,680756562106106,1.0071646
Fix,FLP,-33.9179772000,151.2276375000,52.0,1.1131291,9.125,234.911,1678267924544,,,680757064685689,1.0071646
Fix,GPS,-33.9180028100,151.2276550800,53.41839599609375,1.42,3.7900925,216.9,1678267925000,0.84599054,30.839977,680757520458447,2.5
Fix,FLP,-33.9179830000,151.2276253000,52.0,1.1254526,8.555,233.80548,1678267925549,,,680758069843345,1.0171646
Fix,GPS,-33.9180169000,151.2276457100,53.44586181640625,1.51,3.7900925,219.8,1678267926000,0.82680106,29.014772,680758520458967,2.5
Fix,FLP,-33.9179884000,151.2276205000,52.0,1.1532524,8.141,231.55675,1678267926051,,,680758572422252,1.0271646
Fix,FLP,-33.9179942000,151.2276149000,52.0,1.1700876,7.927,230.5823,1678267926554,,,680759075002252,1.0271646
Fix,GPS,-33.9180314600,151.2276356100,53.63861083984375,1.56,3.7900925,216.5,1678267927000,0.82680106,28.19537,680759520458760,2.5
Fix,FLP,-33.9180099000,151.2276167000,52.0,1.203479,7.425,227.9701,1678267927056,,,680759577581470,1.0371646
Fix,FLP,-33.9180209000,151.2276173000,52.0,1.2210242,7.335,226.4273,1678267927559,,,680760080161627,1.0371646
Fix,NLP,-33.9179440000,151.2273370000,,,82.39696,,1678267927949,,,680760470153800,
Fix,GPS,-33.9180414800,151.2276266400,53.43988037109375,1.36,3.7900925,222.1,1678267928000,0.84599054,32.06562,680760520458707,2.5
Fix,FLP,-33.9180386000,151.2276134000,52.0,1.2429899,6.365,224.35928,1678267928565,,,680761085321314,1.0471646
Fix,GPS,-33.9180538900,151.2276179800,53.28411865234375,1.52,3.7900925,212.2,1678267929000,0.82680106,28.79034,680761520458916,2.5
Fix,FLP,-33.9180507000,151.2276113000,52.0,1.2591498,6.437,222.31897,1678267929572,,,680762093000000,1.0571645
Fix,GPS,-33.9180686700,151.2276123400,53.1025390625,1.42,3.7900925,201.8,1678267930000,0.8905055,31.696894,680762520458811,2.5
Fix,FLP,-33.9180608000,151.2276089000,52.0,1.2679095,6.568,219.83408,1678267930073,,,680762593062148,1.0671645
Fix,FLP,-33.9180686000,151.2276055000,52.0,1.26411,6.578,218.10669,1678267930575,,,680763095642877,1.0671645
Fix,NLP,-33.9179440000,151.2273370000,,,82.39696,,1678267931013,,,680763533592393,
Fix,GPS,-33.9180835800,151.2276099800,53.27227783203125,1.46,3.7900925,190.3,1678267931000,0.83216584,29.803104,680763520458707,2.5
Fix,FLP,-33.9180779000,151.2276047000,52.0,1.2588332,6.637,214.87534,1678267931078,,,680763598223606,1.0771645
Fix,FLP,-33.9180861000,151.2276032000,52.0,1.2578186,6.648,213.10886,1678267931579,,,680764100804127,1.0771645
Fix,GPS,-33.9180982900,151.2276087700,53.08233642578125,1.42,3.7900925,184.9,1678267932000,0.82680106,30.571804,680764520458082,2.5
Fix,FLP,-33.9180950000,151.2276034000,52.0,1.2538397,6.602,209.89372,1678267932082,,,680764603384543,1.0871645
Fix,FLP,-33.9181023000,151.2276023000,52.0,1.2506475,6.632,208.10889,1678267932584,,,680765105965273,1.0871645
Fix,GPS,-33.9181138200,151.2276077900,52.97625732421875,1.51,3.7900925,180.9,1678267933000,0.82680106,29.002562,680765520458863,2.5
Fix,FLP,-33.9181108000,151.2276023000,52.0,1.2515506,6.654,205.05302,1678267933087,,,680765608547356,1.0971646
Fix,FLP,-33.9181180000,151.2276017000,52.0,1.2550592,6.613,203.50041,1678267933590,,,680766111128085,1.0971646
Fix,GPS,-33.9181277900,151.2276092500,52.930908203125,1.48,3.7900925,171.1,1678267934000,0.82680106,29.511652,680766520458551,2.5
Fix,NLP,-33.9179440000,151.2273370000,,,82.39696,,1678267934058,,,680766579251975,
Fix,FLP,-33.9181293000,151.2276034000,52.0,1.2606088,6.461,200.2198,1678267934596,,,680767116289700,1.1071646
Fix,GPS,-33.9181388200,151.2276116500,52.6593017578125,1.37,3.7900925,166.1,1678267935000,0.82680106,31.67828,680767520458915,2.5
Fix,FLP,-33.9181378000,151.2276056000,52.0,1.2558633,6.192,196.65123,1678267935098,,,680767618870533,1.1171646
Fix,FLP,-33.9181450000,151.2276066000,52.0,1.2542853,6.098,194.90889,1678267935601,,,680768121452773,1.1171646
Fix,GPS,-33.9181488400,151.2276158900,52.7386474609375,1.25,3.7900925,158.1,1678267936000,0.82680106,34.09967,680768520458863,2.5
Fix,FLP,-33.9181528000,151.2276090000,52.0,1.2449243,5.744,191.81366,1678267936104,,,680768624033502,1.1271646
Fix,FLP,-33.9181596000,151.2276102000,52.0,1.2413131,5.583,190.48671,1678267936606,,,680769126614231,1.1271646
Fix,GPS,-33.9181619600,151.2276235100,52.86944580078125,1.56,3.7900925,151.1,1678267937000,0.83216584,28.17263,680769520458811,2.5
Fix,NLP,-33.9179440000,151.2273370000,,,82.39696,,1678267937109,,,680769630030828,
Fix,FLP,-33.9181669000,151.2276129000,52.0,1.2470697,5.266,188.35428,1678267937109,,,680769629195325,1.1371646
Fix,FLP,-33.9181727000,151.2276145000,52.0,1.2567824,5.22,187.22498,1678267937611,,,680770131774700,1.1371646
Fix,GPS,-33.9181737100,151.2276338500,52.955810546875,1.51,3.7900925,144.4,1678267938000,0.83216584,29.011324,680770520458707,2.5
Fix,FLP,-33.9181811000,151.2276210000,52.0,1.2575042,5.033,184.10202,1678267938619,,,680771140000000,1.1471646
Fix,GPS,-33.9181851400,151.2276433700,52.941162109375,1.44,3.7900925,144.6,1678267939000,0.83761567,30.330353,680771520458863,2.5
Fix,FLP,-33.9181912000,151.2276340000,52.0,1.2413889,5.212,178.30627,1678267939220,,,680771740031210,1.1571646
Fix,GPS,-33.9181959800,151.2276519100,52.91015625,1.34,3.7900925,142.2,1678267940000,0.82680106,32.237568,680772520459020,2.5
Fix,FLP,-33.9181949000,151.2276391000,52.0,1.2381691,5.342,176.41096,1678267939722,,,680772242611939,1.1671646
Fix,NLP,-33.9179440000,151.2273370000,,,82.39696,,1678267940151,,,680772671656764,
Fix,FLP,-33.9182045000,151.2276485000,52.0,1.2327348,5.673,172.93881,1678267940727,,,680773247771262,1.1671646
Fix,GPS,-33.9182076300,151.2276598400,53.056396484375,1.39,3.7900925,145.6,1678267941000,0.8626703,31.587702,680773520458811,2.5
Fix,FLP,-33.9182093000,151.2276567000,52.0,1.2320014,5.767,169.88374,1678267941229,,,680773750349960,1.1771646
Fix,FLP,-33.9182160000,151.2276626000,52.0,1.2317281,5.833,168.26859,1678267941731,,,680774252930481,1.1771646
Fix,GPS,-33.9182177800,151.2276681400,52.86907958984375,1.4,3.7900925,141.8,1678267942000,0.82680106,30.89608,680774520458655,2.5
Fix,FLP,-33.9182215000,151.2276691000,52.0,1.2286165,5.877,165.3094,1678267942235,,,680774755509387,1.1871645
Fix,FLP,-33.9182268000,151.2276746000,52.0,1.2226554,6.01,163.57729,1678267942738,,,680775258089856,1.1871645
Fix,GPS,-33.9182275300,151.2276776300,52.72540283203125,1.46,3.7900925,140.5,1678267943000,0.83216584,29.856041,680775520458916,2.5
Fix,NLP,-33.9179440000,151.2273370000,,,82.39696,,1678267943191,,,680775712282127,
Fix,FLP,-33.9182399000,151.2276891000,52.60000228881836,1.2079072,5.792,158.74144,1678267943742,,,680776263249543,3.69326
Fix,GPS,-33.9182375100,151.2276891900,52.495361328125,1.46,3.7900925,132.9,1678267944000,0.83216584,29.92644,680776520458967,2.5
Fix,FLP,-33.9182428000,151.2276956000,52.60000228881836,1.2041463,5.48,155.50612,1678267944245,,,680776765830273,3.7032602
Fix,GPS,-33.9182461700,151.2277026700,52.9349365234375,1.43,3.7900925,123.5,1678267945000,0.84599054,30.645338,680777520458655,2.5
Fix,FLP,-33.9182452000,151.2277002000,52.60000228881836,1.2067345,5.322,153.96338,1678267944748,,,680777268411002,3.7132602
Fix,FLP,-33.9182497000,151.2277076000,52.60000228881836,1.2116795,4.968,151.2643,1678267945250,,,680777770991731,3.7132602
Fix,GPS,-33.9182550100,151.2277165000,53.03564453125,1.49,3.7900925,122.2,1678267946000,0.83216584,29.263792,680778520458186,2.5
Fix,FLP,-33.9182525000,151.2277124000,52.60000228881836,1.214473,4.816,149.86516,1678267945752,,,680778273571606,3.7232602
Fix,NLP,-33.9179440000,151.2273370000,,,82.39696,,1678267946230,,,680778751158845,
Fix,FLP,-33.9182599000,151.2277243000,52.60000228881836,1.2154621,4.599,147.90117,1678267946756,,,680779276405968,3.7232602
Fix,GPS,-33.9182628700,151.2277309600,53.17333984375,1.54,3.7900925,122.7,1678267947000,0.82680106,28.514425,680779520458863,2.5
Fix,FLP,-33.9182633000,151.2277335000,52.60000228881836,1.2221698,4.522,144.77182,1678267947261,,,680779781314783,3.7332602
Fix,FLP,-33.9182672000,151.2277411000,52.60000228881836,1.2290934,4.535,143.28769,1678267947763,,,680780283895616,3.7332602
Fix,GPS,-33.9182704000,151.2277451300,52.92041015625,1.45,3.7900925,116.7,1678267948000,0.85146934,30.518826,680780520458863,2.5
Fix,GPS,-33.9182793600,151.2277583900,52.70745849609375,1.45,3.7900925,127.5,1678267949000,0.82680106,29.968458,680781520458759,2.5
Fix,FLP,-33.9182776000,151.2277609000,52.0,1.2349181,4.543,139.23836,1678267948768,,,680781289059991,2.5474946
Fix,NLP,-33.9179440000,151.2273370000,,,82.39696,,1678267949277,,,680781797744938,
Fix,GPS,-33.9182871800,151.2277728000,52.80352783203125,1.38,3.7900925,122.8,1678267950000,0.8626703,31.766907,680782520458863,2.5
Fix,FLP,-33.9182826000,151.2277726000,52.0,1.2421722,4.617,136.96504,1678267949774,,,680782294223273,2.5574946
Fix,FLP,-33.9182873000,151.2277805000,52.0,1.2537494,4.675,135.67024,1678267950276,,,680782796804366,2.5574946
Fix,GPS,-33.9182952500,151.2277866200,52.59423828125,1.46,3.7900925,122.1,1678267951000,0.82680106,29.828075,680783520458759,2.5
Fix,FLP,-33.9182898000,151.2277846000,52.0,1.2602022,4.709,135.10378,1678267950778,,,680783299386866,2.5674946
Fix,FLP,-33.9182937000,151.2277900000,52.0,1.2718713,4.701,134.67838,1678267951281,,,680783801968064,2.5674946
Fix,FLP,-33.9182991000,151.2277976000,52.0,1.2824191,4.729,134.2097,1678267951784,,,680784304550669,2.5674946
Fix,GPS,-33.9183014700,151.2278013800,52.5234375,1.39,3.7900925,115.9,1678267952000,0.82680106,31.205431,680784520458446,2.5
Fix,NLP,-33.9179440000,151.2273370000,,,82.39696,,1678267952307,,,680784827616291,
Fix,FLP,-33.9183043000,151.2278053000,52.0,1.2956877,4.784,133.45743,1678267952287,,,680784807131971,2.5774946
Fix,FLP,-33.9183087000,151.2278119000,52.0,1.3010408,4.801,133.12013,1678267952788,,,680785309714939,2.5774946
Fix,GPS,-33.9183093400,151.2278150500,52.26446533203125,1.45,3.7900925,121.6,1678267953000,0.83216584,30.02799,680785520458916,2.5
Fix,FLP,-33.9183168000,151.2278247000,52.60000228881836,1.309852,4.802,132.36119,1678267953292,,,680785812296450,5.5663853
Fix,GPS,-33.9183159300,151.2278297600,52.20257568359375,1.46,3.7900925,116.2,1678267954000,0.83216584,29.847893,680786520458707,2.5
Fix,FLP,-33.9183190000,151.2278289000,52.60000228881836,1.3144747,4.812,132.24652,1678267953794,,,680786314879523,5.576385
Fix,FLP,-33.9183226000,151.2278356000,52.60000228881836,1.3202018,4.789,131.94608,1678267954296,,,680786817461606,5.576385
Fix,GPS,-33.9183232200,151.2278434200,52.0306396484375,1.37,3.7900925,124.3,1678267955000,1.0290287,37.363667,680787520458863,2.5
Fix,FLP,-33.9183254000,151.2278412000,52.60000228881836,1.3256421,4.792,131.41023,1678267954800,,,680787320044314,5.5863853
Fix,NLP,-33.9179440000,151.2273370000,,,82.39696,,1678267955309,,,680787829806914,
Fix,FLP,-33.9183278000,151.2278471000,52.60000228881836,1.325572,4.76,130.62074,1678267955302,,,680787822627231,5.5863853
Fix,GPS,-33.9183270400,151.2278587900,52.06695556640625,1.49,3.7900925,107.4,1678267956000,0.83216584,29.319649,680788520458864,2.5
Fix,FLP,-33.9183310000,151.2278552000,52.60000228881836,1.322908,4.729,129.28868,1678267955805,,,680788325209158,5.596385
Fix,FLP,-33.9183370000,151.2278688000,52.60000228881836,1.3312209,4.712,128.5599,1678267956809,,,680789330375044,5.596385
Fix,GPS,-33.9183330100,151.2278743500,52.3233642578125,1.52,3.7900925,112.0,1678267957000,0.82680106,28.8572,680789520459019,2.5
Fix,FLP,-33.9183399000,151.2278785000,52.60000228881836,1.3442389,4.66,127.38624,1678267957311,,,680789832957127,5.606385
Fix,FLP,-33.9183429000,151.2278863000,52.60000228881836,1.3517118,4.627,126.86106,1678267957814,,,680790335540460,5.606385
Fix,GPS,-33.9183398500,151.2278889800,51.82720947265625,1.54,3.7900925,111.4,1678267958000,0.82680106,28.481655,680790520458915,2.5
Fix,NLP,-33.9179440000,151.2273370000,,,82.39696,,1678267958331,,,680790852039726,
Fix,FLP,-33.9183456000,151.2278948000,52.60000228881836,1.3622866,4.816,125.724846,1678267958318,,,680790838122700,5.616385
Fix,GPS,-33.9183454500,151.2279044200,51.96142578125,1.51,3.7900925,113.1,1678267959000,0.82680106,28.986927,680791520458967,2.5
Fix,FLP,-33.9183473000,151.2279008000,52.60000228881836,1.3681248,4.971,125.092705,1678267958820,,,680791340705304,5.626385
Fix,FLP,-33.9183499000,151.2279105000,52.60000228881836,1.3752159,5.276,123.85923,1678267959323,,,680791843288221,5.626385
Fix,GPS,-33.9183489800,151.2279197800,51.63470458984375,1.37,3.7900925,106.0,1678267960000,0.82680106,31.505558,680792520458707,2.5
Fix,FLP,-33.9183510000,151.2279156000,52.60000228881836,1.3793284,5.386,123.20229,1678267959825,,,680792345871554,5.6363854
Fix,FLP,-33.9183520000,151.2279217000,52.60000228881836,1.3730636,5.512,122.11704,1678267960328,,,680792848453169,5.6363854
Fix,FLP,-33.9183541000,151.2279306000,52.60000228881836,1.3670515,5.77,120.97924,1678267960831,,,680793351036554,5.6363854
Fix,GPS,-33.9183527700,151.2279348600,51.57733154296875,1.46,3.7900925,108.4,1678267961000,0.82680106,29.832607,680793520458811,2.5
Fix,NLP,-33.9179440000,151.2273370000,,,82.39696,,1678267961371,,,680793891615923,
Fix,FLP,-33.9183552000,151.2279385000,52.60000228881836,1.3628412,5.949,119.40332,1678267961333,,,680793853618794,5.646385
Fix,GPS,-33.9183591600,151.2279493400,51.58636474609375,1.47,3.7900925,114.6,1678267962000,0.82680106,29.678982,680794520458759,2.5
Fix,FLP,-33.9183574000,151.2279464000,52.60000228881836,1.3638036,6.074,118.75094,1678267961836,,,680794356202127,5.6563854
Fix,FLP,-33.9183596000,151.2279540000,52.60000228881836,1.3650373,6.198,117.98812,1678267962337,,,680794858786294,5.6563854
Fix,GPS,-33.9183647400,151.2279625200,51.29132080078125,1.41,3.7900925,111.6,1678267963000,0.8940358,31.402376,680795520458551,2.5
Fix,FLP,-33.9183616000,151.2279614000,52.60000228881836,1.3671087,6.101,117.25529,1678267962841,,,680795361369627,5.666385
Fix,FLP,-33.9183662000,151.2279754000,52.5,1.3602827,6.028,115.96848,1678267963342,,,680795863953377,6.519916
Fix,GPS,-33.9183706000,151.2279756800,50.99053955078125,1.42,3.7900925,117.3,1678267964000,0.83216584,30.66677,680796520458811,2.5
Fix,FLP,-33.9183673000,151.2279797000,52.5,1.358983,5.921,115.49144,1678267963846,,,680796366538533,6.5299163
Fix,NLP,-33.9179440000,151.2273370000,,,82.39696,,1678267964379,,,680796899857015,
Fix,FLP,-33.9183701000,151.2279871000,52.5,1.3583218,5.485,114.93587,1678267964349,,,680796869123481,6.5299163
Fix,GPS,-33.9183792000,151.2279873700,50.3583984375,1.44,3.7900925,135.5,1678267965000,1.059481,36.573997,680797520458707,2.5
Fix,FLP,-33.9183722000,151.2279917000,52.5,1.3628367,5.407,115.07346,1678267964850,,,680797371707544,6.539916
Fix,FLP,-33.9183774000,151.2280015000,52.5,1.3674514,5.06,115.3755,1678267965354,,,680797874293481,6.539916
Fix,GPS,-33.9183842600,151.2280014700,49.9180908203125,1.38,3.7900925,117.5,1678267966000,0.82680106,31.374775,680798520458550,2.5
Fix,FLP,-33.9183793000,151.2280048000,52.5,1.3725842,4.903,115.40903,1678267965856,,,680798376877700,6.5499163
Fix,FLP,-33.9183865000,151.2280192000,52.5,1.375754,4.638,115.8054,1678267966861,,,680799382049575,6.5499163
Fix,GPS,-33.9183938100,151.2280161200,49.899169921875,1.42,3.7900925,126.5,1678267967000,0.82680106,30.672802,680799520458967,2.5
Fix,NLP,-33.9179440000,151.2273370000,,,82.39696,,1678267967391,,,680799911655243,
Fix,GPS,-33.9184043600,151.2280304900,50.27874755859375,1.58,3.7900925,135.4,1678267968000,0.82680106,27.848433,680800520458863,2.5
Fix,FLP,-33.9183954000,151.2280335000,52.5,1.3791127,4.457,116.8636,1678267967866,,,680800387219939,6.5699162
Fix,GPS,-33.9184140100,151.2280431100,50.42425537109375,1.44,3.7900925,132.7,1678267969000,0.84599054,30.495687,680801520458967,2.5
Fix,FLP,-33.9184090000,151.2280515000,52.80000305175781,1.3796942,4.554,119.10928,1678267968871,,,680801392391814,1.9928185
Fix,GPS,-33.9184227300,151.2280508600,49.97869873046875,1.39,3.7900925,142.1,1678267970000,0.840595,31.47859,680802520458707,2.5
Fix,FLP,-33.9184183000,151.2280600000,52.80000305175781,1.3816319,4.627,120.99313,1678267969877,,,680802397562179,2.0028186
Fix,GPS,-33.9184321600,151.2280617500,49.87579345703125,1.46,3.7900925,135.9,1678267971000,0.82680106,29.780506,680803520459019,2.5
Fix,FLP,-33.9184285000,151.2280693000,52.80000305175781,1.376311,4.757,122.90421,1678267970882,,,680803402732335,2.0128186
Fix,FLP,-33.9184342000,151.2280733000,52.80000305175781,1.3751867,4.722,124.10905,1678267971384,,,680803905318273,2.0128186
Fix,GPS,-33.9184425600,151.2280720100,49.9315185546875,1.47,3.7900925,144.3,1678267972000,0.82680106,29.73143,680804520458967,2.5
Fix,FLP,-33.9184409000,151.2280789000,52.80000305175781,1.3716909,4.724,125.39569,1678267971887,,,680804407902648,2.0228186
Fix,FLP,-33.9184471000,151.2280824000,52.80000305175781,1.3668337,4.675,126.83637,1678267972390,,,680804910488116,2.0228186
Fix,GPS,-33.9184544500,151.2280839800,49.8499755859375,1.48,3.7900925,142.9,1678267973000,0.83761567,29.679138,680805520459020,2.5
Fix,FLP,-33.9184618000,151.2280946000,52.60000228881836,1.3342899,4.618,129.72095,1678267972893,,,680805413072387,5.811655
Fix,FLP,-33.9184649000,151.2280944000,52.60000228881836,1.3262495,4.56,131.20146,1678267973394,,,680805915657700,5.811655
Fix,GPS,-33.9184671600,151.2280951500,49.873046875,1.55,3.7900925,147.7,1678267974000,0.82680106,28.31248,680806520458811,2.5
Fix,FLP,-33.9184697000,151.2280968000,52.60000228881836,1.323364,4.55,132.56374,1678267973897,,,680806418241762,5.821655
Fix,NLP,-33.9193760000,151.2274600000,,,83.24864,,1678267974348,,,680806868800813,
Fix,FLP,-33.9184759000,151.2281000000,52.60000228881836,1.3258846,4.467,134.92546,1678267974400,,,680806920826346,5.821655
Fix,GPS,-33.9184785200,151.2281046000,49.9981689453125,1.48,3.7900925,148.3,1678267975000,0.82680106,29.49526,680807520458811,2.5
Fix,FLP,-33.9184801000,151.2281022000,52.60000228881836,1.328934,4.454,136.28789,1678267974903,,,680807423411710,5.831655
Fix,FLP,-33.9184881000,151.2281071000,52.60000228881836,1.3281215,4.45,138.81583,1678267975404,,,680807925995669,5.831655
Fix,GPS,-33.9184902900,151.2281126500,50.289794921875,1.46,3.7900925,154.5,1678267976000,0.82680106,29.779133,680808520458863,2.5
Fix,FLP,-33.9184915000,151.2281084000,52.60000228881836,1.3259741,4.462,140.27266,1678267975908,,,680808428581294,5.841655
Fix,FLP,-33.9185003000,151.2281137000,52.60000228881836,1.317388,4.435,141.999,1678267976411,,,680808931165408,5.841655
Fix,GPS,-33.9185036700,151.2281200900,50.40118408203125,1.52,3.7900925,155.5,1678267977000,0.82680106,28.766008,680809520458968,2.5
Fix,FLP,-33.9185034000,151.2281137000,52.60000228881836,1.312043,4.435,143.71683,1678267976913,,,680809433751346,5.851655
Fix,NLP,-33.9193760000,151.2274600000,,,83.24864,,1678267977406,,,680809926599250,
Fix,FLP,-33.9185159000,151.2281196000,52.60000228881836,1.3112978,4.469,145.59448,1678267977918,,,680810438921294,5.851655
Fix,GPS,-33.9185175300,151.2281275100,50.7562255859375,1.53,3.7900925,158.4,1678267978000,0.82680106,28.69282,680810520457978,2.5
Fix,FLP,-33.9185231000,151.2281246000,52.60000228881836,1.3204191,4.713,147.6479,1678267978420,,,680810941505981,5.8616548
Fix,GPS,-33.9185307500,151.2281343100,50.96234130859375,1.52,3.7900925,159.3,1678267979000,0.82680106,28.723482,680811520458759,2.5
Fix,FLP,-33.9185287000,151.2281295000,52.60000228881836,1.3308461,4.876,148.0875,1678267978923,,,680811444091137,5.871655
Fix,GPS,-33.9185430700,151.2281406000,51.0997314453125,1.47,3.7900925,157.1,1678267980000,0.84599054,29.936172,680812520459020,2.5
Fix,FLP,-33.9185408000,151.2281382000,52.60000228881836,1.347759,5.405,149.03284,1678267979929,,,680812449261033,5.8816547
Fix,NLP,-33.9193760000,151.2274600000,,,83.24864,,1678267980412,,,680812932926228,
Fix,GPS,-33.9185576000,151.2281458000,51.4996337890625,1.51,3.7900925,158.8,1678267981000,0.82680106,28.988016,680813520458812,2.5
Fix,FLP,-33.9185528000,151.2281455000,52.60000228881836,1.3582869,5.844,150.16992,1678267980934,,,680813454430564,5.891655
Fix,GPS,-33.9185718300,151.2281527800,51.62835693359375,1.54,3.7900925,153.8,1678267982000,0.82680106,28.447895,680814520458967,2.5
Fix,FLP,-33.9185648000,151.2281518000,52.60000228881836,1.3673984,6.299,151.27028,1678267981939,,,680814459599731,5.9016547
Fix,GPS,-33.9185851400,151.2281594600,51.622802734375,1.44,3.7900925,157.4,1678267983000,0.82680106,30.152792,680815520458864,2.5
Fix,FLP,-33.9185789000,151.2281587000,52.60000228881836,1.383557,6.893,152.05775,1678267982944,,,680815464769158,5.9016547
Fix,NLP,-33.9193760000,151.2274600000,,,83.24864,,1678267983426,,,680815947453102,
Fix,FLP,-33.9185880000,151.2281630000,52.60000228881836,1.3957607,6.838,152.679,1678267983447,,,680815967352596,5.911655
Fix,GPS,-33.9185989300,151.2281652000,51.609619140625,1.46,3.7900925,161.8,1678267984000,0.82680106,29.884623,680816520458916,2.5
Fix,FLP,-33.9185946000,151.2281662000,52.60000228881836,1.3982437,6.815,153.16039,1678267983949,,,680816469937491,5.921655
Fix,FLP,-33.9186037000,151.2281694000,52.60000228881836,1.4016217,6.788,154.12823,1678267984451,,,680816972521085,5.921655
Fix,GPS,-33.9186120900,151.2281697000,51.37677001953125,1.43,3.7900925,163.6,1678267985000,0.82680106,30.411469,680817520458915,2.5
Fix,FLP,-33.9186098000,151.2281712000,52.60000228881836,1.4053047,6.799,154.60829,1678267984954,,,680817475104419,5.931655
Fix,FLP,-33.9186191000,151.2281745000,52.60000228881836,1.4059016,6.61,155.0135,1678267985457,,,680817977689262,5.931655
Fix,GPS,-33.9186254000,151.2281735200,51.55548095703125,1.5,3.7900925,163.7,1678267986000,0.82680106,29.221277,680818520458499,2.5
Fix,FLP,-33.9186238000,151.2281758000,52.60000228881836,1.4079633,6.481,155.46771,1678267985960,,,680818480272596,5.941655
Fix,NLP,-33.9193760000,151.2274600000,,,83.24864,,1678267986467,,,680818987466434,
Fix,FLP,-33.9186338000,151.2281800000,52.60000228881836,1.4098884,6.235,155.99635,1678267986462,,,680818982855929,5.941655
Fix,GPS,-33.9186379600,151.2281781300,51.77001953125,1.44,3.7900925,164.6,1678267987000,0.85146934,30.468681,680819520458863,2.5
Fix,FLP,-33.9186371000,151.2281808000,52.60000228881836,1.4143355,6.103,156.55397,1678267986964,,,680819485439262,5.951655
Fix,FLP,-33.9186474000,151.2281848000,52.60000228881836,1.4120697,5.765,157.14592,1678267987468,,,680819988022596,5.951655
Fix,GPS,-33.9186526200,151.2281792300,51.64495849609375,1.54,3.7900925,174.1,1678267988000,0.82680106,28.41858,680820520458915,2.5
Fix,FLP,-33.9186502000,151.2281853000,52.60000228881836,1.4131998,5.569,157.8076,1678267987970,,,680820490605929,5.961655
Fix,FLP,-33.9186653000,151.2281887000,52.60000228881836,1.4147196,5.159,159.25061,1678267988974,,,680821495772596,5.961655
Fix,GPS,-33.9186666200,151.2281780900,51.6234130859375,1.47,3.7900925,181.9,1678267989000,0.85146934,29.970436,680821520458499,2.5
Fix,NLP,-33.9193760000,151.2274600000,,,83.24864,,1678267989470,,,680821991193360,
Fix,GPS,-33.9186810700,151.2281767600,51.87957763671875,1.58,3.7900925,188.4,1678267990000,0.82680106,27.765549,680822520458811,2.5
Fix,FLP,-33.9186801000,151.2281875000,52.60000228881836,1.4077071,4.727,162.38931,1678267989979,,,680822500939262,5.981655
Fix,GPS,-33.9186936200,151.2281755000,52.21014404296875,1.45,3.7900925,190.6,1678267991000,0.84599054,30.264578,680823520458811,2.5
Fix,FLP,-33.9186947000,151.2281837000,52.60000228881836,1.402516,4.454,165.76892,1678267990985,,,680823506105929,5.991655
Fix,FLP,-33.9187087000,151.2281789000,52.10000228881836,1.3875598,4.548,168.78027,1678267991487,,,680824008690721,1.5565491
Fix,GPS,-33.9187050500,151.2281723200,52.13287353515625,1.44,3.7900925,195.2,1678267992000,0.84599054,30.56418,680824520458654,2.5
Fix,FLP,-33.9187106000,151.2281769000,52.10000228881836,1.387753,4.579,168.9184,1678267991990,,,680824511274054,1.5665491
Fix,NLP,-33.9193760000,151.2274600000,,,83.24864,,1678267992510,,,680825031199661,
Fix,GPS,-33.9187164500,151.2281650700,52.6976318359375,1.52,3.7900925,203.5,1678267993000,0.82680106,28.796204,680825520458759,2.5
Fix,FLP,-33.9187235000,151.2281751000,52.10000228881836,1.386055,4.734,170.38463,1678267992996,,,680825516442439,1.576549
Fix,GPS,-33.9187266100,151.2281583500,52.3267822265625,1.34,3.7900925,207.0,1678267994000,0.82680106,32.214367,680826520458915,2.5
Fix,FLP,-33.9187363000,151.2281714000,52.10000228881836,1.3830872,4.979,173.43568,1678267994001,,,680826521609939,1.586549
Fix,FLP,-33.9187441000,151.2281683000,52.10000228881836,1.374105,5.138,175.43768,1678267994503,,,680827024194627,1.586549
Fix,GPS,-33.9187381800,151.2281518800,52.466796875,1.47,3.7900925,207.2,1678267995000,0.840595,29.855562,680827520458863,2.5
Fix,FLP,-33.9187503000,151.2281652000,52.10000228881836,1.3686043,5.314,177.10707,1678267995006,,,680827526778689,1.596549
Fix,NLP,-33.9193760000,151.2274600000,,,83.24864,,1678267995557,,,680828078191795,
Fix,FLP,-33.9187583000,151.2281616000,52.10000228881836,1.370378,5.564,178.48505,1678267995508,,,680828029363377,1.596549
Fix,GPS,-33.9187489800,151.2281426600,52.82000732421875,1.43,3.7900925,222.7,1678267996000,0.85146934,30.806896,680828520459019,2.5
Fix,FLP,-33.9187637000,151.2281583000,52.10000228881836,1.3723792,5.784,179.86673,1678267996011,,,680828531947700,1.6065491
Fix,FLP,-33.9187842000,151.2281523000,52.5,1.3736774,6.086,181.22331,1678267996513,,,680829034532596,3.781825
Fix,GPS,-33.9187586900,151.2281320000,52.70391845703125,1.42,3.7900925,226.6,1678267997000,0.82680106,30.63259,680829520458707,2.5
Fix,FLP,-33.9187874000,151.2281493000,52.5,1.375186,6.46,181.38947,1678267997017,,,680829537116919,3.791825
Fix,FLP,-33.9187957000,151.2281427000,52.5,1.3483266,6.755,184.06042,1678267997518,,,680830039701762,3.791825
Fix,GPS,-33.9187680100,151.2281202700,52.77801513671875,1.43,3.7900925,229.7,1678267998000,0.84599054,30.752796,680830520458707,2.5
Fix,FLP,-33.9187969000,151.2281389000,52.5,1.3294524,6.844,186.43372,1678267998021,,,680830542286554,3.801825
Fix,NLP,-33.9193760000,151.2274600000,,,83.24864,,1678267998599,,,680831119725388,
Fix,FLP,-33.9188054000,151.2281311000,52.5,1.3085722,7.139,189.03767,1678267998524,,,680831044871241,3.801825
Fix,GPS,-33.9187755700,151.2281068900,52.54730224609375,1.52,3.7900925,236.2,1678267999000,0.82680106,28.734882,680831520458863,2.5
Fix,FLP,-33.9188048000,151.2281266000,52.5,1.2934012,7.223,191.38383,1678267999026,,,680831547456137,3.811825
Fix,FLP,-33.9188098000,151.2281185000,52.5,1.2809854,7.451,193.96556,1678267999530,,,680832050041033,3.811825
Fix,GPS,-33.9187835800,151.2280943000,52.71270751953125,1.41,3.7900925,234.6,1678268000000,0.84599054,30.988209,680832520458655,2.5
Fix,FLP,-33.9188129000,151.2281117000,52.5,1.2735165,7.534,196.34457,1678268000032,,,680832552625877,3.821825
Fix,FLP,-33.9188175000,151.2280998000,52.5,1.2623343,7.832,200.43774,1678268000534,,,680833055211429,3.821825
Fix,GPS,-33.9187917100,151.2280819000,52.58001708984375,1.43,3.7900925,235.2,1678268001000,0.85146934,30.908699,680833520458968,2.5
Fix,FLP,-33.9188192000,151.2280943000,52.5,1.2621013,7.9,202.11253,1678268001036,,,680833557796325,3.831825
Fix,NLP,-33.9193760000,151.2274600000,,,83.24864,,1678268001613,,,680834134307053,
Fix,FLP,-33.9188312000,151.2280753000,52.20000076293945,1.2575039,8.167,206.55989,1678268001540,,,680834060382106,4.4339366
Fix,GPS,-33.9188000400,151.2280712800,52.69757080078125,1.42,3.7900925,230.8,1678268002000,0.84599054,30.917114,680834520458603,2.5
Fix,FLP,-33.9188301000,151.2280717000,52.20000076293945,1.259589,8.215,207.89772,1678268002041,,,680834562966429,4.4439363
Fix,GPS,-33.9188091000,151.2280585600,52.77569580078125,1.51,3.7900925,231.5,1678268003000,0.82680106,28.953058,680835520458811,2.5
Fix,FLP,-33.9188344000,151.2280613000,52.20000076293945,1.2624762,8.499,210.3013,1678268002544,,,680835065552366,4.4539366
Fix,FLP,-33.9188363000,151.2280552000,52.20000076293945,1.2691315,8.494,211.49167,1678268003047,,,680835568136950,4.4539366
Fix,GPS,-33.9188171000,151.2280459200,52.63995361328125,1.42,3.7900925,236.3,1678268004000,1.0151354,35.688946,680836520458811,2.5
Fix,FLP,-33.9188396000,151.2280487000,52.20000076293945,1.2751534,8.573,212.72726,1678268003550,,,680836070722575,4.4639363
Fix,FLP,-33.9188439000,151.2280404000,52.20000076293945,1.2794328,8.645,213.92513,1678268004555,,,680837075892783,4.4639363
Fix,NLP,-33.9193760000,151.2274600000,,,83.24864,,1678268004639,,,680837159612573,
Fix,GPS,-33.9188238000,151.2280317900,52.880126953125,1.43,3.7900925,240.2,1678268005000,0.84599054,30.62471,680837520458812,2.5
Fix,FLP,-33.9188473000,151.2280298000,52.20000076293945,1.2872114,8.786,215.87813,1678268005057,,,680837578478721,4.4739366
Fix,FLP,-33.9188503000,151.2280237000,52.20000076293945,1.2911353,8.839,216.86264,1678268005561,,,680838081064502,4.4739366
Fix,GPS,-33.9188309700,151.2280186300,52.965576171875,1.43,3.7900925,239.8,1678268006000,0.83216584,30.565226,680838520458864,2.5
Fix,FLP,-33.9188494000,151.2280160000,52.80000305175781,1.2944133,8.752,218.96422,1678268006063,,,680838583648929,4.8884068
Fix,FLP,-33.9188547000,151.2280011000,52.80000305175781,1.2854083,8.449,221.3371,1678268006565,,,680839086234866,4.8884068
Fix,GPS,-33.9188349700,151.2280036800,53.08221435546875,1.45,3.7900925,250.0,1678268007000,0.82680106,29.978865,680839520458967,2.5
Fix,NLP,-33.9193760000,151.2274600000,,,83.24864,,1678268007652,,,680840173221947,
Fix,FLP,-33.9188569000,151.2279882000,52.80000305175781,1.280455,8.042,223.87047,1678268007570,,,680840091404971,4.8984065
Fix,GPS,-33.9188404600,151.2279883600,53.19293212890625,1.46,3.7900925,244.6,1678268008000,0.84599054,30.229673,680840520458863,2.5
Fix,GPS,-33.9188453300,151.2279735800,52.849609375,1.5,3.7900925,250.7,1678268009000,0.82680106,29.154263,680841520458968,2.5
Fix,FLP,-33.9188577000,151.2279739000,52.80000305175781,1.275651,7.443,226.77136,1678268008575,,,680841096574658,4.9184065
Fix,GPS,-33.9188491300,151.2279583900,52.893310546875,1.48,3.7900925,252.0,1678268010000,0.82680106,29.451267,680842520458863,2.5
Fix,FLP,-33.9188589000,151.2279593000,52.80000305175781,1.2767656,6.742,229.59798,1678268009581,,,680842101743408,4.9284067
Fix,FLP,-33.9188584000,151.2279542000,52.80000305175781,1.2791504,6.597,231.0084,1678268010084,,,680842604328200,4.9284067
Fix,NLP,-33.9193760000,151.2274600000,,,83.24864,,1678268010667,,,680843188199081,
Fix,FLP,-33.9188602000,151.2279454000,52.80000305175781,1.2800181,5.979,232.52675,1678268010586,,,680843106911533,4.9284067
Fix,GPS,-33.9188542100,151.2279443400,52.61083984375,1.41,3.7900925,249.6,1678268011000,0.82680106,30.721607,680843520458759,2.5
Fix,FLP,-33.9188595000,151.2279397000,52.0,1.2795482,5.814,235.08235,1678268011088,,,680843609495908,4.8812046
Fix,FLP,-33.9188641000,151.2279230000,52.0,1.2681656,5.236,237.47903,1678268011592,,,680844112079241,4.8812046
Fix,GPS,-33.9188565500,151.2279289700,52.87274169921875,1.42,3.7900925,256.1,1678268012000,0.84599054,30.887625,680844520458967,2.5
Fix,FLP,-33.9188639000,151.2279178000,52.0,1.2693743,5.079,239.33118,1678268012094,,,680844614662575,4.8912044
Fix,GPS,-33.9188624900,151.2279153000,52.89862060546875,1.45,3.7900925,239.3,1678268013000,0.98005104,33.207436,680845520458082,2.5
Fix,FLP,-33.9188655000,151.2279106000,52.0,1.2704452,5.042,240.36461,1678268012597,,,680845117244606,4.9012046
Fix,FLP,-33.9188659000,151.2279068000,52.0,1.2748743,4.969,241.42241,1678268013099,,,680845619828929,4.9012046
Fix,GPS,-33.9188694700,151.2279027800,52.82037353515625,1.36,3.7900925,239.3,1678268014000,0.84599054,31.992493,680846520458864,2.5
Fix,FLP,-33.9188683000,151.2278958000,52.0,1.2777948,4.968,243.53143,1678268013601,,,680846122412627,4.911205
Fix,FLP,-33.9188706000,151.2278849000,52.0,1.2758118,4.958,244.96332,1678268014607,,,680847127579293,4.911205
Fix,GPS,-33.9188730800,151.2278883000,52.98553466796875,1.43,3.7900925,252.7,1678268015000,0.82680106,30.452217,680847520458655,2.5
Fix,FLP,-33.9188718000,151.2278762000,52.0,1.2753897,4.981,247.08627,1678268015110,,,680847630163825,4.9212046
Fix,FLP,-33.9188730000,151.2278696000,52.0,1.2809731,4.987,247.77812,1678268015611,,,680848132747158,4.9212046
Fix,GPS,-33.9188768800,151.2278725300,53.56011962890625,1.41,3.7900925,251.1,1678268016000,1.0234256,36.372307,680848520458811,2.5
Fix,FLP,-33.9188762000,151.2278526000,52.0,1.2649301,5.028,249.6288,1678268016114,,,680848635332314,4.7395015
Fix,FLP,-33.9188768000,151.2278480000,52.0,1.266858,5.083,250.35248,1678268016616,,,680849137915648,4.7395015
Fix,GPS,-33.9188794600,151.2278535800,53.34112548828125,1.58,3.7900925,256.7,1678268017000,0.82680106,27.769867,680849520458915,2.5
Fix,NLP,-33.9193280000,151.2278300000,,,91.53946,,1678268017309,,,680849830446526,
Fix,FLP,-33.9188774000,151.2278409000,52.0,1.2795222,5.219,251.81,1678268017120,,,680849640500127,4.7495017
Fix,FLP,-33.9188783000,151.2278339000,52.0,1.2895397,5.325,252.69562,1678268017622,,,680850143084137,4.7495017
Fix,GPS,-33.9188807600,151.2278365000,53.21405029296875,1.44,3.7900925,270.4,1678268018000,0.82680106,30.201078,680850520458134,2.5
Fix,FLP,-33.9188788000,151.2278254000,52.0,1.3012826,5.618,254.41095,1678268018125,,,680850645668825,4.7595015
Fix,GPS,-33.9188820400,151.2278200100,52.7493896484375,1.47,3.7900925,275.3,1678268019000,0.84599054,30.193428,680851520458342,2.5
Fix,FLP,-33.9188792000,151.2278193000,52.0,1.3043284,5.787,255.352,1678268018627,,,680851148253043,4.7695017
Fix,FLP,-33.9188796000,151.2278082000,52.0,1.3130856,6.101,257.07684,1678268019632,,,680852153422731,4.7695017
Fix,GPS,-33.9188822800,151.2278038000,52.86669921875,1.42,3.7900925,277.2,1678268020000,0.82680106,30.700296,680852520458863,2.5
Fix,FLP,-33.9188793000,151.2277990000,52.0,1.3201522,6.525,258.80005,1678268020135,,,680852656006793,4.779502
Fix,NLP,-33.9193280000,151.2278300000,,,91.53946,,1678268020815,,,680853335862619,
Fix,GPS,-33.9188806000,151.2277876700,53.017822265625,1.45,3.7900925,281.3,1678268021000,0.83216584,30.13681,680853520458759,2.5
Fix,FLP,-33.9188799000,151.2277870000,52.0,1.3217856,6.927,259.72922,1678268020638,,,680853158592106,4.7895017
Fix,FLP,-33.9188789000,151.2277852000,52.20000076293945,1.3260778,7.047,260.66022,1678268021140,,,680853661176168,5.164551
Fix,FLP,-33.9188787000,151.2277646000,52.20000076293945,1.324945,7.677,262.69022,1678268021642,,,680854163761585,5.164551
Fix,GPS,-33.9188767100,151.2277721100,52.99530029296875,1.47,3.7900925,286.2,1678268022000,0.83216584,29.885164,680854520458968,2.5
Fix,FLP,-33.9188766000,151.2277610000,52.20000076293945,1.3271858,8.002,264.7984,1678268022146,,,680854666345596,5.174551
Fix,GPS,-33.9188719500,151.2277567300,53.07684326171875,1.55,3.7900925,292.9,1678268023000,0.83216584,28.383038,680855520458863,2.5
Fix,FLP,-33.9188755000,151.2277512000,52.20000076293945,1.3284373,8.34,265.99396,1678268022647,,,680855168931221,5.184551
Fix,FLP,-33.9188735000,151.2277442000,52.20000076293945,1.3332164,8.52,267.21985,1678268023150,,,680855671515596,5.184551
Fix,NLP,-33.9193280000,151.2278300000,,,91.53946,,1678268023832,,,680856353443555,
Fix,GPS,-33.9188662500,151.2277421200,52.93316650390625,1.44,3.7900925,294.6,1678268024000,0.83216584,30.412397,680856520458863,2.5
Fix,FLP,-33.9188714000,151.2277369000,52.20000076293945,1.3371596,8.817,268.57355,1678268023653,,,680856174101116,5.194551
Fix,FLP,-33.9188682000,151.2277296000,52.20000076293945,1.3398908,8.804,271.00134,1678268024155,,,680856676686273,5.194551
Fix,GPS,-33.9188612200,151.2277275600,52.87554931640625,1.42,3.7900925,291.8,1678268025000,0.83216584,30.772457,680857520457509,2.5
Fix,FLP,-33.9188665000,151.2277238000,52.20000076293945,1.3404735,8.699,272.2057,1678268024658,,,680857179271221,5.2045507
Fix,FLP,-33.9188644000,151.2277202000,52.20000076293945,1.3411926,8.524,273.39044,1678268025161,,,680857681857158,5.2045507
Fix,FLP,-33.9188621000,151.2277126000,52.20000076293945,1.3425847,8.3,274.50848,1678268025663,,,680858184441377,5.2045507
Fix,GPS,-33.9188560700,151.2277129400,52.88720703125,1.37,3.7900925,289.7,1678268026000,0.83216584,31.57071,680858520458864,2.5
Fix,FLP,-33.9188594000,151.2277085000,52.20000076293945,1.3422208,7.865,276.48367,1678268026166,,,680858687027314,6.435428
Fix,FLP,-33.9188553000,151.2276920000,52.20000076293945,1.3334274,7.632,277.6734,1678268026668,,,680859189612731,6.435428
Fix,NLP,-33.9193280000,151.2278300000,,,91.53946,,1678268026846,,,680859367219596,
Fix,GPS,-33.9188512000,151.2276982200,52.96923828125,1.41,3.7900925,288.8,1678268027000,0.83216584,30.996494,680859520458550,2.5
Fix,FLP,-33.9188523000,151.2276891000,52.20000076293945,1.3267028,6.883,279.75812,1678268027171,,,680859692197366,6.4454284
Fix,FLP,-33.9188500000,151.2276831000,52.20000076293945,1.3271528,6.761,280.7545,1678268027673,,,680860194783304,6.4454284
Fix,GPS,-33.9188457500,151.2276834900,52.70257568359375,1.42,3.7900925,292.5,1678268028000,0.83216584,30.720842,680860520458707,2.5
Fix,FLP,-33.9188460000,151.2276761000,52.20000076293945,1.3281567,6.116,282.55026,1678268028177,,,680860697367314,6.455428
Fix,FLP,-33.9188430000,151.2276706000,52.20000076293945,1.3308064,5.774,283.38147,1678268028679,,,680861199953252,6.455428
Fix,GPS,-33.9188396000,151.2276686700,52.55419921875,1.46,3.7900925,293.8,1678268029000,0.83216584,30.013418,680861520458967,2.5
Fix,FLP,-33.9188388000,151.2276628000,52.20000076293945,1.3359724,5.306,284.9171,1678268029181,,,680861702537054,6.4654284
Fix,NLP,-33.9193280000,151.2278300000,,,91.53946,,1678268029852,,,680862373420011,
Fix,GPS,-33.9188339700,151.2276539000,52.49200439453125,1.45,3.7900925,292.1,1678268030000,0.83216584,30.063778,680862520458811,2.5
Fix,FLP,-33.9188361000,151.2276581000,52.20000076293945,1.3406519,5.179,285.72098,1678268029685,,,680862205122991,6.475428
Fix,FLP,-33.9188301000,151.2276469000,52.20000076293945,1.3492467,5.079,287.32782,1678268030690,,,680863210291793,6.475428
