# 
# Header Description:
# 
# Version: v3.0.5.6 Platform: 12 Manufacturer: Xiaomi Model: 22041216C
# 
# Raw,utcTimeMillis,TimeNanos,LeapSecond,TimeUncertaintyNanos,FullBiasNanos,BiasNanos,BiasUncertaintyNanos,DriftNanosPerSecond,DriftUncertaintyNanosPerSecond,HardwareClockDiscontinuityCount,Svid,TimeOffsetNanos,State,ReceivedSvTimeNanos,ReceivedSvTimeUncertaintyNanos,Cn0DbHz,PseudorangeRateMetersPerSecond,PseudorangeRateUncertaintyMetersPerSecond,AccumulatedDeltaRangeState,AccumulatedDeltaRangeMeters,AccumulatedDeltaRangeUncertaintyMeters,CarrierFrequencyHz,CarrierCycles,CarrierPhase,CarrierPhaseUncertainty,MultipathIndicator,SnrInDb,ConstellationType,AgcDb,BasebandCn0DbHz,FullInterSignalBiasNanos,FullInterSignalBiasUncertaintyNanos,SatelliteInterSignalBiasNanos,SatelliteInterSignalBiasUncertaintyNanos,CodeType,ChipsetElapsedRealtimeNanos
# 
# UncalAccel,utcTimeMillis,elapsedRealtimeNanos,UncalAccelXMps2,UncalAccelYMps2,UncalAccelZMps2,BiasXMps2,BiasYMps2,BiasZMps2
# 
# Accel,utcTimeMillis,elapsedRealtimeNanos,AccelXMps2,AccelYMps2,AccelZMps2
# 
# UncalGyro,utcTimeMillis,elapsedRealtimeNanos,UncalGyroXRadPerSec,UncalGyroYRadPerSec,UncalGyroZRadPerSec,DriftXRadPerSec,DriftYRadPerSec,DriftZRadPerSec
# 
# Gyro,utcTimeMillis,elapsedRealtimeNanos,GyroXRadPerSec,GyroYRadPerSec,GyroZRadPerSec
# 
# UncalMag,utcTimeMillis,elapsedRealtimeNanos,UncalMagXMicroT,UncalMagYMicroT,UncalMagZMicroT,BiasXMicroT,BiasYMicroT,BiasZMicroT
# 
# Mag,utcTimeMillis,elapsedRealtimeNanos,MagXMicroT,MagYMicroT,MagZMicroT
# 
# OrientationDeg,utcTimeMillis,elapsedRealtimeNanos,yawDeg,rollDeg,pitchDeg
# 
# Fix,Provider,LatitudeDegrees,LongitudeDegrees,AltitudeMeters,SpeedMps,AccuracyMeters,BearingDegrees,UnixTimeMillis,SpeedAccuracyMps,BearingAccuracyDegrees,elapsedRealtimeNanos,VerticalAccuracyMeters
# 
# Nav,Svid,Type,Status,MessageId,Sub-messageId,Data(Bytes)
# 
# Status,UnixTimeMillis,SignalCount,SignalIndex,ConstellationType,Svid,CarrierFrequencyHz,Cn0DbHz,AzimuthDegrees,ElevationDegrees,UsedInFix,HasAlmanacData,HasEphemerisData,BasebandCn0DbHz
# 
Fix,FLP,-33.9180397000,151.2283231000,52.20000076293945,0.17835785,5.39,0.00009853143,1678265631959,,,40755776397523,2.0868
Fix,NLP,-33.9178760000,151.2283660000,,,40.0,,1678265633021,,,40756837799308,
Status,0,63,0,1,9,1575420030,39.20,200.0,69.0,1,0,0,39.2
Status,0,63,1,1,4,1575420030,33.10,89.0,63.0,1,0,0,33.1
Status,0,63,2,1,7,1575420030,28.20,247.0,53.0,1,0,0,28.2
Status,0,63,3,1,16,1575420030,37.50,131.0,39.0,1,0,0,37.5
Status,0,63,4,1,3,1575420030,18.30,2.0,23.0,1,0,0,18.3
Status,0,63,5,1,27,1575420030,28.00,89.0,22.0,1,0,0,28.0
Status,0,63,6,1,8,1575420030,38.50,54.0,21.0,1,0,0,38.5
Status,0,63,7,1,30,1575420030,30.30,273.0,19.0,1,0,0,30.3
Status,0,63,8,1,20,1575420030,31.30,218.0,7.0,1,0,0,31.3
Status,0,63,9,1,26,1575420030,17.70,138.0,4.0,0,0,0,17.7
Status,0,63,10,1,14,1575420030,0.00,328.0,2.0,0,0,0,0.0
Status,0,63,11,1,6,1575420030,0.00,280.0,1.0,0,0,0,0.0
Status,0,63,12,2,129,1575420030,0.00,0.0,0.0,0,0,0,0.0
Status,0,63,13,2,130,1575420030,0.00,0.0,0.0,0,0,0,0.0
Status,0,63,14,2,134,1575420030,0.00,0.0,0.0,0,0,0,0.0
Status,0,63,15,3,4,1602000000,33.40,65.0,80.0,1,0,0,33.4
Status,0,63,16,3,15,1602000000,29.90,289.0,58.0,1,0,0,29.9
Status,0,63,17,3,14,1602000000,39.90,163.0,56.0,1,0,0,39.9
Status,0,63,18,3,5,1602000000,37.00,209.0,42.0,1,0,0,37.0
Status,0,63,19,3,3,1602000000,29.90,36.0,28.0,1,0,0,29.9
Status,0,63,20,3,16,1602000000,14.80,312.0,9.0,1,0,0,14.8
Status,0,63,21,3,13,1602000000,0.00,141.0,3.0,0,0,0,0.0
Status,0,63,22,6,24,1575420030,36.10,61.0,80.0,1,0,0,36.1
Status,0,63,23,6,5,1575420030,33.90,206.0,67.0,1,0,0,33.9
Status,0,63,24,6,9,1575420030,39.20,69.0,52.0,1,0,0,39.2
Status,0,63,25,6,31,1575420030,34.00,136.0,35.0,1,0,0,34.0
Status,0,63,26,6,25,1575420030,27.40,330.0,33.0,1,0,0,27.4
Status,0,63,27,6,3,1575420030,25.30,229.0,16.0,1,0,0,25.3
Status,0,63,28,6,4,1575420030,0.00,56.0,4.0,0,0,0,0.0
Status,0,63,29,5,26,1561097980,39.20,267.0,68.0,1,0,0,39.2
Status,0,63,30,5,21,1561097980,36.40,5.0,67.0,1,0,0,36.4
Status,0,63,31,5,42,1561097980,29.60,232.0,52.0,1,0,0,29.6
Status,0,63,32,5,1,1561097980,32.90,348.0,50.0,1,0,0,32.9
Status,0,63,33,5,59,1561097980,33.30,340.0,50.0,1,0,0,33.3
Status,0,63,34,5,4,1561097980,33.30,15.0,49.0,1,0,0,33.3
Status,0,63,35,5,39,1561097980,30.70,229.0,48.0,1,0,0,30.7
Status,0,63,36,5,45,1561097980,35.20,139.0,46.0,1,0,0,35.2
Status,0,63,37,5,16,1561097980,26.80,240.0,40.0,1,0,0,26.8
Status,0,63,38,5,6,1561097980,26.20,243.0,38.0,1,0,0,26.2
Status,0,63,39,5,8,1561097980,24.10,298.0,35.0,1,0,0,24.1
Status,0,63,40,5,13,1561097980,25.60,285.0,34.0,1,0,0,25.6
Status,0,63,41,5,3,1561097980,23.00,303.0,32.0,1,0,0,23.0
Status,0,63,42,5,61,1561097980,0.00,303.0,30.0,0,0,0,0.0
Status,0,63,43,5,38,1561097980,26.40,314.0,29.0,1,0,0,26.4
Status,0,63,44,5,14,1561097980,25.10,223.0,27.0,1,0,0,25.1
Status,0,63,45,5,9,1561097980,28.20,253.0,24.0,1,0,0,28.2
Status,0,63,46,5,24,1561097980,26.70,297.0,23.0,1,0,0,26.7
Status,0,63,47,5,22,1561097980,17.10,30.0,17.0,1,0,0,17.1
Status,0,63,48,5,2,1561097980,0.00,282.0,11.0,0,0,0,0.0
Status,0,63,49,5,50,1561097980,0.00,334.0,8.0,0,0,0,0.0
Status,0,63,50,5,60,1561097980,0.00,281.0,7.0,0,0,0,0.0
Status,0,63,51,5,29,1561097980,14.60,91.0,2.0,0,0,0,14.6
Status,0,63,52,5,33,1561097980,0.00,218.0,2.0,0,0,0,0.0
Status,0,63,53,5,40,1561097980,0.00,349.0,2.0,0,0,0,0.0
Status,0,63,54,5,7,1561097980,0.00,337.0,1.0,0,0,0,0.0
Status,0,63,55,5,26,1575420030,36.50,267.0,68.0,1,0,0,36.5
Status,0,63,56,5,21,1575420030,37.40,5.0,67.0,1,0,0,37.4
Status,0,63,57,5,45,1575420030,31.60,139.0,46.0,1,0,0,31.6
Status,0,63,58,5,38,1575420030,27.10,314.0,29.0,1,0,0,27.1
Status,0,63,59,4,196,1575420030,34.00,346.0,60.0,0,0,0,34.0
Status,0,63,60,4,199,1575420030,33.00,321.0,43.0,0,0,0,33.0
Status,0,63,61,4,194,1575420030,31.00,335.0,41.0,1,0,0,31.0
Status,0,63,62,4,195,1575420030,0.00,350.0,7.0,0,0,0,0.0
Nav,10,769,1,5,11,60,-30,14,50,-34,-104,35,94,56,8,11
Nav,14,769,1,5,11,60,-30,14,50,-34,-104,35,94,56,8,11
Raw,1678265633000,443423000000,18,24.101126903029368,-1362300407577999872,0.0,24.101126903029368,-1219.102763937061,0.0,0,30,0.0,16431,291250921700463,74,30.3439998626709,-829.9128913155884,0.14999,21,-42665.51343262882,0.0006249999860301614,1575420030,,,,0,11.948697465199736,1,6.0,30.3439998626709,0.0,0.0,0.0,66.7128,C,
Raw,1678265633000,443423000000,18,24.101126903029368,-1362300407577999872,0.0,24.101126903029368,-1219.102763937061,0.0,0,7,0.0,16431,291250931852998,235,28.229999542236328,-581.9662287950101,0.14999,20,-30019.115912658322,0.0008999999845400453,1575420030,,,,0,9.343881829733025,1,6.0,28.229999542236328,0.0,0.0,0.0,66.7128,C,
Raw,1678265633000,443423000000,18,24.101126903029368,-1362300407577999872,0.0,24.101126903029368,-1219.102763937061,0.0,0,4,0.0,16431,291250931589080,58,33.0620002746582,-187.43477285462103,0.14999,25,-10038.160888122255,0.00039999998989515007,1575420030,,,,0,15.161293772710211,1,6.0,33.0620002746582,0.0,0.0,0.0,66.7128,C,
Raw,1678265633000,443423000000,18,24.101126903029368,-1362300407577999872,0.0,24.101126903029368,-1219.102763937061,0.0,0,196,0.0,16431,291250882688218,58,34.0,-5.065384348643096,0.14999,21,-786.6750560170567,0.00039999998989515007,1575420030,,,,0,16.028771890185467,4,6.0,34.0,0.0,,0.0,,C,
Raw,1678265633000,443423000000,18,24.101126903029368,-1362300407577999872,0.0,24.101126903029368,-1219.102763937061,0.0,0,194,0.0,16431,291250874196568,74,31.0,-771.7228423019811,0.14999,17,-39658.93245977261,0.0006249999860301614,1575420030,,,,0,12.4016619092247,4,6.0,31.0,0.0,,0.0,,C,
Raw,1678265633000,443423000000,18,24.101126903029368,-1362300407577999872,0.0,24.101126903029368,-1219.102763937061,0.0,0,1,0.0,16905,291236878019938,58,32.90599822998047,-357.3483581542969,0.14999,16,-18673.87554727954,0.00039999998989515007,1561097980,,,,0,15.601853367541135,5,6.0,32.90599822998047,0.0,0.0,21.755458545077666,66.7128,I,
Raw,1678265633000,443423000000,18,24.101126903029368,-1362300407577999872,0.0,24.101126903029368,-1219.102763937061,0.0,0,199,0.0,16431,291250875588590,58,33.0,-364.1663396366177,0.14999,17,-18992.82735730668,0.00039999998989515007,1575420030,,,,0,14.740077201073733,4,6.0,33.0,0.0,,0.0,,C,
Raw,1678265633000,443423000000,18,24.101126903029368,-1362300407577999872,0.0,24.101126903029368,-1219.102763937061,0.0,0,59,0.0,16905,291236877161587,58,33.3380012512207,-362.0880126953125,0.14999,16,-18908.205329028126,0.00039999998989515007,1561097980,,,,0,15.601853367541135,5,6.0,33.3380012512207,0.0,0.0,21.755458545077666,66.7128,I,
Raw,1678265633000,443423000000,18,24.101126903029368,-1362300407577999872,0.0,24.101126903029368,-1219.102763937061,0.0,0,13,0.0,16905,291236873135744,316,25.600000381469727,-27.057430267333984,0.14999,17,-1904.7190258042474,0.002025000052526593,1561097980,,,,0,6.8016293001460735,5,6.0,25.600000381469727,0.0,0.0,21.755458545077666,66.7128,I,
Raw,1678265633000,443423000000,18,24.101126903029368,-1362300407577999872,0.0,24.101126903029368,-1219.102763937061,0.0,0,9,0.0,16905,291236872523539,235,28.15999984741211,-428.7523498535156,0.14999,20,-22107.193382407706,0.0008999999845400453,1561097980,,,,0,8.946495581632163,5,6.0,28.15999984741211,0.0,0.0,21.755458545077666,66.7128,I,
Raw,1678265633000,443423000000,18,24.101126903029368,-1362300407577999872,0.0,24.101126903029368,-1219.102763937061,0.0,0,38,0.0,16905,291236871661331,316,26.350000381469727,14.538177490234375,0.14999,20,-5943.457383973925,0.002025000052526593,1561097980,,,,0,6.363960416019902,5,6.0,26.350000381469727,0.0,0.0,21.755458545077666,66.7128,I,
Raw,1678265633000,443423000000,18,24.101126903029368,-1362300407577999872,0.0,24.101126903029368,-1219.102763937061,0.0,0,22,0.0,16905,291236915502826,797,17.100000381469727,265.4912109375,0.14999,16,-15037.216975639161,0.02250000089406967,1561097980,,,,0,0.0,5,6.0,17.100000381469727,0.0,0.0,21.755458545077666,66.7128,I,
Raw,1678265633000,443423000000,18,24.101126903029368,-1362300407577999872,0.0,24.101126903029368,-1219.102763937061,0.0,0,42,0.0,16905,291236924805838,74,29.600000381469727,-676.5897216796875,0.14999,20,-29594.97934640565,0.0006249999860301614,1561097980,,,,0,11.548847616038154,5,6.0,29.600000381469727,0.0,0.0,21.755458545077666,66.7128,I,
Raw,1678265633000,443423000000,18,24.101126903029368,-1362300407577999872,0.0,24.101126903029368,-1219.102763937061,0.0,0,14,0.0,17,185951,42,40.0,61.08083367893678,0.14999,17,2563.1949644539095,0.00022499999613501132,1598062460,,,,0,22.599360936088452,3,6.0,40.0,0.0,0.0,65.62418692878563,66.7128,C,
Raw,1678265633000,443423000000,18,24.101126903029368,-1362300407577999872,0.0,24.101126903029368,-1219.102763937061,0.0,0,5,0.0,32995,42832931699706,51,37.0,-953.1609254928678,0.14999,17,-48569.655009342336,0.00022499999613501132,1602562560,,,,0,19.52972596471365,3,6.0,37.0,0.0,0.0,65.62418692878563,66.7128,C,
Raw,1678265633000,443423000000,18,24.101126903029368,-1362300407577999872,0.0,24.101126903029368,-1219.102763937061,0.0,0,3,0.0,17,663449,74,30.0,309.192943183966,0.14999,21,14412.36048270205,0.0006249999860301614,1604812540,,,,0,11.873979674236555,3,6.0,30.0,0.0,0.0,65.62418692878563,66.7128,C,
Raw,1678265633000,443423000000,18,24.101126903029368,-1362300407577999872,0.0,24.101126903029368,-1219.102763937061,0.0,0,4,0.0,17,7600,58,39.900001525878906,-273.9071774549727,0.14999,17,-14628.012336910426,0.00039999998989515007,1605374980,,,,0,15.738776630711978,3,6.0,39.900001525878906,0.0,0.0,65.62418692878563,66.7128,C,
Raw,1678265633000,443423000000,18,24.101126903029368,-1362300407577999872,0.0,24.101126903029368,-1219.102763937061,0.0,0,15,0.0,17,704639,74,30.0,-615.2653535253254,0.14999,21,-31761.728863832126,0.0006249999860301614,1602000000,,,,0,11.884693076320117,3,6.0,30.0,0.0,0.0,65.62418692878563,66.7128,C,
Raw,1678265633000,443423000000,18,24.101126903029368,-1362300407577999872,0.0,24.101126903029368,-1219.102763937061,0.0,0,16,0.0,17,843151,797,17.0,-1026.7373224442665,0.14999,17,-51952.76436514359,0.02250000089406967,1601437440,,,,0,0.0,3,6.0,17.0,0.0,0.0,65.62418692878563,66.7128,C,
Raw,1678265633000,443423000000,18,24.101126903029368,-1362300407577999872,0.0,24.101126903029368,-1219.102763937061,0.0,0,3,0.0,16431,291250922644852,797,18.347999572753906,321.9749431213525,0.14999,16,15675.711467679414,0.02250000089406967,1575420030,,,,0,0.0,1,6.0,18.347999572753906,0.0,0.0,0.0,66.7128,C,
Raw,1678265633000,443423000000,18,24.101126903029368,-1362300407577999872,0.0,24.101126903029368,-1219.102763937061,0.0,0,9,0.0,16431,291250932006322,42,39.17399978637695,-586.5970643476279,0.14999,17,-30105.56475791615,0.00022499999613501132,1575420030,,,,0,21.914613308428095,1,6.0,39.17399978637695,0.0,0.0,0.0,66.7128,C,
Raw,1678265633000,443423000000,18,24.101126903029368,-1362300407577999872,0.0,24.101126903029368,-1219.102763937061,0.0,0,8,0.0,16431,291250921548252,51,38.47200012207031,-825.9215558621086,0.14999,25,-41948.3947958473,0.00022499999613501132,1575420030,,,,0,19.639288390922545,1,6.0,38.47200012207031,0.0,0.0,0.0,66.7128,C,
Raw,1678265633000,443423000000,18,24.101126903029368,-1362300407577999872,0.0,24.101126903029368,-1219.102763937061,0.0,0,27,0.0,16431,291250921556942,396,28.006999969482422,-597.4813420974328,0.14999,17,-21114.203657477872,0.004900000058114529,1575420030,,,,0,9.063255994614396,1,6.0,28.006999969482422,0.0,0.0,0.0,66.7128,C,
Raw,1678265633000,443423000000,18,24.101126903029368,-1362300407577999872,0.0,24.101126903029368,-1219.102763937061,0.0,0,5,0.0,16431,291250921892618,58,33.900001525878906,-575.5519475609021,0.14999,25,-27241.677723869583,0.00039999998989515007,1575420030,,,,0,16.25826713285711,6,6.0,33.900001525878906,0.0,0.0,4.0650178743123835,66.7128,C,
Raw,1678265633000,443423000000,18,24.101126903029368,-1362300407577999872,0.0,24.101126903029368,-1219.102763937061,0.0,0,39,0.0,16905,291236877026764,74,30.700000762939453,-411.4704895019531,0.14999,21,-20635.230320586757,0.0006249999860301614,1561097980,,,,0,12.725658722999045,5,6.0,30.700000762939453,0.0,0.0,21.755458545077666,66.7128,I,
Raw,1678265633000,443423000000,18,24.101126903029368,-1362300407577999872,0.0,24.101126903029368,-1219.102763937061,0.0,0,25,0.0,16431,291250914945916,235,27.399999618530273,-849.1554098089988,0.14999,28,-42040.68951232785,0.0008999999845400453,1575420030,,,,0,8.932638651435242,6,6.0,27.399999618530273,0.0,0.0,4.0650178743123835,66.7128,C,
Raw,1678265633000,443423000000,18,24.101126903029368,-1362300407577999872,0.0,24.101126903029368,-1219.102763937061,0.0,0,45,0.0,16905,291236924130554,51,35.22999954223633,26.270965576171875,0.14999,21,478.59224244248514,0.00022499999613501132,1561097980,,,,0,18.309244929606894,5,6.0,35.22999954223633,0.0,0.0,21.755458545077666,66.7128,I,
Raw,1678265633000,443423000000,18,24.101126903029368,-1362300407577999872,0.0,24.101126903029368,-1219.102763937061,0.0,0,16,0.0,16905,291236875820195,316,26.799999237060547,-412.9482421875,0.14999,20,-21372.876815939955,0.002025000052526593,1561097980,,,,0,8.324575887686947,5,6.0,26.799999237060547,0.0,0.0,21.755458545077666,66.7128,I,
Raw,1678265633000,443423000000,18,24.101126903029368,-1362300407577999872,0.0,24.101126903029368,-1219.102763937061,0.0,0,3,0.0,16905,291236873111983,235,22.979999542236328,-354.7083740234375,0.14999,16,-18670.812380280513,0.0008999999845400453,1561097980,,,,0,5.466249654825273,5,6.0,22.979999542236328,0.0,0.0,21.755458545077666,66.7128,I,
Raw,1678265633000,443423000000,18,24.101126903029368,-1362300407577999872,0.0,24.101126903029368,-1219.102763937061,0.0,0,6,0.0,16905,291236874353813,235,26.18899917602539,-408.4356994628906,0.14999,20,-21098.156666079936,0.0008999999845400453,1561097980,,,,0,9.209226829632787,5,6.0,26.18899917602539,0.0,0.0,21.755458545077666,66.7128,I,
Raw,1678265633000,443423000000,18,24.101126903029368,-1362300407577999872,0.0,24.101126903029368,-1219.102763937061,0.0,0,3,0.0,16431,291250909308690,316,25.299999237060547,-836.4928897203193,0.14999,29,-39043.56633478092,0.002025000052526593,1575420030,,,,0,6.486346795792219,6,6.0,25.299999237060547,0.0,0.0,4.0650178743123835,66.7128,C,
Raw,1678265633000,443423000000,18,24.101126903029368,-1362300407577999872,0.0,24.101126903029368,-1219.102763937061,0.0,0,9,0.0,16431,291250918982620,42,39.20000076293945,-126.3824556620947,0.14999,25,-7651.447817233777,0.00022499999613501132,1575420030,,,,0,21.879112347680056,6,6.0,39.20000076293945,0.0,0.0,4.0650178743123835,66.7128,C,
Raw,1678265633000,443423000000,18,24.101126903029368,-1362300407577999872,0.0,24.101126903029368,-1219.102763937061,0.0,0,26,0.0,16905,291236927652165,42,39.20000076293945,-472.67327880859375,0.14999,17,-24420.196677357126,0.00022499999613501132,1561097980,,,,0,21.893253771054063,5,6.0,39.20000076293945,0.0,0.0,21.755458545077666,66.7128,I,
Raw,1678265633000,443423000000,18,24.101126903029368,-1362300407577999872,0.0,24.101126903029368,-1219.102763937061,0.0,0,26,0.0,16905,291236927652166,51,39.20000076293945,-472.64019085153893,0.14999,16,-20012.182768391845,0.00022499999613501132,1575420030,,,,0,19.076667531904306,5,6.0,39.20000076293945,0.0,0.0,21.755458545077666,66.7128,C,
Raw,1678265633000,443423000000,18,24.101126903029368,-1362300407577999872,0.0,24.101126903029368,-1219.102763937061,0.0,0,16,0.0,16431,291250925461825,51,37.52299880981445,52.53852205684387,0.14999,17,2025.0530793061268,0.00022499999613501132,1575420030,,,,0,20.131496214943347,1,6.0,37.52299880981445,0.0,0.0,0.0,66.7128,C,
Raw,1678265633000,443423000000,18,24.101126903029368,-1362300407577999872,0.0,24.101126903029368,-1219.102763937061,0.0,0,20,0.0,16431,291250917949471,74,31.268999099731445,-830.9849657280628,0.14999,21,-42147.129115005024,0.0006249999860301614,1575420030,,,,0,13.064250275506875,1,6.0,31.268999099731445,0.0,0.0,0.0,66.7128,C,
Raw,1678265633000,443423000000,18,24.101126903029368,-1362300407577999872,0.0,24.101126903029368,-1219.102763937061,0.0,0,26,0.0,47,291250916483112,797,17.672000885009766,264.91564549989357,0.14999,20,10996.458968820767,0.02250000089406967,1575420030,,,,0,0.0,1,6.0,17.672000885009766,0.0,0.0,0.0,66.7128,C,
Raw,1678265633000,443423000000,18,24.101126903029368,-1362300407577999872,0.0,24.101126903029368,-1219.102763937061,0.0,0,21,0.0,47,291236926793706,51,36.400001525878906,-82.37818205866998,0.14999,16,-11493.036360689288,0.00022499999613501132,1575420030,,,,0,19.948320096188077,5,6.0,36.400001525878906,0.0,0.0,21.755458545077666,66.7128,C,
Raw,1678265633000,443423000000,18,24.101126903029368,-1362300407577999872,0.0,24.101126903029368,-1219.102763937061,0.0,0,4,0.0,16905,291236876539571,74,33.275001525878906,-360.38629150390625,0.14999,16,-18865.12431583314,0.0006249999860301614,1561097980,,,,0,12.980831726647144,5,6.0,33.275001525878906,0.0,0.0,21.755458545077666,66.7128,I,
Raw,1678265633000,443423000000,18,24.101126903029368,-1362300407577999872,0.0,24.101126903029368,-1219.102763937061,0.0,0,14,0.0,16905,291236919928122,235,25.06100082397461,-887.8441162109375,0.14999,17,-45124.45957492332,0.0008999999845400453,1561097980,,,,0,8.106963930397905,5,6.0,25.06100082397461,0.0,0.0,21.755458545077666,66.7128,I,
Raw,1678265633000,443423000000,18,24.101126903029368,-1362300407577999872,0.0,24.101126903029368,-1219.102763937061,0.0,0,21,0.0,16905,291236926793697,51,36.400001525878906,-82.38902282714844,0.14999,21,-4930.701508331281,0.00022499999613501132,1561097980,,,,0,18.94361309903676,5,6.0,36.400001525878906,0.0,0.0,21.755458545077666,66.7128,I,
Raw,1678265633000,443423000000,18,24.101126903029368,-1362300407577999872,0.0,24.101126903029368,-1219.102763937061,0.0,0,8,0.0,16905,291236873583258,487,24.117000579833984,2.736234426498413,0.14999,16,-485.8088568320319,0.009999999776482582,1561097980,,,,0,3.6454698261274783,5,6.0,24.117000579833984,0.0,0.0,21.755458545077666,66.7128,I,
Raw,1678265633000,443423000000,18,24.101126903029368,-1362300407577999872,0.0,24.101126903029368,-1219.102763937061,0.0,0,31,0.0,16431,291250915348356,58,34.0,48.6948779084974,0.14999,29,-1332.0653199678204,0.00039999998989515007,1575420030,,,,0,16.381951793671274,6,6.0,34.0,0.0,0.0,4.0650178743123835,66.7128,C,
Raw,1678265633000,443423000000,18,24.101126903029368,-1362300407577999872,0.0,24.101126903029368,-1219.102763937061,0.0,0,24,0.0,16431,291250921915080,51,36.099998474121094,-398.0201694034911,0.14999,25,-20419.215095265357,0.00022499999613501132,1575420030,,,,0,18.657382965697515,6,6.0,36.099998474121094,0.0,0.0,4.0650178743123835,66.7128,C,
Raw,1678265633000,443423000000,18,24.101126903029368,-1362300407577999872,0.0,24.101126903029368,-1219.102763937061,0.0,0,24,0.0,16905,291236917929478,235,26.700000762939453,-819.3994140625,0.14999,21,-35116.909359550504,0.0008999999845400453,1561097980,,,,0,8.180108696443952,5,6.0,26.700000762939453,0.0,0.0,21.755458545077666,66.7128,I,
Raw,1678265633000,443423000000,18,24.101126903029368,-1362300407577999872,0.0,24.101126903029368,-1219.102763937061,0.0,0,29,0.0,16905,291236911178996,797,14.600000381469727,-708.5820922851562,0.14999,16,-21572.31583899649,0.02250000089406967,1561097980,,,,0,0.0,5,6.0,14.600000381469727,0.0,0.0,21.755458545077666,66.7128,I,
Raw,1678265633000,443423000000,18,24.101126903029368,-1362300407577999872,0.0,24.101126903029368,-1219.102763937061,0.0,0,45,0.0,16905,291236924130560,74,35.22999954223633,26.264057685806353,0.14999,16,-16366.788052713113,0.0006249999860301614,1575420030,,,,0,13.740597701836963,5,6.0,35.22999954223633,0.0,0.0,21.755458545077666,66.7128,C,
Raw,1678265633000,443423000000,18,24.101126903029368,-1362300407577999872,0.0,24.101126903029368,-1219.102763937061,0.0,0,38,0.0,16905,291236871661328,235,26.350000381469727,14.400134542577925,0.14999,20,-16023.991359192616,0.0008999999845400453,1575420030,,,,0,8.583545098232522,5,6.0,26.350000381469727,0.0,0.0,21.755458545077666,66.7128,C,
Fix,GPS,-33.9180150000,151.2283400000,52.9,0.0,1.3,1.24,1678265633000,0.5,31.1,40756801000000,9.5
Fix,FLP,-33.9180404000,151.2283239000,52.20000076293945,0.1581787,5.475,0.005007247,1678265633026,,,40756843903168,2.0968
Fix,FLP,-33.9180402000,151.2283247000,52.20000076293945,0.14908242,5.561,0.026629386,1678265633560,,,40757377655985,2.0968
Status,1678265633000,63,0,1,9,1575420030,38.90,200.0,69.0,1,0,0,38.9
Status,1678265633000,63,1,1,4,1575420030,34.50,89.0,63.0,1,0,0,34.5
Status,1678265633000,63,2,1,7,1575420030,34.30,247.0,53.0,1,0,0,34.3
Status,1678265633000,63,3,1,16,1575420030,40.10,131.0,39.0,1,0,0,40.1
Status,1678265633000,63,4,1,3,1575420030,18.30,2.0,23.0,1,0,0,18.3
Status,1678265633000,63,5,1,27,1575420030,24.90,89.0,22.0,1,0,0,24.9
Status,1678265633000,63,6,1,8,1575420030,38.40,54.0,21.0,1,0,0,38.4
Status,1678265633000,63,7,1,30,1575420030,30.20,273.0,19.0,1,0,0,30.2
Status,1678265633000,63,8,1,20,1575420030,28.40,218.0,7.0,1,0,0,28.4
Status,1678265633000,63,9,1,26,1575420030,17.70,138.0,4.0,0,0,0,17.7
Status,1678265633000,63,10,1,14,1575420030,0.00,328.0,2.0,0,0,0,0.0
Status,1678265633000,63,11,1,6,1575420030,0.00,280.0,1.0,0,0,0,0.0
Status,1678265633000,63,12,2,129,1575420030,0.00,0.0,0.0,0,0,0,0.0
Status,1678265633000,63,13,2,130,1575420030,0.00,0.0,0.0,0,0,0,0.0
Status,1678265633000,63,14,2,134,1575420030,0.00,0.0,0.0,0,0,0,0.0
Status,1678265633000,63,15,3,4,1602000000,32.80,65.0,80.0,1,0,0,32.8
Status,1678265633000,63,16,3,15,1602000000,36.10,289.0,58.0,1,0,0,36.1
Status,1678265633000,63,17,3,14,1602000000,36.70,163.0,56.0,1,0,0,36.7
Status,1678265633000,63,18,3,5,1602000000,32.90,209.0,42.0,1,0,0,32.9
Status,1678265633000,63,19,3,3,1602000000,37.60,36.0,28.0,1,0,0,37.6
Status,1678265633000,63,20,3,16,1602000000,23.40,312.0,9.0,1,0,0,23.4
Status,1678265633000,63,21,3,13,1602000000,0.00,141.0,3.0,0,0,0,0.0
Status,1678265633000,63,22,6,24,1575420030,34.60,61.0,80.0,1,0,0,34.6
Status,1678265633000,63,23,6,5,1575420030,37.70,206.0,67.0,1,0,0,37.7
Status,1678265633000,63,24,6,9,1575420030,36.30,69.0,52.0,1,0,0,36.3
Status,1678265633000,63,25,6,31,1575420030,28.00,136.0,35.0,1,0,0,28.0
Status,1678265633000,63,26,6,25,1575420030,38.40,330.0,33.0,1,0,0,38.4
Status,1678265633000,63,27,6,3,1575420030,22.60,229.0,16.0,1,0,0,22.6
Status,1678265633000,63,28,6,4,1575420030,0.00,56.0,4.0,0,0,0,0.0
Status,1678265633000,63,29,5,26,1561097980,39.10,267.0,68.0,1,0,0,39.1
Status,1678265633000,63,30,5,21,1561097980,36.40,5.0,67.0,1,0,0,36.4
Status,1678265633000,63,31,5,42,1561097980,37.20,232.0,52.0,1,0,0,37.2
Status,1678265633000,63,32,5,1,1561097980,33.00,348.0,50.0,1,0,0,33.0
Status,1678265633000,63,33,5,59,1561097980,30.50,340.0,50.0,1,0,0,30.5
Status,1678265633000,63,34,5,4,1561097980,33.20,15.0,49.0,1,0,0,33.2
Status,1678265633000,63,35,5,39,1561097980,30.70,229.0,48.0,1,0,0,30.7
Status,1678265633000,63,36,5,45,1561097980,35.20,139.0,46.0,1,0,0,35.2
Status,1678265633000,63,37,5,16,1561097980,30.80,240.0,40.0,1,0,0,30.8
Status,1678265633000,63,38,5,6,1561097980,30.00,243.0,38.0,1,0,0,30.0
Status,1678265633000,63,39,5,8,1561097980,30.40,298.0,35.0,1,0,0,30.4
Status,1678265633000,63,40,5,13,1561097980,35.10,285.0,34.0,1,0,0,35.1
Status,1678265633000,63,41,5,3,1561097980,30.60,303.0,32.0,1,0,0,30.6
Status,1678265633000,63,42,5,61,1561097980,0.00,303.0,30.0,0,0,0,0.0
Status,1678265633000,63,43,5,38,1561097980,41.20,314.0,29.0,1,0,0,41.2
Status,1678265633000,63,44,5,14,1561097980,25.20,223.0,27.0,1,0,0,25.2
Status,1678265633000,63,45,5,9,1561097980,25.40,253.0,24.0,1,0,0,25.4
Status,1678265633000,63,46,5,24,1561097980,35.00,297.0,23.0,1,0,0,35.0
Status,1678265633000,63,47,5,22,1561097980,17.10,30.0,17.0,1,0,0,17.1
Status,1678265633000,63,48,5,2,1561097980,0.00,282.0,11.0,0,0,0,0.0
Status,1678265633000,63,49,5,50,1561097980,0.00,334.0,8.0,0,0,0,0.0
Status,1678265633000,63,50,5,60,1561097980,0.00,281.0,7.0,0,0,0,0.0
Status,1678265633000,63,51,5,29,1561097980,14.60,91.0,2.0,0,0,0,14.6
Status,1678265633000,63,52,5,33,1561097980,0.00,218.0,2.0,0,0,0,0.0
Status,1678265633000,63,53,5,40,1561097980,0.00,349.0,2.0,0,0,0,0.0
Status,1678265633000,63,54,5,7,1561097980,0.00,337.0,1.0,0,0,0,0.0
Status,1678265633000,63,55,5,26,1575420030,32.40,267.0,68.0,1,0,0,32.4
Status,1678265633000,63,56,5,21,1575420030,37.30,5.0,67.0,1,0,0,37.3
Status,1678265633000,63,57,5,45,1575420030,28.10,139.0,46.0,1,0,0,28.1
Status,1678265633000,63,58,5,38,1575420030,40.90,314.0,29.0,1,0,0,40.9
Status,1678265633000,63,59,4,196,1575420030,35.00,346.0,60.0,0,0,0,35.0
Status,1678265633000,63,60,4,199,1575420030,29.00,321.0,43.0,0,0,0,29.0
Status,1678265633000,63,61,4,194,1575420030,33.00,335.0,41.0,1,0,0,33.0
Status,1678265633000,63,62,4,195,1575420030,0.00,350.0,7.0,0,0,0,0.0
Fix,GPS,-33.9180316667,151.2283466667,53.400000000000006,0.28567085,1.4,177.39,1678265634000,0.7,15.8,40757801000000,9.5
Nav,3,769,1,3,12,75,-106,-121,-127,14,12,-119,47,-82,-127,12
Raw,1678265634000,444423000000,18,23.975700306125372,-1362300407577999872,0.0,23.975700306125372,-1218.019695231529,0.0,0,30,0.0,16431,291251921703226,74,30.229999542236328,-829.8395799348082,0.14999,17,-43495.60084829797,0.0006249999860301614,1575420030,,,,0,11.817516487508975,1,6.0,30.229999542236328,0.0,0.0,0.0,66.7128,C,
Raw,1678265634000,444423000000,18,23.975700306125372,-1362300407577999872,0.0,23.975700306125372,-1218.019695231529,0.0,0,7,0.0,16431,291251931854938,58,34.32600021362305,-582.2807058143393,0.14999,17,-30601.556485195902,0.00039999998989515007,1575420030,,,,0,16.59152628179974,1,6.0,34.32600021362305,0.0,0.0,0.0,66.7128,C,
Raw,1678265634000,444423000000,18,23.975700306125372,-1362300407577999872,0.0,23.975700306125372,-1218.019695231529,0.0,0,4,0.0,16431,291251931589703,58,34.500999450683594,-186.72208913534732,0.14999,21,-10225.236784639319,0.00039999998989515007,1575420030,,,,0,16.796163028954716,1,6.0,34.500999450683594,0.0,0.0,0.0,66.7128,C,
Raw,1678265634000,444423000000,18,23.975700306125372,-1362300407577999872,0.0,23.975700306125372,-1218.019695231529,0.0,0,196,0.0,16431,291251882688236,58,35.0,-4.638408274460144,0.14999,17,-791.6834885641418,0.00039999998989515007,1575420030,,,,0,17.77177540456347,4,6.0,35.0,0.0,,0.0,,C,
Raw,1678265634000,444423000000,18,23.975700306125372,-1362300407577999872,0.0,23.975700306125372,-1218.019695231529,0.0,0,194,0.0,16431,291251874199140,58,33.0,-771.2799077618299,0.14999,21,-40430.639541466306,0.00039999998989515007,1575420030,,,,0,15.377024546113628,4,6.0,33.0,0.0,,0.0,,C,
Raw,1678265634000,444423000000,18,23.975700306125372,-1362300407577999872,0.0,23.975700306125372,-1218.019695231529,0.0,0,1,0.0,16905,291237878021132,58,32.970001220703125,-357.82769775390625,0.14999,16,-19031.523061717577,0.00039999998989515007,1561097980,,,,0,16.624042847103308,5,6.0,32.970001220703125,0.0,0.0,21.51659705893173,66.7128,I,
Raw,1678265634000,444423000000,18,23.975700306125372,-1362300407577999872,0.0,23.975700306125372,-1218.019695231529,0.0,0,199,0.0,16431,291251875589805,235,29.0,-363.99753298131674,0.14999,21,-19357.141937447886,0.0008999999845400453,1575420030,,,,0,10.689987156089593,4,6.0,29.0,0.0,,0.0,,C,
Raw,1678265634000,444423000000,18,23.975700306125372,-1362300407577999872,0.0,23.975700306125372,-1218.019695231529,0.0,0,59,0.0,16905,291237877162798,51,30.5,-361.91229248046875,0.14999,16,-19270.999021809846,0.00022499999613501132,1561097980,,,,0,12.573270785595206,5,6.0,30.5,0.0,0.0,21.51659705893173,66.7128,I,
Raw,1678265634000,444423000000,18,23.975700306125372,-1362300407577999872,0.0,23.975700306125372,-1218.019695231529,0.0,0,13,0.0,16905,291237873135833,58,35.099998474121094,-26.902406692504883,0.14999,17,-1931.8871900495785,0.00039999998989515007,1561097980,,,,0,17.538503821357164,5,6.0,35.099998474121094,0.0,0.0,21.51659705893173,66.7128,I,
Raw,1678265634000,444423000000,18,23.975700306125372,-1362300407577999872,0.0,23.975700306125372,-1218.019695231529,0.0,0,9,0.0,16905,291237872524965,316,25.399999618530273,-427.49639892578125,0.14999,16,-22535.199230108126,0.002025000052526593,1561097980,,,,0,6.629199029376638,5,6.0,25.399999618530273,0.0,0.0,21.51659705893173,66.7128,I,
Raw,1678265634000,444423000000,18,23.975700306125372,-1362300407577999872,0.0,23.975700306125372,-1218.019695231529,0.0,0,38,0.0,16905,291237871661285,42,41.20000076293945,14.56391716003418,0.14999,17,-5929.2719585997465,0.00022499999613501132,1561097980,,,,0,23.950057484410383,5,6.0,41.20000076293945,0.0,0.0,21.51659705893173,66.7128,I,
Raw,1678265634000,444423000000,18,23.975700306125372,-1362300407577999872,0.0,23.975700306125372,-1218.019695231529,0.0,0,22,0.0,16905,291237915501940,396,17.100000381469727,266.44427490234375,0.14999,16,-14771.58430034988,0.004900000058114529,1561097980,,,,0,0.0,5,6.0,17.100000381469727,0.0,0.0,21.51659705893173,66.7128,I,
Raw,1678265634000,444423000000,18,23.975700306125372,-1362300407577999872,0.0,23.975700306125372,-1218.019695231529,0.0,0,42,0.0,16905,291237924808091,51,37.20000076293945,-676.2533569335938,0.14999,17,-30271.57112712303,0.00022499999613501132,1561097980,,,,0,19.796839661802363,5,6.0,37.20000076293945,0.0,0.0,21.51659705893173,66.7128,I,
Raw,1678265634000,444423000000,18,23.975700306125372,-1362300407577999872,0.0,23.975700306125372,-1218.019695231529,0.0,0,14,0.0,17,185745,51,37.0,61.25945430263515,0.14999,21,2624.1851220001163,0.00022499999613501132,1598062460,,,,0,19.287685481430902,3,6.0,37.0,0.0,0.0,65.05838269198944,66.7128,C,
Raw,1678265634000,444423000000,18,23.975700306125372,-1362300407577999872,0.0,23.975700306125372,-1218.019695231529,0.0,0,5,0.0,32995,42833931702890,58,33.0,-953.0972593480625,0.14999,21,-49523.04007409271,0.00039999998989515007,1602562560,,,,0,15.142172952881323,3,6.0,33.0,0.0,0.0,65.05838269198944,66.7128,C,
Raw,1678265634000,444423000000,18,23.975700306125372,-1362300407577999872,0.0,23.975700306125372,-1218.019695231529,0.0,0,3,0.0,17,662424,51,38.0,309.90619918804157,0.14999,17,14721.776848172793,0.00022499999613501132,1604812540,,,,0,20.153220001935615,3,6.0,38.0,0.0,0.0,65.05838269198944,66.7128,C,
Raw,1678265634000,444423000000,18,23.975700306125372,-1362300407577999872,0.0,23.975700306125372,-1218.019695231529,0.0,0,4,0.0,17,8519,58,36.70000076293945,-273.3023144976033,0.14999,17,-14901.7101299221,0.00039999998989515007,1605374980,,,,0,15.042419142490822,3,6.0,36.70000076293945,0.0,0.0,65.05838269198944,66.7128,C,
Raw,1678265634000,444423000000,18,23.975700306125372,-1362300407577999872,0.0,23.975700306125372,-1218.019695231529,0.0,0,15,0.0,17,706692,51,36.0,-614.9703944487732,0.14999,17,-32377.122574186746,0.00022499999613501132,1602000000,,,,0,18.628100639786272,3,6.0,36.0,0.0,0.0,65.05838269198944,66.7128,C,
Raw,1678265634000,444423000000,18,23.975700306125372,-1362300407577999872,0.0,23.975700306125372,-1218.019695231529,0.0,0,16,0.0,17,846618,316,24.0,-1025.705699951478,0.14999,21,-52978.96194803381,0.002025000052526593,1601437440,,,,0,4.069148865440952,3,6.0,24.0,0.0,0.0,65.05838269198944,66.7128,C,
Raw,1678265634000,444423000000,18,23.975700306125372,-1362300407577999872,0.0,23.975700306125372,-1218.019695231529,0.0,0,3,0.0,16431,291251922643778,797,18.347999572753906,322.51562616921075,0.14999,16,15997.632120828359,0.02250000089406967,1575420030,,,,0,0.0,1,6.0,18.347999572753906,0.0,0.0,0.0,66.7128,C,
Raw,1678265634000,444423000000,18,23.975700306125372,-1362300407577999872,0.0,23.975700306125372,-1218.019695231529,0.0,0,9,0.0,16431,291251932008277,42,38.88999938964844,-586.1532935559849,0.14999,17,-30691.995768679048,0.00022499999613501132,1575420030,,,,0,21.61424141242689,1,6.0,38.88999938964844,0.0,0.0,0.0,66.7128,C,
Raw,1678265634000,444423000000,18,23.975700306125372,-1362300407577999872,0.0,23.975700306125372,-1218.019695231529,0.0,0,8,0.0,16431,291251921551005,51,38.40700149536133,-825.0590089067438,0.14999,25,-42773.753345801975,0.00022499999613501132,1575420030,,,,0,19.753628211902846,1,6.0,38.40700149536133,0.0,0.0,0.0,66.7128,C,
Raw,1678265634000,444423000000,18,23.975700306125372,-1362300407577999872,0.0,23.975700306125372,-1218.019695231529,0.0,0,27,0.0,16431,291251921558938,396,24.913999557495117,-597.3174368050421,0.14999,21,-21712.553676547373,0.004900000058114529,1575420030,,,,0,4.881766763015848,1,6.0,24.913999557495117,0.0,0.0,0.0,66.7128,C,
Raw,1678265634000,444423000000,18,23.975700306125372,-1362300407577999872,0.0,23.975700306125372,-1218.019695231529,0.0,0,5,0.0,16431,291251921894538,51,37.70000076293945,-575.4036522963581,0.14999,29,-27817.111275469837,0.00022499999613501132,1575420030,,,,0,20.325081627888515,6,6.0,37.70000076293945,0.0,0.0,4.075937359246697,66.7128,C,
Raw,1678265634000,444423000000,18,23.975700306125372,-1362300407577999872,0.0,23.975700306125372,-1218.019695231529,0.0,0,39,0.0,16905,291237877028140,74,30.65999984741211,-412.30999755859375,0.14999,17,-21047.849092079974,0.0006249999860301614,1561097980,,,,0,11.816501247061549,5,6.0,30.65999984741211,0.0,0.0,21.51659705893173,66.7128,I,
Raw,1678265634000,444423000000,18,23.975700306125372,-1362300407577999872,0.0,23.975700306125372,-1218.019695231529,0.0,0,25,0.0,16431,291251914948751,42,38.400001525878906,-848.7720349584295,0.14999,25,-42889.971373644235,0.00022499999613501132,1575420030,,,,0,21.065476445488095,6,6.0,38.400001525878906,0.0,0.0,4.075937359246697,66.7128,C,
Raw,1678265634000,444423000000,18,23.975700306125372,-1362300407577999872,0.0,23.975700306125372,-1218.019695231529,0.0,0,45,0.0,16905,291237924130466,58,35.17300033569336,26.708633422851562,0.14999,17,505.0000747072566,0.00039999998989515007,1561097980,,,,0,16.443080267555363,5,6.0,35.17300033569336,0.0,0.0,21.51659705893173,66.7128,I,
Raw,1678265634000,444423000000,18,23.975700306125372,-1362300407577999872,0.0,23.975700306125372,-1218.019695231529,0.0,0,16,0.0,16905,291237875821574,74,30.799999237060547,-413.29486083984375,0.14999,17,-21786.61536554859,0.0006249999860301614,1561097980,,,,0,12.89660425803049,5,6.0,30.799999237060547,0.0,0.0,21.51659705893173,66.7128,I,
Raw,1678265634000,444423000000,18,23.975700306125372,-1362300407577999872,0.0,23.975700306125372,-1218.019695231529,0.0,0,3,0.0,16905,291237873113170,235,30.600000381469727,-355.5999450683594,0.14999,16,-19026.3669408997,0.0008999999845400453,1561097980,,,,0,12.660676701921503,5,6.0,30.600000381469727,0.0,0.0,21.51659705893173,66.7128,I,
Raw,1678265634000,444423000000,18,23.975700306125372,-1362300407577999872,0.0,23.975700306125372,-1218.019695231529,0.0,0,6,0.0,16905,291237874355176,74,30.0,-408.1527404785156,0.14999,17,-21506.58989329142,0.0006249999860301614,1561097980,,,,0,12.006105275228238,5,6.0,30.0,0.0,0.0,21.51659705893173,66.7128,I,
Raw,1678265634000,444423000000,18,23.975700306125372,-1362300407577999872,0.0,23.975700306125372,-1218.019695231529,0.0,0,3,0.0,16431,291251909311482,396,22.600000381469727,-836.2133029715643,0.14999,28,-39880.51483388747,0.004900000058114529,1575420030,,,,0,2.9645216146785947,6,6.0,22.600000381469727,0.0,0.0,4.075937359246697,66.7128,C,
Raw,1678265634000,444423000000,18,23.975700306125372,-1362300407577999872,0.0,23.975700306125372,-1218.019695231529,0.0,0,9,0.0,16431,291251918983043,51,36.29999923706055,-126.01552709086387,0.14999,29,-7777.775498832573,0.00022499999613501132,1575420030,,,,0,18.852770629035966,6,6.0,36.29999923706055,0.0,0.0,4.075937359246697,66.7128,C,
Raw,1678265634000,444423000000,18,23.975700306125372,-1362300407577999872,0.0,23.975700306125372,-1218.019695231529,0.0,0,26,0.0,16905,291237927653742,51,39.095001220703125,-472.63037109375,0.14999,21,-24893.059173890455,0.00022499999613501132,1561097980,,,,0,19.671652832622303,5,6.0,39.095001220703125,0.0,0.0,21.51659705893173,66.7128,I,
Raw,1678265634000,444423000000,18,23.975700306125372,-1362300407577999872,0.0,23.975700306125372,-1218.019695231529,0.0,0,26,0.0,16905,291237927653745,58,39.095001220703125,-472.7100643095196,0.14999,16,-20430.303047121244,0.00039999998989515007,1575420030,,,,0,14.658773428300737,5,6.0,39.095001220703125,0.0,0.0,21.51659705893173,66.7128,C,
Raw,1678265634000,444423000000,18,23.975700306125372,-1362300407577999872,0.0,23.975700306125372,-1218.019695231529,0.0,0,16,0.0,16431,291251925461651,42,40.106998443603516,52.94837820465324,0.14999,17,2077.639104684132,0.00022499999613501132,1575420030,,,,0,22.912038738155616,1,6.0,40.106998443603516,0.0,0.0,0.0,66.7128,C,
Raw,1678265634000,444423000000,18,23.975700306125372,-1362300407577999872,0.0,23.975700306125372,-1218.019695231529,0.0,0,20,0.0,16431,291251917952245,235,28.427000045776367,-830.9112826799528,0.14999,20,-42978.87501483066,0.0008999999845400453,1575420030,,,,0,9.591359813334995,1,6.0,28.427000045776367,0.0,0.0,0.0,66.7128,C,
Raw,1678265634000,444423000000,18,23.975700306125372,-1362300407577999872,0.0,23.975700306125372,-1218.019695231529,0.0,0,26,0.0,47,291251916482228,797,17.672000885009766,265.490568400499,0.14999,16,11261.368243300923,0.02250000089406967,1575420030,,,,0,0.0,1,6.0,17.672000885009766,0.0,0.0,0.0,66.7128,C,
Raw,1678265634000,444423000000,18,23.975700306125372,-1362300407577999872,0.0,23.975700306125372,-1218.019695231529,0.0,0,21,0.0,47,291237926793980,51,36.404998779296875,-82.01520245281705,0.14999,16,-11715.869232764082,0.00022499999613501132,1575420030,,,,0,18.708778912332384,5,6.0,36.404998779296875,0.0,0.0,21.51659705893173,66.7128,C,
Raw,1678265634000,444423000000,18,23.975700306125372,-1362300407577999872,0.0,23.975700306125372,-1218.019695231529,0.0,0,4,0.0,16905,291237876540782,74,33.17100143432617,-363.0334167480469,0.14999,16,-19228.010922252266,0.0006249999860301614,1561097980,,,,0,13.37012306516588,5,6.0,33.17100143432617,0.0,0.0,21.51659705893173,66.7128,I,
Raw,1678265634000,444423000000,18,23.975700306125372,-1362300407577999872,0.0,23.975700306125372,-1218.019695231529,0.0,0,14,0.0,16905,291237919931085,235,25.16699981689453,-888.4491577148438,0.14999,17,-46013.12513600587,0.0008999999845400453,1561097980,,,,0,8.812088417878,5,6.0,25.16699981689453,0.0,0.0,21.51659705893173,66.7128,I,
Raw,1678265634000,444423000000,18,23.975700306125372,-1362300407577999872,0.0,23.975700306125372,-1218.019695231529,0.0,0,21,0.0,16905,291237926793972,51,36.404998779296875,-81.98241424560547,0.14999,17,-5012.995054098376,0.00022499999613501132,1561097980,,,,0,19.04845311220178,5,6.0,36.404998779296875,0.0,0.0,21.51659705893173,66.7128,I,
Raw,1678265634000,444423000000,18,23.975700306125372,-1362300407577999872,0.0,23.975700306125372,-1218.019695231529,0.0,0,8,0.0,16905,291237873583249,74,30.399999618530273,3.3893141746520996,0.14999,17,-482.792610050709,0.0006249999860301614,1561097980,,,,0,12.48497635680054,5,6.0,30.399999618530273,0.0,0.0,21.51659705893173,66.7128,I,
Raw,1678265634000,444423000000,18,23.975700306125372,-1362300407577999872,0.0,23.975700306125372,-1218.019695231529,0.0,0,31,0.0,16431,291251915348195,316,28.0,48.85232548103492,0.14999,28,-1283.130516689171,0.002025000052526593,1575420030,,,,0,9.71250389199065,6,6.0,28.0,0.0,0.0,4.075937359246697,66.7128,C,
Raw,1678265634000,444423000000,18,23.975700306125372,-1362300407577999872,0.0,23.975700306125372,-1218.019695231529,0.0,0,24,0.0,16431,291251921916407,58,34.599998474121094,-397.5975371912238,0.14999,29,-20817.153123694752,0.00039999998989515007,1575420030,,,,0,17.00648540265782,6,6.0,34.599998474121094,0.0,0.0,4.075937359246697,66.7128,C,
Raw,1678265634000,444423000000,18,23.975700306125372,-1362300407577999872,0.0,23.975700306125372,-1218.019695231529,0.0,0,24,0.0,16905,291237917932209,58,35.0,-818.375,0.14999,17,-35935.761501181,0.00039999998989515007,1561097980,,,,0,17.43873658365102,5,6.0,35.0,0.0,0.0,21.51659705893173,66.7128,I,
Raw,1678265634000,444423000000,18,23.975700306125372,-1362300407577999872,0.0,23.975700306125372,-1218.019695231529,0.0,0,29,0.0,16905,291237911181359,797,14.600000381469727,-708.4553833007812,0.14999,16,-22280.704258752936,0.02250000089406967,1561097980,,,,0,0.0,5,6.0,14.600000381469727,0.0,0.0,21.51659705893173,66.7128,I,
Raw,1678265634000,444423000000,18,23.975700306125372,-1362300407577999872,0.0,23.975700306125372,-1218.019695231529,0.0,0,45,0.0,16905,291237924130469,235,35.17300033569336,26.161825940935064,0.14999,17,-16535.353902837694,0.0008999999845400453,1575420030,,,,0,9.808217143006987,5,6.0,35.17300033569336,0.0,0.0,21.51659705893173,66.7128,C,
Raw,1678265634000,444423000000,18,23.975700306125372,-1362300407577999872,0.0,23.975700306125372,-1218.019695231529,0.0,0,38,0.0,16905,291237871661287,42,41.20000076293945,14.567361611727756,0.14999,16,-16198.588429295045,0.00022499999613501132,1575420030,,,,0,23.595124262841733,5,6.0,41.20000076293945,0.0,0.0,21.51659705893173,66.7128,C,
Nav,4,769,1,3,12,75,-106,-121,-127,14,12,-119,47,-82,-127,12
Nav,7,769,1,3,12,75,-106,-121,-127,14,12,-119,47,-82,-127,12
Nav,8,769,1,3,12,75,-106,-121,-127,14,12,-119,47,-82,-127,12
Nav,1,1282,1,119,5,56,-112,84,120,6,-119,-36,-12,32,2,-1,-103,48,1,-65,76,60,-1,-48,39,0,127,115,38,63,127,-1,-81,0,0,0,0,0,0,0,0,0,0,0,0
Nav,4,1282,1,10,1,56,-112,20,113,6,-106,-112,-81,0,78,-86,-115,42,-86,-86,-76,42,-86,-86,-76,42,-86,-86,-76,42,-86,-86,-76,42,-86,-86,-76,42,-86,-86,-76,42,-86,-86,-76
Nav,9,1537,1,13,8,8,69,85,85,85,80,64,12,4,2,-10,-97,101,6,100,-2,11,-115,20,116,95,-6,-86,-86,-108,-90,-85,-1,-48
Nav,24,1537,1,13,8,8,69,85,85,85,80,64,12,4,2,-10,-97,101,6,100,-2,4,-102,88,-46,-81,-6,-86,-86,-108,9,-127,15,-48
Nav,25,1537,1,13,8,8,69,85,85,85,80,64,12,4,2,-10,-97,101,6,100,-2,11,-122,-123,104,-33,-6,-86,-86,-109,-16,-43,-65,-48
Nav,31,1537,1,13,8,8,69,85,85,85,80,64,12,4,2,-10,-97,101,6,100,-2,9,41,-91,101,-113,-6,-86,-86,-103,-58,18,-33,-48
Fix,FLP,-33.9180406000,151.2283262000,52.20000076293945,0.11974671,5.604,2.6568222,1678265634095,,,40757911408692,2.1068
Fix,FLP,-33.9180411000,151.2283273000,52.20000076293945,0.0982577,5.656,,1678265634628,,,40758445161230,2.1068
Status,1678265634000,63,0,1,9,1575420030,32.00,200.0,69.0,1,0,0,32.0
Status,1678265634000,63,1,1,4,1575420030,32.70,89.0,63.0,1,0,0,32.7
Status,1678265634000,63,2,1,7,1575420030,31.50,247.0,53.0,1,0,0,31.5
Status,1678265634000,63,3,1,16,1575420030,37.60,131.0,39.0,1,0,0,37.6
Status,1678265634000,63,4,1,3,1575420030,14.50,2.0,23.0,1,0,0,14.5
Status,1678265634000,63,5,1,27,1575420030,24.90,89.0,22.0,1,0,0,24.9
Status,1678265634000,63,6,1,8,1575420030,38.40,54.0,21.0,1,0,0,38.4
Status,1678265634000,63,7,1,30,1575420030,26.40,273.0,19.0,1,0,0,26.4
Status,1678265634000,63,8,1,20,1575420030,26.70,218.0,7.0,1,0,0,26.7
Status,1678265634000,63,9,1,26,1575420030,17.70,138.0,4.0,0,0,0,17.7
Status,1678265634000,63,10,1,14,1575420030,0.00,328.0,2.0,0,0,0,0.0
Status,1678265634000,63,11,1,6,1575420030,0.00,280.0,1.0,0,0,0,0.0
Status,1678265634000,63,12,2,129,1575420030,0.00,0.0,0.0,0,0,0,0.0
Status,1678265634000,63,13,2,130,1575420030,0.00,0.0,0.0,0,0,0,0.0
Status,1678265634000,63,14,2,134,1575420030,0.00,0.0,0.0,0,0,0,0.0
Status,1678265634000,63,15,3,4,1602000000,28.90,65.0,80.0,1,0,0,28.9
Status,1678265634000,63,16,3,15,1602000000,29.30,289.0,58.0,1,0,0,29.3
Status,1678265634000,63,17,3,14,1602000000,36.10,163.0,56.0,1,0,0,36.1
Status,1678265634000,63,18,3,5,1602000000,29.00,209.0,42.0,1,0,0,29.0
Status,1678265634000,63,19,3,3,1602000000,32.60,36.0,28.0,1,0,0,32.6
Status,1678265634000,63,20,3,16,1602000000,23.40,312.0,9.0,1,0,0,23.4
Status,1678265634000,63,21,3,13,1602000000,0.00,141.0,3.0,0,0,0,0.0
Status,1678265634000,63,22,6,24,1575420030,29.40,61.0,80.0,1,0,0,29.4
Status,1678265634000,63,23,6,5,1575420030,29.00,206.0,67.0,1,0,0,29.0
Status,1678265634000,63,24,6,9,1575420030,40.70,69.0,52.0,1,0,0,40.7
Status,1678265634000,63,25,6,31,1575420030,27.90,136.0,35.0,1,0,0,27.9
Status,1678265634000,63,26,6,25,1575420030,32.00,330.0,33.0,1,0,0,32.0
Status,1678265634000,63,27,6,3,1575420030,29.70,229.0,16.0,1,0,0,29.7
Status,1678265634000,63,28,6,4,1575420030,0.00,56.0,4.0,0,0,0,0.0
Status,1678265634000,63,29,5,26,1561097980,33.40,267.0,68.0,1,0,0,33.4
Status,1678265634000,63,30,5,21,1561097980,32.90,5.0,67.0,1,0,0,32.9
Status,1678265634000,63,31,5,42,1561097980,37.20,232.0,52.0,1,0,0,37.2
Status,1678265634000,63,32,5,1,1561097980,29.10,348.0,50.0,1,0,0,29.1
Status,1678265634000,63,33,5,59,1561097980,25.50,340.0,50.0,1,0,0,25.5
Status,1678265634000,63,34,5,4,1561097980,26.90,15.0,49.0,1,0,0,26.9
Status,1678265634000,63,35,5,39,1561097980,26.90,229.0,48.0,1,0,0,26.9
Status,1678265634000,63,36,5,45,1561097980,35.10,139.0,46.0,1,0,0,35.1
Status,1678265634000,63,37,5,16,1561097980,25.80,240.0,40.0,1,0,0,25.8
Status,1678265634000,63,38,5,6,1561097980,22.90,243.0,38.0,1,0,0,22.9
Status,1678265634000,63,39,5,8,1561097980,25.80,298.0,35.0,1,0,0,25.8
Status,1678265634000,63,40,5,13,1561097980,26.50,285.0,34.0,1,0,0,26.5
Status,1678265634000,63,41,5,3,1561097980,23.60,303.0,32.0,1,0,0,23.6
Status,1678265634000,63,42,5,61,1561097980,0.00,303.0,30.0,0,0,0,0.0
Status,1678265634000,63,43,5,38,1561097980,37.70,314.0,29.0,1,0,0,37.7
Status,1678265634000,63,44,5,14,1561097980,25.20,223.0,27.0,1,0,0,25.2
Status,1678265634000,63,45,5,9,1561097980,30.00,253.0,24.0,1,0,0,30.0
Status,1678265634000,63,46,5,24,1561097980,31.10,297.0,23.0,1,0,0,31.1
Status,1678265634000,63,47,5,22,1561097980,17.20,30.0,17.0,1,0,0,17.2
Status,1678265634000,63,48,5,2,1561097980,0.00,282.0,11.0,0,0,0,0.0
Status,1678265634000,63,49,5,50,1561097980,0.00,334.0,8.0,0,0,0,0.0
Status,1678265634000,63,50,5,60,1561097980,0.00,281.0,7.0,0,0,0,0.0
Status,1678265634000,63,51,5,29,1561097980,14.50,91.0,2.0,0,0,0,14.5
Status,1678265634000,63,52,5,33,1561097980,0.00,218.0,2.0,0,0,0,0.0
Status,1678265634000,63,53,5,40,1561097980,0.00,349.0,2.0,0,0,0,0.0
Status,1678265634000,63,54,5,7,1561097980,0.00,337.0,1.0,0,0,0,0.0
Status,1678265634000,63,55,5,26,1575420030,33.60,267.0,68.0,1,0,0,33.6
Status,1678265634000,63,56,5,21,1575420030,34.00,5.0,67.0,1,0,0,34.0
Status,1678265634000,63,57,5,45,1575420030,32.90,139.0,46.0,1,0,0,32.9
Status,1678265634000,63,58,5,38,1575420030,34.20,314.0,29.0,1,0,0,34.2
Status,1678265634000,63,59,4,196,1575420030,32.00,346.0,60.0,0,0,0,32.0
Status,1678265634000,63,60,4,199,1575420030,26.00,321.0,43.0,0,0,0,26.0
Status,1678265634000,63,61,4,194,1575420030,26.00,335.0,41.0,1,0,0,26.0
Status,1678265634000,63,62,4,195,1575420030,0.00,350.0,7.0,0,0,0,0.0
Fix,GPS,-33.9180433333,151.2283433333,53.5,0.44111696,1.5,179.02,1678265635000,0.9,17.4,40758801000000,9.6
Nav,8,257,1,-1,2,9,-117,3,48,51,94,-49,43,40,9,-10,-11,59,48,-112,-119,24,117,85,-36,0,-8,68,4,18,76,-31,109,52,20,26,-95,14,13,86,65,3,72,17,31
Raw,1678265635000,445423000000,18,24.140342099482034,-1362300407577999872,0.0,24.140342099482034,-1217.9640805922684,0.0,0,30,0.0,16431,291252921705997,316,26.40399932861328,-829.970406834857,0.14999,21,-44325.7939610801,0.002025000052526593,1575420030,,,,0,6.961474823672649,1,6.0,26.40399932861328,0.0,0.0,0.0,66.7128,C,
Raw,1678265635000,445423000000,18,24.140342099482034,-1362300407577999872,0.0,24.140342099482034,-1217.9640805922684,0.0,0,7,0.0,16431,291252931856882,74,31.5310001373291,-581.6926816403625,0.14999,21,-31183.601953445283,0.0006249999860301614,1575420030,,,,0,13.36961364376237,1,6.0,31.5310001373291,0.0,0.0,0.0,66.7128,C,
Raw,1678265635000,445423000000,18,24.140342099482034,-1362300407577999872,0.0,24.140342099482034,-1217.9640805922684,0.0,0,4,0.0,16431,291252931590329,74,32.6510009765625,-186.43017929169244,0.14999,21,-10412.00189018264,0.0006249999860301614,1575420030,,,,0,14.685959333555235,1,6.0,32.6510009765625,0.0,0.0,0.0,66.7128,C,
Raw,1678265635000,445423000000,18,24.140342099482034,-1362300407577999872,0.0,24.140342099482034,-1217.9640805922684,0.0,0,196,0.0,16431,291252882688255,74,32.0,-4.398636388397556,0.14999,21,-796.4268684482449,0.0006249999860301614,1575420030,,,,0,14.50771067049182,4,6.0,32.0,0.0,,0.0,,C,
Raw,1678265635000,445423000000,18,24.140342099482034,-1362300407577999872,0.0,24.140342099482034,-1217.9640805922684,0.0,0,194,0.0,16431,291252874201714,316,26.0,-772.034810566835,0.14999,21,-41202.28105712893,0.002025000052526593,1575420030,,,,0,9.973218651515444,4,6.0,26.0,0.0,,0.0,,C,
Raw,1678265635000,445423000000,18,24.140342099482034,-1362300407577999872,0.0,24.140342099482034,-1217.9640805922684,0.0,0,1,0.0,16905,291238878022323,235,29.100000381469727,-355.2989501953125,0.14999,16,-19388.586295222744,0.0008999999845400453,1561097980,,,,0,11.015198506294617,5,6.0,29.100000381469727,0.0,0.0,21.569065414980503,66.7128,I,
Raw,1678265635000,445423000000,18,24.140342099482034,-1362300407577999872,0.0,24.140342099482034,-1217.9640805922684,0.0,0,199,0.0,16431,291252875591018,316,26.0,-363.7231495751773,0.14999,20,-19721.14171376965,0.002025000052526593,1575420030,,,,0,6.961474823672649,4,6.0,26.0,0.0,,0.0,,C,
Raw,1678265635000,445423000000,18,24.140342099482034,-1362300407577999872,0.0,24.140342099482034,-1217.9640805922684,0.0,0,59,0.0,16905,291238877164001,235,25.5,-360.2623291015625,0.14999,16,-19631.43762420851,0.0008999999845400453,1561097980,,,,0,6.744843366368518,5,6.0,25.5,0.0,0.0,21.569065414980503,66.7128,I,
Raw,1678265635000,445423000000,18,24.140342099482034,-1362300407577999872,0.0,24.140342099482034,-1217.9640805922684,0.0,0,13,0.0,16905,291238873135923,235,26.5,-26.937429428100586,0.14999,20,-1958.8759163769387,0.0008999999845400453,1561097980,,,,0,7.920953099886655,5,6.0,26.5,0.0,0.0,21.569065414980503,66.7128,I,
Raw,1678265635000,445423000000,18,24.140342099482034,-1362300407577999872,0.0,24.140342099482034,-1217.9640805922684,0.0,0,9,0.0,16905,291238872526393,235,30.0,-427.95623779296875,0.14999,17,-22963.17003286385,0.0008999999845400453,1561097980,,,,0,11.946271126070014,5,6.0,30.0,0.0,0.0,21.569065414980503,66.7128,I,
Raw,1678265635000,445423000000,18,24.140342099482034,-1362300407577999872,0.0,24.140342099482034,-1217.9640805922684,0.0,0,38,0.0,16905,291238871661238,51,37.70000076293945,14.960912704467773,0.14999,17,-5914.864998760513,0.00022499999613501132,1561097980,,,,0,20.251243033154363,5,6.0,37.70000076293945,0.0,0.0,21.569065414980503,66.7128,I,
Raw,1678265635000,445423000000,18,24.140342099482034,-1362300407577999872,0.0,24.140342099482034,-1217.9640805922684,0.0,0,22,0.0,16905,291238915501084,487,17.18000030517578,266.36895751953125,0.14999,17,-14505.457764088289,0.009999999776482582,1561097980,,,,0,0.0,5,6.0,17.18000030517578,0.0,0.0,21.569065414980503,66.7128,I,
Raw,1678265635000,445423000000,18,24.140342099482034,-1362300407577999872,0.0,24.140342099482034,-1217.9640805922684,0.0,0,42,0.0,16905,291238924810345,51,37.18000030517578,-676.4124145507812,0.14999,21,-30948.062458821456,0.00022499999613501132,1561097980,,,,0,19.373718746631962,5,6.0,37.18000030517578,0.0,0.0,21.569065414980503,66.7128,I,
Raw,1678265635000,445423000000,18,24.140342099482034,-1362300407577999872,0.0,24.140342099482034,-1217.9640805922684,0.0,0,14,0.0,17,185540,51,36.0,61.27223254725357,0.14999,17,2685.424768898625,0.00022499999613501132,1598062460,,,,0,18.658567903407896,3,6.0,36.0,0.0,0.0,64.58249791595944,66.7128,C,
Raw,1678265635000,445423000000,18,24.140342099482034,-1362300407577999872,0.0,24.140342099482034,-1217.9640805922684,0.0,0,5,0.0,32995,42834931706073,235,29.0,-952.9879216503123,0.14999,25,-50476.30611150291,0.0008999999845400453,1602562560,,,,0,10.881360887005513,3,6.0,29.0,0.0,0.0,64.58249791595944,66.7128,C,
Raw,1678265635000,445423000000,18,24.140342099482034,-1362300407577999872,0.0,24.140342099482034,-1217.9640805922684,0.0,0,3,0.0,17,661391,58,33.0,309.99850880836567,0.14999,17,15031.659894153203,0.00039999998989515007,1604812540,,,,0,14.807253789884879,3,6.0,33.0,0.0,0.0,64.58249791595944,66.7128,C,
Raw,1678265635000,445423000000,18,24.140342099482034,-1362300407577999872,0.0,24.140342099482034,-1217.9640805922684,0.0,0,4,0.0,17,9425,235,36.099998474121094,-273.18999973952083,0.14999,21,-15174.997999290295,0.0008999999845400453,1605374980,,,,0,10.692015195426844,3,6.0,36.099998474121094,0.0,0.0,64.58249791595944,66.7128,C,
Raw,1678265635000,445423000000,18,24.140342099482034,-1362300407577999872,0.0,24.140342099482034,-1217.9640805922684,0.0,0,15,0.0,17,708747,235,29.0,-614.9581501748395,0.14999,21,-32992.31639691789,0.0008999999845400453,1602000000,,,,0,11.166689486745318,3,6.0,29.0,0.0,0.0,64.58249791595944,66.7128,C,
Raw,1678265635000,445423000000,18,24.140342099482034,-1362300407577999872,0.0,24.140342099482034,-1217.9640805922684,0.0,0,16,0.0,17,850077,487,20.0,-1025.9618231328348,0.14999,21,-54004.74754820597,0.009999999776482582,1601437440,,,,0,5.070069647289188,3,6.0,20.0,0.0,0.0,64.58249791595944,66.7128,C,
Raw,1678265635000,445423000000,18,24.140342099482034,-1362300407577999872,0.0,24.140342099482034,-1217.9640805922684,0.0,0,3,0.0,16431,291252922642684,797,14.5,322.9077816604439,0.14999,17,16320.585929442797,0.02250000089406967,1575420030,,,,0,0.0,1,6.0,14.5,0.0,0.0,0.0,66.7128,C,
Raw,1678265635000,445423000000,18,24.140342099482034,-1362300407577999872,0.0,24.140342099482034,-1217.9640805922684,0.0,0,9,0.0,16431,291252932010234,74,31.95199966430664,-586.1808898552139,0.14999,21,-31278.35545837457,0.0006249999860301614,1575420030,,,,0,13.875730949057774,1,6.0,31.95199966430664,0.0,0.0,0.0,66.7128,C,
Raw,1678265635000,445423000000,18,24.140342099482034,-1362300407577999872,0.0,24.140342099482034,-1217.9640805922684,0.0,0,8,0.0,16431,291252921553756,51,38.39500045776367,-824.9066253015732,0.14999,25,-43598.762764974934,0.00022499999613501132,1575420030,,,,0,20.834542875338048,1,6.0,38.39500045776367,0.0,0.0,0.0,66.7128,C,
Raw,1678265635000,445423000000,18,24.140342099482034,-1362300407577999872,0.0,24.140342099482034,-1217.9640805922684,0.0,0,27,0.0,16431,291252921560932,235,24.913999557495117,-598.6180866252723,0.14999,17,-22310.34680279786,0.0008999999845400453,1575420030,,,,0,4.881766763015848,1,6.0,24.913999557495117,0.0,0.0,0.0,66.7128,C,
Raw,1678265635000,445423000000,18,24.140342099482034,-1362300407577999872,0.0,24.140342099482034,-1217.9640805922684,0.0,0,5,0.0,16431,291252921896460,235,29.0,-575.2349617870976,0.14999,29,-28392.33140712943,0.0008999999845400453,1575420030,,,,0,10.860304174540186,6,6.0,29.0,0.0,0.0,4.101055664252097,66.7128,C,
Raw,1678265635000,445423000000,18,24.140342099482034,-1362300407577999872,0.0,24.140342099482034,-1217.9640805922684,0.0,0,39,0.0,16905,291238877029514,235,26.899999618530273,-412.9941101074219,0.14999,20,-21460.294508937393,0.0008999999845400453,1561097980,,,,0,8.364584304586263,5,6.0,26.899999618530273,0.0,0.0,21.569065414980503,66.7128,I,
Raw,1678265635000,445423000000,18,24.140342099482034,-1362300407577999872,0.0,24.140342099482034,-1217.9640805922684,0.0,0,25,0.0,16431,291252914951585,74,32.0,-848.45351605689,0.14999,29,-43738.9310094092,0.0006249999860301614,1575420030,,,,0,14.226133675382645,6,6.0,32.0,0.0,0.0,4.101055664252097,66.7128,C,
Raw,1678265635000,445423000000,18,24.140342099482034,-1362300407577999872,0.0,24.140342099482034,-1217.9640805922684,0.0,0,45,0.0,16905,291238924130378,58,35.138999938964844,26.599273681640625,0.14999,21,531.4920928811229,0.00039999998989515007,1561097980,,,,0,16.942329066462904,5,6.0,35.138999938964844,0.0,0.0,21.569065414980503,66.7128,I,
Raw,1678265635000,445423000000,18,24.140342099482034,-1362300407577999872,0.0,24.140342099482034,-1217.9640805922684,0.0,0,16,0.0,16905,291238875822955,316,25.799999237060547,-413.7501525878906,0.14999,20,-22200.41038024099,0.002025000052526593,1561097980,,,,0,7.085510152344124,5,6.0,25.799999237060547,0.0,0.0,21.569065414980503,66.7128,I,
Raw,1678265635000,445423000000,18,24.140342099482034,-1362300407577999872,0.0,24.140342099482034,-1217.9640805922684,0.0,0,3,0.0,16905,291238873114370,316,23.600000381469727,-355.5639343261719,0.14999,16,-19383.840860418157,0.002025000052526593,1561097980,,,,0,4.246068634202519,5,6.0,23.600000381469727,0.0,0.0,21.569065414980503,66.7128,I,
Raw,1678265635000,445423000000,18,24.140342099482034,-1362300407577999872,0.0,24.140342099482034,-1217.9640805922684,0.0,0,6,0.0,16905,291238874356539,396,22.899999618530273,-409.23089599609375,0.14999,20,-21915.38283544499,0.004900000058114529,1561097980,,,,0,3.395021620493244,5,6.0,22.899999618530273,0.0,0.0,21.569065414980503,66.7128,I,
Raw,1678265635000,445423000000,18,24.140342099482034,-1362300407577999872,0.0,24.140342099482034,-1217.9640805922684,0.0,0,3,0.0,16431,291252909314273,74,29.700000762939453,-836.8998654463237,0.14999,25,-40717.42755261505,0.0006249999860301614,1575420030,,,,0,11.645890691436701,6,6.0,29.700000762939453,0.0,0.0,4.101055664252097,66.7128,C,
Raw,1678265635000,445423000000,18,24.140342099482034,-1362300407577999872,0.0,24.140342099482034,-1217.9640805922684,0.0,0,9,0.0,16431,291252918983461,42,40.70000076293945,-125.92990422978785,0.14999,29,-7903.743056426915,0.00022499999613501132,1575420030,,,,0,23.39328946580846,6,6.0,40.70000076293945,0.0,0.0,4.101055664252097,66.7128,C,
Raw,1678265635000,445423000000,18,24.140342099482034,-1362300407577999872,0.0,24.140342099482034,-1217.9640805922684,0.0,0,26,0.0,16905,291238927655316,58,33.400001525878906,-472.1424865722656,0.14999,17,-25365.588280926342,0.00039999998989515007,1561097980,,,,0,15.765212409477664,5,6.0,33.400001525878906,0.0,0.0,21.569065414980503,66.7128,I,
Raw,1678265635000,445423000000,18,24.140342099482034,-1362300407577999872,0.0,24.140342099482034,-1217.9640805922684,0.0,0,26,0.0,16905,291238927655320,58,33.400001525878906,-472.1698923042397,0.14999,16,-20848.125772621872,0.00039999998989515007,1575420030,,,,0,15.982136129088998,5,6.0,33.400001525878906,0.0,0.0,21.569065414980503,66.7128,C,
Raw,1678265635000,445423000000,18,24.140342099482034,-1362300407577999872,0.0,24.140342099482034,-1217.9640805922684,0.0,0,16,0.0,16431,291252925461472,51,37.60300064086914,52.85973554652353,0.14999,17,2130.4644825100013,0.00022499999613501132,1575420030,,,,0,20.218067260206496,1,6.0,37.60300064086914,0.0,0.0,0.0,66.7128,C,
Raw,1678265635000,445423000000,18,24.140342099482034,-1362300407577999872,0.0,24.140342099482034,-1217.9640805922684,0.0,0,20,0.0,16431,291252917955023,316,26.73900032043457,-831.5865093011568,0.14999,17,-43810.69639928049,0.002025000052526593,1575420030,,,,0,7.411955235166463,1,6.0,26.73900032043457,0.0,0.0,0.0,66.7128,C,
