# 
# Header Description:
# 
# Version: v3.0.5.6 Platform: 12 Manufacturer: Xiaomi Model: 22041216C
# 
# Raw,utcTimeMillis,TimeNanos,LeapSecond,TimeUncertaintyNanos,FullBiasNanos,BiasNanos,BiasUncertaintyNanos,DriftNanosPerSecond,DriftUncertaintyNanosPerSecond,HardwareClockDiscontinuityCount,Svid,TimeOffsetNanos,State,ReceivedSvTimeNanos,ReceivedSvTimeUncertaintyNanos,Cn0DbHz,PseudorangeRateMetersPerSecond,PseudorangeRateUncertaintyMetersPerSecond,AccumulatedDeltaRangeState,AccumulatedDeltaRangeMeters,AccumulatedDeltaRangeUncertaintyMeters,CarrierFrequencyHz,CarrierCycles,CarrierPhase,CarrierPhaseUncertainty,MultipathIndicator,SnrInDb,ConstellationType,AgcDb,BasebandCn0DbHz,FullInterSignalBiasNanos,FullInterSignalBiasUncertaintyNanos,SatelliteInterSignalBiasNanos,SatelliteInterSignalBiasUncertaintyNanos,CodeType,ChipsetElapsedRealtimeNanos
# 
# UncalAccel,utcTimeMillis,elapsedRealtimeNanos,UncalAccelXMps2,UncalAccelYMps2,UncalAccelZMps2,BiasXMps2,BiasYMps2,BiasZMps2
# 
# Accel,utcTimeMillis,elapsedRealtimeNanos,AccelXMps2,AccelYMps2,AccelZMps2
# 
# UncalGyro,utcTimeMillis,elapsedRealtimeNanos,UncalGyroXRadPerSec,UncalGyroYRadPerSec,UncalGyroZRadPerSec,DriftXRadPerSec,DriftYRadPerSec,DriftZRadPerSec
# 
# Gyro,utcTimeMillis,elapsedRealtimeNanos,GyroXRadPerSec,GyroYRadPerSec,GyroZRadPerSec
# 
# UncalMag,utcTimeMillis,elapsedRealtimeNanos,UncalMagXMicroT,UncalMagYMicroT,UncalMagZMicroT,BiasXMicroT,BiasYMicroT,BiasZMicroT
# 
# Mag,utcTimeMillis,elapsedRealtimeNanos,MagXMicroT,MagYMicroT,MagZMicroT
# 
# OrientationDeg,utcTimeMillis,elapsedRealtimeNanos,yawDeg,rollDeg,pitchDeg
# 
# Fix,Provider,LatitudeDegrees,LongitudeDegrees,AltitudeMeters,SpeedMps,AccuracyMeters,BearingDegrees,UnixTimeMillis,SpeedAccuracyMps,BearingAccuracyDegrees,elapsedRealtimeNanos,VerticalAccuracyMeters
# 
# Nav,Svid,Type,Status,MessageId,Sub-messageId,Data(Bytes)
# 
# Status,UnixTimeMillis,SignalCount,SignalIndex,ConstellationType,Svid,CarrierFrequencyHz,Cn0DbHz,AzimuthDegrees,ElevationDegrees,UsedInFix,HasAlmanacData,HasEphemerisData,BasebandCn0DbHz
# 
Fix,FLP,-33.9178317000,151.2310617000,58.5,0.00000011342391,3.9,,1678267296980,0.6,,42420797000000,1.5403466
Fix,NLP,-33.9179420000,151.2310910000,,,40.0,,1678267297748,,,42421564644007,
Status,0,61,0,1,9,1575420030,34.20,173.0,81.0,1,0,0,34.2
Status,0,61,1,1,7,1575420030,39.30,225.0,59.0,1,0,0,39.3
Status,0,61,2,1,4,1575420030,20.80,68.0,55.0,1,0,0,20.8
Status,0,61,3,1,8,1575420030,20.00,65.0,30.0,1,0,0,20.0
Status,0,61,4,1,16,1575420030,30.60,136.0,28.0,1,0,0,30.6
Status,0,61,5,1,30,1575420030,39.60,262.0,27.0,1,0,0,39.6
Status,0,61,6,1,27,1575420030,14.20,102.0,25.0,1,0,0,14.2
Status,0,61,7,1,20,1575420030,23.40,227.0,14.0,1,0,0,23.4
Status,0,61,8,1,14,1575420030,22.70,324.0,13.0,1,0,0,22.7
Status,0,61,9,1,3,1575420030,23.00,4.0,11.0,1,0,0,23.0
Status,0,61,10,2,128,1575420030,0.00,282.0,9.0,0,0,0,0.0
Status,0,61,11,2,135,1575420030,0.00,82.0,3.0,0,0,0,0.0
Status,0,61,12,2,120,1575420030,0.00,0.0,0.0,0,0,0,0.0
Status,0,61,13,3,4,1602000000,22.90,26.0,66.0,1,0,0,22.9
Status,0,61,14,3,15,1602000000,23.10,256.0,64.0,1,0,0,23.1
Status,0,61,15,3,5,1602000000,39.40,212.0,57.0,1,0,0,39.4
Status,0,61,16,3,14,1602000000,0.00,155.0,42.0,0,0,0,0.0
Status,0,61,17,3,16,1602000000,17.50,301.0,19.0,0,0,0,17.5
Status,0,61,18,3,3,1602000000,27.80,29.0,15.0,0,0,0,27.8
Status,0,61,19,6,24,1575420030,34.40,122.0,78.0,1,0,0,34.4
Status,0,61,20,6,5,1575420030,35.20,201.0,77.0,1,0,0,35.2
Status,0,61,21,6,9,1575420030,21.90,56.0,45.0,1,0,0,21.9
Status,0,61,22,6,25,1575420030,19.80,323.0,43.0,1,0,0,19.8
Status,0,61,23,6,31,1575420030,34.10,137.0,27.0,1,0,0,34.1
Status,0,61,24,6,3,1575420030,21.80,225.0,24.0,1,0,0,21.8
Status,0,61,25,5,26,1561097980,29.10,232.0,71.0,1,0,0,29.1
Status,0,61,26,5,42,1561097980,32.90,248.0,60.0,1,0,0,32.9
Status,0,61,27,5,21,1561097980,0.00,4.0,53.0,0,0,0,0.0
Status,0,61,28,5,1,1561097980,22.70,348.0,50.0,1,0,0,22.7
Status,0,61,29,5,59,1561097980,24.70,340.0,50.0,1,0,0,24.7
Status,0,61,30,5,39,1561097980,28.90,224.0,50.0,1,0,0,28.9
Status,0,61,31,5,4,1561097980,0.00,15.0,49.0,0,0,0,0.0
Status,0,61,32,5,16,1561097980,37.30,234.0,42.0,1,0,0,37.3
Status,0,61,33,5,6,1561097980,32.60,237.0,39.0,1,0,0,32.6
Status,0,61,34,5,45,1561097980,36.70,134.0,37.0,1,0,0,36.7
Status,0,61,35,5,14,1561097980,37.40,228.0,36.0,1,0,0,37.4
Status,0,61,36,5,3,1561097980,0.00,303.0,32.0,0,0,0,0.0
Status,0,61,37,5,24,1561097980,34.30,287.0,31.0,1,0,0,34.3
Status,0,61,38,5,61,1561097980,0.00,303.0,30.0,0,0,0,0.0
Status,0,61,39,5,13,1561097980,24.40,289.0,28.0,1,0,0,24.4
Status,0,61,40,5,8,1561097980,17.60,300.0,27.0,1,0,0,17.6
Status,0,61,41,5,9,1561097980,20.20,247.0,25.0,1,0,0,20.2
Status,0,61,42,5,38,1561097980,16.50,315.0,23.0,1,0,0,16.5
Status,0,61,43,5,33,1561097980,17.80,219.0,12.0,1,0,0,17.8
Status,0,61,44,5,2,1561097980,0.00,282.0,11.0,0,0,0,0.0
Status,0,61,45,5,29,1561097980,0.00,100.0,7.0,0,0,0,0.0
Status,0,61,46,5,40,1561097980,16.30,348.0,7.0,1,0,0,16.3
Status,0,61,47,5,35,1561097980,0.00,52.0,6.0,0,0,0,0.0
Status,0,61,48,5,60,1561097980,0.00,281.0,6.0,0,0,0,0.0
Status,0,61,49,5,22,1561097980,18.10,27.0,6.0,1,0,0,18.1
Status,0,61,50,5,7,1561097980,0.00,335.0,5.0,0,0,0,0.0
Status,0,61,51,5,26,1575420030,31.10,232.0,71.0,1,0,0,31.1
Status,0,61,52,5,42,1575420030,34.00,248.0,60.0,1,0,0,34.0
Status,0,61,53,5,39,1575420030,29.20,224.0,50.0,1,0,0,29.2
Status,0,61,54,5,45,1575420030,37.30,134.0,37.0,1,0,0,37.3
Status,0,61,55,5,24,1575420030,28.90,287.0,31.0,1,0,0,28.9
Status,0,61,56,5,38,1575420030,22.20,315.0,23.0,1,0,0,22.2
Status,0,61,57,4,196,1575420030,25.00,346.0,55.0,0,0,0,25.0
Status,0,61,58,4,194,1575420030,25.00,330.0,45.0,1,0,0,25.0
Status,0,61,59,4,199,1575420030,0.00,321.0,43.0,0,0,0,0.0
Status,0,61,60,4,195,1575420030,0.00,350.0,7.0,0,0,0,0.0
Fix,GPS,-33.9178316667,151.2310616667,59.400000000000006,0.0,1.6,335.61,1678267298000,0.6,98.2,42421797000000,13.2
Nav,1,769,1,2,4,-107,111,102,69,0,2,-40,96,-121,35,4
Raw,1678267297999,73886000000,18,38.0584761971967,-1362302442113999872,0.0,38.0584761971967,-1139.1272058768352,0.0,0,7,0.0,16431,292915932365781,51,39.25600051879883,-457.65173015527887,0.14999,25,-18391.63422144857,0.00022499999613501132,1575420030,,,,0,20.626442639636068,1,6.0,39.25600051879883,0.0,0.0,0.0,66.7128,C,
Raw,1678267297999,73886000000,18,38.0584761971967,-1362302442113999872,0.0,38.0584761971967,-1139.1272058768352,0.0,0,196,0.0,16431,292915880204167,316,25.0,45.35702653743507,0.14999,25,2762.771408373095,0.002025000052526593,1575420030,,,,0,6.076100994375066,4,6.0,25.0,0.0,,0.0,,C,
Raw,1678267297999,73886000000,18,38.0584761971967,-1362302442113999872,0.0,38.0584761971967,-1139.1272058768352,0.0,0,30,0.0,16431,292915923729257,42,39.64400100708008,-754.3315058608958,0.14999,25,-30723.474343222584,0.00022499999613501132,1575420030,,,,0,23.334217679708527,1,6.0,39.64400100708008,0.0,0.0,0.0,66.7128,C,
Raw,1678267297999,73886000000,18,38.0584761971967,-1362302442113999872,0.0,38.0584761971967,-1139.1272058768352,0.0,0,27,0.0,47,292915922042162,1797,14.199999809265137,-425.36893819098105,0.14999,16,-17015.782493914558,0.02250000089406967,1575420030,,,,0,0.0,1,6.0,14.199999809265137,0.0,0.0,0.0,66.7128,C,
Raw,1678267297999,73886000000,18,38.0584761971967,-1362302442113999872,0.0,38.0584761971967,-1139.1272058768352,0.0,0,24,0.0,16431,292915921327736,58,34.400001525878906,-246.48995888029683,0.14999,25,-10146.999241858623,0.00039999998989515007,1575420030,,,,0,16.811343148767442,6,6.0,34.400001525878906,0.0,0.0,-7.6593956066411515,66.7128,C,
Raw,1678267297999,73886000000,18,38.0584761971967,-1362302442113999872,0.0,38.0584761971967,-1139.1272058768352,0.0,0,42,0.0,16905,292901925702557,58,32.900001525878906,-495.53940482646465,0.14999,16,-14902.847441158481,0.00039999998989515007,1575420030,,,,0,16.427918808069244,5,6.0,32.900001525878906,0.0,0.0,14.696533358660156,66.7128,C,
Raw,1678267297999,73886000000,18,38.0584761971967,-1362302442113999872,0.0,38.0584761971967,-1139.1272058768352,0.0,0,14,0.0,16905,292901922159938,51,37.400001525878906,-762.699951171875,0.14999,25,-31148.040074317138,0.00022499999613501132,1561097980,,,,0,19.990754773328245,5,6.0,37.400001525878906,0.0,0.0,14.696533358660156,66.7128,I,
Raw,1678267297999,73886000000,18,38.0584761971967,-1362302442113999872,0.0,38.0584761971967,-1139.1272058768352,0.0,0,16,0.0,16905,292901875719858,51,37.29999923706055,-404.7196960449219,0.14999,25,-16104.700593856982,0.00022499999613501132,1561097980,,,,0,19.841476948524267,5,6.0,37.29999923706055,0.0,0.0,14.696533358660156,66.7128,I,
Raw,1678267297999,73886000000,18,38.0584761971967,-1362302442113999872,0.0,38.0584761971967,-1139.1272058768352,0.0,0,9,0.0,16431,292915917001608,487,21.899999618530273,-13.53203580647591,0.14999,25,-5700.262167081298,0.009999999776482582,1575420030,,,,0,2.012123171360403,6,6.0,21.899999618530273,0.0,0.0,-7.6593956066411515,66.7128,C,
Raw,1678267297999,73886000000,18,38.0584761971967,-1362302442113999872,0.0,38.0584761971967,-1139.1272058768352,0.0,0,5,0.0,16431,292915922435797,58,35.18000030517578,-470.12535032364633,0.14999,25,-17972.705099198705,0.00039999998989515007,1575420030,,,,0,17.219550429178053,6,6.0,35.18000030517578,0.0,0.0,-7.6593956066411515,66.7128,C,
Raw,1678267297999,73886000000,18,38.0584761971967,-1362302442113999872,0.0,38.0584761971967,-1139.1272058768352,0.0,0,22,0.0,47,292901911505129,797,18.05500030517578,314.2411193847656,0.14999,16,7994.949092851133,0.02250000089406967,1561097980,,,,0,0.0,5,6.0,18.05500030517578,0.0,0.0,14.696533358660156,66.7128,I,
Raw,1678267297999,73886000000,18,38.0584761971967,-1362302442113999872,0.0,38.0584761971967,-1139.1272058768352,0.0,0,39,0.0,47,292901876924719,235,28.892000198364258,-404.9385709118996,0.14999,16,-14986.4734527218,0.0008999999845400453,1575420030,,,,0,11.111602767755386,5,6.0,28.892000198364258,0.0,0.0,14.696533358660156,66.7128,C,
Raw,1678267297999,73886000000,18,38.0584761971967,-1362302442113999872,0.0,38.0584761971967,-1139.1272058768352,0.0,0,4,0.0,17,405053,487,20.0,-4.382281592962393,0.14999,16,-2491.3271290250614,0.009999999776482582,1605374980,,,,0,0.9897072615983651,3,6.0,20.0,0.0,0.0,64.41733738725985,66.7128,C,
Raw,1678267297999,73886000000,18,38.0584761971967,-1362302442113999872,0.0,38.0584761971967,-1139.1272058768352,0.0,0,5,0.0,32995,44497934127743,51,37.0,-763.2038024840635,0.14999,25,-31006.28636326021,0.00022499999613501132,1602562560,,,,0,19.554472105776956,3,6.0,37.0,0.0,0.0,64.41733738725985,66.7128,C,
Raw,1678267297999,73886000000,18,38.0584761971967,-1362302442113999872,0.0,38.0584761971967,-1139.1272058768352,0.0,0,15,0.0,17,154730,396,22.0,-403.41300704559484,0.14999,16,-15997.05946155158,0.004900000058114529,1602000000,,,,0,3.9617110552369827,3,6.0,22.0,0.0,0.0,64.41733738725985,66.7128,C,
Raw,1678267297999,73886000000,18,38.0584761971967,-1362302442113999872,0.0,38.0584761971967,-1139.1272058768352,0.0,0,16,0.0,32995,44497924838365,487,18.0,-902.5034113587518,0.14999,16,-14376.881910003944,0.009999999776482582,1601437440,,,,0,0.0,3,6.0,18.0,0.0,0.0,64.41733738725985,66.7128,C,
Raw,1678267297999,73886000000,18,38.0584761971967,-1362302442113999872,0.0,38.0584761971967,-1139.1272058768352,0.0,0,3,0.0,32995,44497923204782,235,28.0,434.5436154290945,0.14999,25,14784.23555615227,0.0008999999845400453,1604812540,,,,0,9.494035611924991,3,6.0,28.0,0.0,0.0,64.41733738725985,66.7128,C,
Raw,1678267297999,73886000000,18,38.0584761971967,-1362302442113999872,0.0,38.0584761971967,-1139.1272058768352,0.0,0,9,0.0,16431,292915932477585,58,34.183998107910156,-432.0002731456247,0.14999,25,-17319.498820688306,0.00039999998989515007,1575420030,,,,0,16.439111966368316,1,6.0,34.183998107910156,0.0,0.0,0.0,66.7128,C,
Raw,1678267297999,73886000000,18,38.0584761971967,-1362302442113999872,0.0,38.0584761971967,-1139.1272058768352,0.0,0,3,0.0,47,292915918352299,396,22.983999252319336,361.2937693039039,0.14999,16,15302.845968231271,0.004900000058114529,1575420030,,,,0,2.07081183814139,1,6.0,22.983999252319336,0.0,0.0,0.0,66.7128,C,
Raw,1678267297999,73886000000,18,38.0584761971967,-1362302442113999872,0.0,38.0584761971967,-1139.1272058768352,0.0,0,16,0.0,16431,292915922420204,74,30.628999710083008,181.18461759038084,0.14999,25,7821.5401540427365,0.0006249999860301614,1575420030,,,,0,12.306229118672993,1,6.0,30.628999710083008,0.0,0.0,0.0,66.7128,C,
Raw,1678267297999,73886000000,18,38.0584761971967,-1362302442113999872,0.0,38.0584761971967,-1139.1272058768352,0.0,0,194,0.0,16431,292915876014637,316,25.0,-734.8173914663186,0.14999,25,-29670.39252909526,0.002025000052526593,1575420030,,,,0,7.988444876749433,4,6.0,25.0,0.0,,0.0,,C,
Raw,1678267297999,73886000000,18,38.0584761971967,-1362302442113999872,0.0,38.0584761971967,-1139.1272058768352,0.0,0,59,0.0,47,292901876739106,235,24.700000762939453,-342.23651123046875,0.14999,16,-13401.36338963779,0.0008999999845400453,1561097980,,,,0,5.759885153754833,5,6.0,24.700000762939453,0.0,0.0,14.696533358660156,66.7128,I,
Raw,1678267297999,73886000000,18,38.0584761971967,-1362302442113999872,0.0,38.0584761971967,-1139.1272058768352,0.0,0,45,0.0,16905,292901921430691,51,36.70000076293945,87.41374206542969,0.14999,25,4034.9882308461197,0.00022499999613501132,1561097980,,,,0,19.237505957079122,5,6.0,36.70000076293945,0.0,0.0,14.696533358660156,66.7128,I,
Raw,1678267297999,73886000000,18,38.0584761971967,-1362302442113999872,0.0,38.0584761971967,-1139.1272058768352,0.0,0,8,0.0,47,292901871032715,487,17.600000381469727,59.207332611083984,0.14999,16,2037.0548400478397,0.009999999776482582,1561097980,,,,0,0.0,5,6.0,17.600000381469727,0.0,0.0,14.696533358660156,66.7128,I,
Raw,1678267297999,73886000000,18,38.0584761971967,-1362302442113999872,0.0,38.0584761971967,-1139.1272058768352,0.0,0,31,0.0,16431,292915912462456,51,34.11000061035156,130.7459694878371,0.14999,25,3600.383109672596,0.00022499999613501132,1575420030,,,,0,18.701183861339707,6,6.0,34.11000061035156,0.0,0.0,-7.6593956066411515,66.7128,C,
Raw,1678267297999,73886000000,18,38.0584761971967,-1362302442113999872,0.0,38.0584761971967,-1139.1272058768352,0.0,0,13,0.0,47,292901870735165,487,24.3799991607666,35.14965057373047,0.14999,16,1318.8541070660535,0.009999999776482582,1561097980,,,,0,2.250081967139041,5,6.0,24.3799991607666,0.0,0.0,14.696533358660156,66.7128,I,
Raw,1678267297999,73886000000,18,38.0584761971967,-1362302442113999872,0.0,38.0584761971967,-1139.1272058768352,0.0,0,9,0.0,47,292901872486024,797,20.200000762939453,-413.95782470703125,0.14999,16,-16433.98979794863,0.02250000089406967,1561097980,,,,0,0.0,5,6.0,20.200000762939453,0.0,0.0,14.696533358660156,66.7128,I,
Raw,1678267297999,73886000000,18,38.0584761971967,-1362302442113999872,0.0,38.0584761971967,-1139.1272058768352,0.0,0,6,0.0,16905,292901874223012,58,32.55699920654297,-399.22271728515625,0.14999,25,-15861.500575004848,0.00039999998989515007,1561097980,,,,0,14.756705307911542,5,6.0,32.55699920654297,0.0,0.0,14.696533358660156,66.7128,I,
Raw,1678267297999,73886000000,18,38.0584761971967,-1362302442113999872,0.0,38.0584761971967,-1139.1272058768352,0.0,0,38,0.0,47,292901869107987,797,16.5,49.09309387207031,0.14999,16,1882.9216617095476,0.02250000089406967,1561097980,,,,0,0.0,5,6.0,16.5,0.0,0.0,14.696533358660156,66.7128,I,
Raw,1678267297999,73886000000,18,38.0584761971967,-1362302442113999872,0.0,38.0584761971967,-1139.1272058768352,0.0,0,24,0.0,47,292901919847732,235,34.28499984741211,-724.7407003655014,0.14999,16,-21505.298286697576,0.0008999999845400453,1575420030,,,,0,10.46870352934315,5,6.0,34.28499984741211,0.0,0.0,14.696533358660156,66.7128,C,
Raw,1678267297999,73886000000,18,38.0584761971967,-1362302442113999872,0.0,38.0584761971967,-1139.1272058768352,0.0,0,33,0.0,47,292901913175165,797,17.799999237060547,-919.124267578125,0.14999,16,-35489.94015940256,0.02250000089406967,1561097980,,,,0,0.0,5,6.0,17.799999237060547,0.0,0.0,14.696533358660156,66.7128,I,
Raw,1678267297999,73886000000,18,38.0584761971967,-1362302442113999872,0.0,38.0584761971967,-1139.1272058768352,0.0,0,45,0.0,47,292901921430686,51,36.70000076293945,87.48435689674594,0.14999,16,-7437.777060593807,0.00022499999613501132,1575420030,,,,0,19.89168176137933,5,6.0,36.70000076293945,0.0,0.0,14.696533358660156,66.7128,C,
Raw,1678267297999,73886000000,18,38.0584761971967,-1362302442113999872,0.0,38.0584761971967,-1139.1272058768352,0.0,0,8,0.0,47,292915923486681,396,20.031999588012695,-716.591894162173,0.14999,16,-26011.610025185088,0.004900000058114529,1575420030,,,,0,0.8816781334221803,1,6.0,20.031999588012695,0.0,0.0,0.0,66.7128,C,
Raw,1678267297999,73886000000,18,38.0584761971967,-1362302442113999872,0.0,38.0584761971967,-1139.1272058768352,0.0,0,14,0.0,16431,292915919286625,487,22.735000610351562,-1030.036235815779,0.14999,20,-41344.69559719831,0.009999999776482582,1575420030,,,,0,1.7125800519673464,1,6.0,22.735000610351562,0.0,0.0,0.0,66.7128,C,
Raw,1678267297999,73886000000,18,38.0584761971967,-1362302442113999872,0.0,38.0584761971967,-1139.1272058768352,0.0,0,4,0.0,47,292915929828688,487,20.816999435424805,-31.94752480371445,0.14999,16,-1308.4965225680721,0.009999999776482582,1575420030,,,,0,0.0,1,6.0,20.816999435424805,0.0,0.0,0.0,66.7128,C,
Raw,1678267297999,73886000000,18,38.0584761971967,-1362302442113999872,0.0,38.0584761971967,-1139.1272058768352,0.0,0,20,0.0,47,292915919730875,396,23.364999771118164,-658.6497937158815,0.14999,16,-26107.65639814989,0.004900000058114529,1575420030,,,,0,2.6914965129407658,1,6.0,23.364999771118164,0.0,0.0,0.0,66.7128,C,
Raw,1678267297999,73886000000,18,38.0584761971967,-1362302442113999872,0.0,38.0584761971967,-1139.1272058768352,0.0,0,42,0.0,16905,292901925702569,58,32.900001525878906,-495.559814453125,0.14999,17,-19943.138148243543,0.00039999998989515007,1561097980,,,,0,15.185318124465397,5,6.0,32.900001525878906,0.0,0.0,14.696533358660156,66.7128,I,
Raw,1678267297999,73886000000,18,38.0584761971967,-1362302442113999872,0.0,38.0584761971967,-1139.1272058768352,0.0,0,25,0.0,16431,292915917003296,487,19.799999237060547,-741.4419899506116,0.14999,25,-27945.32615368811,0.009999999776482582,1575420030,,,,0,0.0,6,6.0,19.799999237060547,0.0,0.0,-7.6593956066411515,66.7128,C,
Raw,1678267297999,73886000000,18,38.0584761971967,-1362302442113999872,0.0,38.0584761971967,-1139.1272058768352,0.0,0,39,0.0,16905,292901876924705,74,28.892000198364258,-404.80780029296875,0.14999,21,-16005.301784994666,0.0006249999860301614,1561097980,,,,0,11.369027806937645,5,6.0,28.892000198364258,0.0,0.0,14.696533358660156,66.7128,I,
Raw,1678267297999,73886000000,18,38.0584761971967,-1362302442113999872,0.0,38.0584761971967,-1139.1272058768352,0.0,0,26,0.0,16905,292901927561410,235,29.100000381469727,-351.01446533203125,0.14999,25,-13903.085764650841,0.0008999999845400453,1561097980,,,,0,10.907721725563777,5,6.0,29.100000381469727,0.0,0.0,14.696533358660156,66.7128,I,
Raw,1678267297999,73886000000,18,38.0584761971967,-1362302442113999872,0.0,38.0584761971967,-1139.1272058768352,0.0,0,24,0.0,16905,292901919847733,51,34.28499984741211,-724.6446533203125,0.14999,17,-29375.473689603623,0.00022499999613501132,1561097980,,,,0,18.368192081457316,5,6.0,34.28499984741211,0.0,0.0,14.696533358660156,66.7128,I,
Raw,1678267297999,73886000000,18,38.0584761971967,-1362302442113999872,0.0,38.0584761971967,-1139.1272058768352,0.0,0,40,0.0,47,292901864425479,1797,16.299999237060547,-660.689453125,0.14999,16,-24965.082671857443,0.02250000089406967,1561097980,,,,0,0.0,5,6.0,16.299999237060547,0.0,0.0,14.696533358660156,66.7128,I,
Raw,1678267297999,73886000000,18,38.0584761971967,-1362302442113999872,0.0,38.0584761971967,-1139.1272058768352,0.0,0,3,0.0,47,292915911517444,487,21.799999237060547,-809.9078972953306,0.14999,28,-28400.90509224209,0.009999999776482582,1575420030,,,,0,1.8336397069281007,6,6.0,21.799999237060547,0.0,0.0,-7.6593956066411515,66.7128,C,
Raw,1678267297999,73886000000,18,38.0584761971967,-1362302442113999872,0.0,38.0584761971967,-1139.1272058768352,0.0,0,26,0.0,47,292901927561425,74,29.100000381469727,-350.99363645032224,0.14999,16,-13983.383046042416,0.0006249999860301614,1575420030,,,,0,13.211472268434255,5,6.0,29.100000381469727,0.0,0.0,14.696533358660156,66.7128,C,
Raw,1678267297999,73886000000,18,38.0584761971967,-1362302442113999872,0.0,38.0584761971967,-1139.1272058768352,0.0,0,38,0.0,16905,292901869108034,487,16.5,49.74386248811515,0.14999,20,-8679.391459950808,0.009999999776482582,1575420030,,,,0,0.8143453184230347,5,6.0,16.5,0.0,0.0,14.696533358660156,66.7128,C,
Raw,1678267297999,73886000000,18,38.0584761971967,-1362302442113999872,0.0,38.0584761971967,-1139.1272058768352,0.0,0,1,0.0,16905,292901877574449,235,22.724000930786133,-335.9533996582031,0.14999,16,-13982.971625451119,0.0008999999845400453,1561097980,,,,0,6.0903664701960505,5,6.0,22.724000930786133,0.0,0.0,14.696533358660156,66.7128,I,
Nav,3,769,1,1,4,-115,-103,102,69,0,2,54,96,-124,-42,4
Nav,5,769,1,2,4,-107,111,102,69,0,2,-40,96,-121,35,4
Nav,7,769,1,1,4,-115,-103,102,69,0,2,54,96,-124,-42,4
Nav,10,769,1,1,4,-71,-70,70,69,0,2,108,-64,-127,-103,4
Nav,14,769,1,1,4,-71,-70,70,69,0,2,108,-64,-127,-103,4
Nav,5,1537,1,20,3,3,25,-1,-16,34,-119,37,60,52,68,38,5,105,123,38,-26,-78,-118,-96,65,93,42,-86,-86,-111,21,-46,-81,-48
Nav,24,1537,1,20,3,3,25,-1,-17,126,-119,-50,1,24,65,48,73,57,65,103,-106,-67,10,-96,65,93,42,-86,-86,-105,20,36,63,-48
Nav,31,1537,1,20,3,3,25,-1,-17,-100,-119,-95,-63,15,65,45,73,81,-127,102,22,-65,-6,-96,65,93,42,-86,-86,-101,44,46,127,-48
Fix,FLP,-33.9178317000,151.2310617000,58.5,0.000000036785647,3.612,,1678267297980,0.6,,42421797000000,1.5503466
Status,1678267298000,61,0,1,9,1575420030,40.40,173.0,81.0,1,0,0,40.4
Status,1678267298000,61,1,1,7,1575420030,39.30,225.0,59.0,1,0,0,39.3
Status,1678267298000,61,2,1,4,1575420030,25.10,68.0,55.0,1,0,0,25.1
Status,1678267298000,61,3,1,8,1575420030,23.70,65.0,30.0,1,0,0,23.7
Status,1678267298000,61,4,1,16,1575420030,34.40,136.0,28.0,1,0,0,34.4
Status,1678267298000,61,5,1,30,1575420030,37.00,262.0,27.0,1,0,0,37.0
Status,1678267298000,61,6,1,27,1575420030,14.20,102.0,25.0,1,0,0,14.2
Status,1678267298000,61,7,1,20,1575420030,20.80,227.0,14.0,1,0,0,20.8
Status,1678267298000,61,8,1,14,1575420030,26.10,324.0,13.0,1,0,0,26.1
Status,1678267298000,61,9,1,3,1575420030,20.40,4.0,11.0,1,0,0,20.4
Status,1678267298000,61,10,2,128,1575420030,0.00,282.0,9.0,0,0,0,0.0
Status,1678267298000,61,11,2,135,1575420030,0.00,82.0,3.0,0,0,0,0.0
Status,1678267298000,61,12,2,120,1575420030,0.00,0.0,0.0,0,0,0,0.0
Status,1678267298000,61,13,3,4,1602000000,20.10,26.0,66.0,1,0,0,20.1
Status,1678267298000,61,14,3,15,1602000000,26.50,256.0,64.0,1,0,0,26.5
Status,1678267298000,61,15,3,5,1602000000,39.40,212.0,57.0,1,0,0,39.4
Status,1678267298000,61,16,3,14,1602000000,0.00,155.0,42.0,0,0,0,0.0
Status,1678267298000,61,17,3,16,1602000000,20.90,301.0,19.0,0,0,0,20.9
Status,1678267298000,61,18,3,3,1602000000,25.60,29.0,15.0,0,0,0,25.6
Status,1678267298000,61,19,6,24,1575420030,34.40,122.0,78.0,1,0,0,34.4
Status,1678267298000,61,20,6,5,1575420030,35.20,201.0,77.0,1,0,0,35.2
Status,1678267298000,61,21,6,9,1575420030,18.20,56.0,45.0,1,0,0,18.2
Status,1678267298000,61,22,6,25,1575420030,19.80,323.0,43.0,1,0,0,19.8
Status,1678267298000,61,23,6,31,1575420030,25.40,137.0,27.0,1,0,0,25.4
Status,1678267298000,61,24,6,3,1575420030,18.00,225.0,24.0,1,0,0,18.0
Status,1678267298000,61,25,5,26,1561097980,33.00,232.0,71.0,1,0,0,33.0
Status,1678267298000,61,26,5,42,1561097980,38.00,248.0,60.0,1,0,0,38.0
Status,1678267298000,61,27,5,21,1561097980,0.00,4.0,53.0,0,0,0,0.0
Status,1678267298000,61,28,5,1,1561097980,22.80,348.0,50.0,1,0,0,22.8
Status,1678267298000,61,29,5,59,1561097980,24.80,340.0,50.0,1,0,0,24.8
Status,1678267298000,61,30,5,39,1561097980,39.00,224.0,50.0,1,0,0,39.0
Status,1678267298000,61,31,5,4,1561097980,0.00,15.0,49.0,0,0,0,0.0
Status,1678267298000,61,32,5,16,1561097980,37.20,234.0,42.0,1,0,0,37.2
Status,1678267298000,61,33,5,6,1561097980,32.60,237.0,39.0,1,0,0,32.6
Status,1678267298000,61,34,5,45,1561097980,26.90,134.0,37.0,1,0,0,26.9
Status,1678267298000,61,35,5,14,1561097980,33.60,228.0,36.0,1,0,0,33.6
Status,1678267298000,61,36,5,3,1561097980,25.50,303.0,32.0,1,0,0,25.5
Status,1678267298000,61,37,5,24,1561097980,39.60,287.0,31.0,1,0,0,39.6
Status,1678267298000,61,38,5,61,1561097980,0.00,303.0,30.0,0,0,0,0.0
Status,1678267298000,61,39,5,13,1561097980,29.70,289.0,28.0,1,0,0,29.7
Status,1678267298000,61,40,5,8,1561097980,22.70,300.0,27.0,1,0,0,22.7
Status,1678267298000,61,41,5,9,1561097980,20.30,247.0,25.0,1,0,0,20.3
Status,1678267298000,61,42,5,38,1561097980,16.50,315.0,23.0,1,0,0,16.5
Status,1678267298000,61,43,5,33,1561097980,17.80,219.0,12.0,1,0,0,17.8
Status,1678267298000,61,44,5,2,1561097980,0.00,282.0,11.0,0,0,0,0.0
Status,1678267298000,61,45,5,29,1561097980,0.00,100.0,7.0,0,0,0,0.0
Status,1678267298000,61,46,5,40,1561097980,11.90,348.0,7.0,1,0,0,11.9
Status,1678267298000,61,47,5,35,1561097980,0.00,52.0,6.0,0,0,0,0.0
Status,1678267298000,61,48,5,60,1561097980,0.00,281.0,6.0,0,0,0,0.0
Status,1678267298000,61,49,5,22,1561097980,18.10,27.0,6.0,1,0,0,18.1
Status,1678267298000,61,50,5,7,1561097980,0.00,335.0,5.0,0,0,0,0.0
Status,1678267298000,61,51,5,26,1575420030,33.20,232.0,71.0,1,0,0,33.2
Status,1678267298000,61,52,5,42,1575420030,37.20,248.0,60.0,1,0,0,37.2
Status,1678267298000,61,53,5,39,1575420030,35.50,224.0,50.0,1,0,0,35.5
Status,1678267298000,61,54,5,45,1575420030,27.40,134.0,37.0,1,0,0,27.4
Status,1678267298000,61,55,5,24,1575420030,34.30,287.0,31.0,1,0,0,34.3
Status,1678267298000,61,56,5,38,1575420030,18.20,315.0,23.0,1,0,0,18.2
Status,1678267298000,61,57,4,196,1575420030,29.00,346.0,55.0,0,0,0,29.0
Status,1678267298000,61,58,4,194,1575420030,20.00,330.0,45.0,1,0,0,20.0
Status,1678267298000,61,59,4,199,1575420030,0.00,321.0,43.0,0,0,0,0.0
Status,1678267298000,61,60,4,195,1575420030,0.00,350.0,7.0,0,0,0,0.0
Fix,GPS,-33.9178316667,151.2310616667,59.400000000000006,0.0,1.6,335.61,1678267299000,0.6,111.0,42422797000000,13.2
Nav,1,769,1,2,4,-107,111,102,69,0,2,-40,96,-121,35,4
Raw,1678267298999,74886000000,18,38.4217595421486,-1362302442113999872,0.0,38.4217595421486,-1146.4660226849692,0.0,0,7,0.0,16431,292916932367311,42,39.29999923706055,-459.6435882918895,0.14999,25,-18850.307509457456,0.00022499999613501132,1575420030,,,,0,22.946390329713132,1,6.0,39.29999923706055,0.0,0.0,0.0,66.7128,C,
Raw,1678267298999,74886000000,18,38.4217595421486,-1362302442113999872,0.0,38.4217595421486,-1146.4660226849692,0.0,0,196,0.0,16431,292916880204020,235,29.0,43.36177693644108,0.14999,21,2807.1616747588405,0.0008999999845400453,1575420030,,,,0,9.480338413757332,4,6.0,29.0,0.0,,0.0,,C,
Raw,1678267298999,74886000000,18,38.4217595421486,-1362302442113999872,0.0,38.4217595421486,-1146.4660226849692,0.0,0,30,0.0,16431,292916923731775,51,36.972999572753906,-756.8303646936121,0.14999,25,-31478.960315754914,0.00022499999613501132,1575420030,,,,0,19.53882889643731,1,6.0,36.972999572753906,0.0,0.0,0.0,66.7128,C,
Raw,1678267298999,74886000000,18,38.4217595421486,-1362302442113999872,0.0,38.4217595421486,-1146.4660226849692,0.0,0,27,0.0,47,292916922043583,487,14.199999809265137,-426.994332340523,0.14999,16,-17442.052595877187,0.009999999776482582,1575420030,,,,0,0.0,1,6.0,14.199999809265137,0.0,0.0,0.0,66.7128,C,
Raw,1678267298999,74886000000,18,38.4217595421486,-1362302442113999872,0.0,38.4217595421486,-1146.4660226849692,0.0,0,24,0.0,16431,292916921328554,58,34.375,-248.5653260200459,0.14999,25,-10394.549008387325,0.00039999998989515007,1575420030,,,,0,16.24683832905287,6,6.0,34.375,0.0,0.0,-7.947627517202417,66.7128,C,
Raw,1678267298999,74886000000,18,38.4217595421486,-1362302442113999872,0.0,38.4217595421486,-1146.4660226849692,0.0,0,42,0.0,16905,292902925704215,51,38.0,-497.8162388881107,0.14999,16,-15332.319483299203,0.00022499999613501132,1575420030,,,,0,19.762943464099997,5,6.0,38.0,0.0,0.0,14.44370113128367,66.7128,C,
Raw,1678267298999,74886000000,18,38.4217595421486,-1362302442113999872,0.0,38.4217595421486,-1146.4660226849692,0.0,0,14,0.0,16905,292902922162486,58,33.599998474121094,-764.8634033203125,0.14999,25,-31911.762694684956,0.00039999998989515007,1561097980,,,,0,15.97228608662655,5,6.0,33.599998474121094,0.0,0.0,14.44370113128367,66.7128,I,
Raw,1678267298999,74886000000,18,38.4217595421486,-1362302442113999872,0.0,38.4217595421486,-1146.4660226849692,0.0,0,16,0.0,16905,292902875721212,58,37.189998626708984,-407.0499267578125,0.14999,25,-16510.55828732851,0.00039999998989515007,1561097980,,,,0,17.586143859675524,5,6.0,37.189998626708984,0.0,0.0,14.44370113128367,66.7128,I,
Raw,1678267298999,74886000000,18,38.4217595421486,-1362302442113999872,0.0,38.4217595421486,-1146.4660226849692,0.0,0,9,0.0,16431,292916917001657,487,18.200000762939453,-15.881507601867149,0.14999,28,-5715.075486517208,0.009999999776482582,1575420030,,,,0,0.0,6,6.0,18.200000762939453,0.0,0.0,-7.947627517202417,66.7128,C,
Raw,1678267298999,74886000000,18,38.4217595421486,-1362302442113999872,0.0,38.4217595421486,-1146.4660226849692,0.0,0,5,0.0,16431,292916922437367,51,35.24599838256836,-472.29533002800815,0.14999,29,-18443.889914539937,0.00022499999613501132,1575420030,,,,0,19.014451651403313,6,6.0,35.24599838256836,0.0,0.0,-7.947627517202417,66.7128,C,
Raw,1678267298999,74886000000,18,38.4217595421486,-1362302442113999872,0.0,38.4217595421486,-1146.4660226849692,0.0,0,22,0.0,47,292902911504085,797,18.10700035095215,312.0474853515625,0.14999,16,8307.878246050042,0.02250000089406967,1561097980,,,,0,0.0,5,6.0,18.10700035095215,0.0,0.0,14.44370113128367,66.7128,I,
Raw,1678267298999,74886000000,18,38.4217595421486,-1362302442113999872,0.0,38.4217595421486,-1146.4660226849692,0.0,0,39,0.0,47,292902876926070,51,39.0,-407.4046301027712,0.14999,16,-15370.691097870147,0.00022499999613501132,1575420030,,,,0,17.963811226855228,5,6.0,39.0,0.0,0.0,14.44370113128367,66.7128,C,
Raw,1678267298999,74886000000,18,38.4217595421486,-1362302442113999872,0.0,38.4217595421486,-1146.4660226849692,0.0,0,4,0.0,17,405068,396,21.0,-6.110998800021777,0.14999,16,-2496.783106765406,0.004900000058114529,1605374980,,,,0,0.0,3,6.0,21.0,0.0,0.0,64.44208203629796,66.7128,C,
Raw,1678267298999,74886000000,18,38.4217595421486,-1362302442113999872,0.0,38.4217595421486,-1146.4660226849692,0.0,0,5,0.0,32995,44498934130284,42,39.0,-765.2365519625392,0.14999,25,-31770.485635471938,0.00022499999613501132,1602562560,,,,0,22.003683852460103,3,6.0,39.0,0.0,0.0,64.44208203629796,66.7128,C,
Raw,1678267298999,74886000000,18,38.4217595421486,-1362302442113999872,0.0,38.4217595421486,-1146.4660226849692,0.0,0,15,0.0,17,156068,235,27.0,-405.380360328652,0.14999,17,-16401.42174362615,0.0008999999845400453,1602000000,,,,0,7.913561062643193,3,6.0,27.0,0.0,0.0,64.44208203629796,66.7128,C,
Raw,1678267298999,74886000000,18,38.4217595421486,-1362302442113999872,0.0,38.4217595421486,-1146.4660226849692,0.0,0,16,0.0,32995,44498924841322,396,22.0,-904.299381475561,0.14999,16,-15280.297512825346,0.004900000058114529,1601437440,,,,0,0.6133763953290393,3,6.0,22.0,0.0,0.0,64.44208203629796,66.7128,C,
Raw,1678267298999,74886000000,18,38.4217595421486,-1362302442113999872,0.0,38.4217595421486,-1146.4660226849692,0.0,0,3,0.0,32995,44498923203335,487,20.0,432.40079171303296,0.14999,25,15217.732355288734,0.009999999776482582,1604812540,,,,0,6.782400905442412,3,6.0,20.0,0.0,0.0,64.44208203629796,66.7128,C,
Raw,1678267298999,74886000000,18,38.4217595421486,-1362302442113999872,0.0,38.4217595421486,-1146.4660226849692,0.0,0,9,0.0,16431,292916932479023,42,40.40599822998047,-433.9203065707738,0.14999,21,-17752.480128334002,0.00022499999613501132,1575420030,,,,0,23.232478424127553,1,6.0,40.40599822998047,0.0,0.0,0.0,66.7128,C,
Raw,1678267298999,74886000000,18,38.4217595421486,-1362302442113999872,0.0,38.4217595421486,-1146.4660226849692,0.0,0,3,0.0,47,292916918351094,487,20.420000076293945,358.6215741203062,0.14999,16,15662.881523413042,0.009999999776482582,1575420030,,,,0,0.0,1,6.0,20.420000076293945,0.0,0.0,0.0,66.7128,C,
Raw,1678267298999,74886000000,18,38.4217595421486,-1362302442113999872,0.0,38.4217595421486,-1146.4660226849692,0.0,0,16,0.0,16431,292916922419608,58,34.43600082397461,179.1807731823879,0.14999,21,8001.6611079361655,0.00039999998989515007,1575420030,,,,0,16.72518358661496,1,6.0,34.43600082397461,0.0,0.0,0.0,66.7128,C,
Raw,1678267298999,74886000000,18,38.4217595421486,-1362302442113999872,0.0,38.4217595421486,-1146.4660226849692,0.0,0,194,0.0,16431,292916876017101,487,20.0,-736.7919206136827,0.14999,21,-30406.268131201927,0.009999999776482582,1575420030,,,,0,6.258584379273778,4,6.0,20.0,0.0,,0.0,,C,
Raw,1678267298999,74886000000,18,38.4217595421486,-1362302442113999872,0.0,38.4217595421486,-1146.4660226849692,0.0,0,59,0.0,47,292902876740254,235,24.770000457763672,-344.8372802734375,0.14999,16,-13745.49639533058,0.0008999999845400453,1561097980,,,,0,7.469854801009884,5,6.0,24.770000457763672,0.0,0.0,14.44370113128367,66.7128,I,
Raw,1678267298999,74886000000,18,38.4217595421486,-1362302442113999872,0.0,38.4217595421486,-1146.4660226849692,0.0,0,45,0.0,16905,292902921430400,316,26.899999618530273,85.597900390625,0.14999,20,4121.489932358097,0.002025000052526593,1561097980,,,,0,8.352055755610063,5,6.0,26.899999618530273,0.0,0.0,14.44370113128367,66.7128,I,
Raw,1678267298999,74886000000,18,38.4217595421486,-1362302442113999872,0.0,38.4217595421486,-1146.4660226849692,0.0,0,8,0.0,47,292902871032497,396,22.700000762939453,57.258663177490234,0.14999,16,2095.121173788741,0.004900000058114529,1561097980,,,,0,3.0843137984315354,5,6.0,22.700000762939453,0.0,0.0,14.44370113128367,66.7128,I,
Raw,1678267298999,74886000000,18,38.4217595421486,-1362302442113999872,0.0,38.4217595421486,-1146.4660226849692,0.0,0,31,0.0,16431,292916912462028,316,25.399999618530273,128.6505555414932,0.14999,25,3730.0353162170795,0.002025000052526593,1575420030,,,,0,6.577693764264941,6,6.0,25.399999618530273,0.0,0.0,-7.947627517202417,66.7128,C,
Raw,1678267298999,74886000000,18,38.4217595421486,-1362302442113999872,0.0,38.4217595421486,-1146.4660226849692,0.0,0,13,0.0,47,292902870735049,74,29.700000762939453,33.63433837890625,0.14999,17,1353.4701264500095,0.0006249999860301614,1561097980,,,,0,11.631688112363294,5,6.0,29.700000762939453,0.0,0.0,14.44370113128367,66.7128,I,
Raw,1678267298999,74886000000,18,38.4217595421486,-1362302442113999872,0.0,38.4217595421486,-1146.4660226849692,0.0,0,9,0.0,47,292902872487409,487,20.309999465942383,-416.2521667480469,0.14999,16,-16849.23700815654,0.009999999776482582,1561097980,,,,0,2.6909232625684574,5,6.0,20.309999465942383,0.0,0.0,14.44370113128367,66.7128,I,
Raw,1678267298999,74886000000,18,38.4217595421486,-1362302442113999872,0.0,38.4217595421486,-1146.4660226849692,0.0,0,6,0.0,16905,292902874224348,58,32.64899826049805,-401.58392333984375,0.14999,21,-16261.88321488775,0.00039999998989515007,1561097980,,,,0,16.763720911958536,5,6.0,32.64899826049805,0.0,0.0,14.44370113128367,66.7128,I,
Raw,1678267298999,74886000000,18,38.4217595421486,-1362302442113999872,0.0,38.4217595421486,-1146.4660226849692,0.0,0,38,0.0,47,292902869107828,316,16.5,47.060272216796875,0.14999,16,1930.6738110323845,0.002025000052526593,1561097980,,,,0,0.0,5,6.0,16.5,0.0,0.0,14.44370113128367,66.7128,I,
Raw,1678267298999,74886000000,18,38.4217595421486,-1362302442113999872,0.0,38.4217595421486,-1146.4660226849692,0.0,0,24,0.0,47,292902919850157,58,39.599998474121094,-727.0684993097304,0.14999,16,-22049.407275149133,0.00039999998989515007,1575420030,,,,0,16.736000387064035,5,6.0,39.599998474121094,0.0,0.0,14.44370113128367,66.7128,C,
Raw,1678267298999,74886000000,18,38.4217595421486,-1362302442113999872,0.0,38.4217595421486,-1146.4660226849692,0.0,0,33,0.0,47,292902913178235,487,17.799999237060547,-921.1922607421875,0.14999,16,-36410.2270380982,0.009999999776482582,1561097980,,,,0,0.0,5,6.0,17.799999237060547,0.0,0.0,14.44370113128367,66.7128,I,
Raw,1678267298999,74886000000,18,38.4217595421486,-1362302442113999872,0.0,38.4217595421486,-1146.4660226849692,0.0,0,45,0.0,47,292902921430397,235,26.899999618530273,85.35363455408202,0.14999,16,-7575.769176552323,0.0008999999845400453,1575420030,,,,0,8.993391143677341,5,6.0,26.899999618530273,0.0,0.0,14.44370113128367,66.7128,C,
Raw,1678267298999,74886000000,18,38.4217595421486,-1362302442113999872,0.0,38.4217595421486,-1146.4660226849692,0.0,0,8,0.0,47,292916923489008,396,23.66200065612793,-718.0415361231904,0.14999,16,-26728.989303553957,0.004900000058114529,1575420030,,,,0,3.1165789925340484,1,6.0,23.66200065612793,0.0,0.0,0.0,66.7128,C,
Raw,1678267298999,74886000000,18,38.4217595421486,-1362302442113999872,0.0,38.4217595421486,-1146.4660226849692,0.0,0,14,0.0,16431,292916919290060,316,26.08799934387207,-1031.9870247124595,0.14999,16,-42375.72739448018,0.002025000052526593,1575420030,,,,0,6.542810626463785,1,6.0,26.08799934387207,0.0,0.0,0.0,66.7128,C,
Raw,1678267298999,74886000000,18,38.4217595421486,-1362302442113999872,0.0,38.4217595421486,-1146.4660226849692,0.0,0,4,0.0,47,292916929828806,396,25.075000762939453,-34.53709369408175,0.14999,16,-1341.8498076165042,0.004900000058114529,1575420030,,,,0,5.14249019929799,1,6.0,25.075000762939453,0.0,0.0,0.0,66.7128,C,
Raw,1678267298999,74886000000,18,38.4217595421486,-1362302442113999872,0.0,38.4217595421486,-1146.4660226849692,0.0,0,20,0.0,47,292916919733075,487,20.768999099731445,-660.8229325925456,0.14999,16,-26767.57448456057,0.009999999776482582,1575420030,,,,0,0.0,1,6.0,20.768999099731445,0.0,0.0,0.0,66.7128,C,
Raw,1678267298999,74886000000,18,38.4217595421486,-1362302442113999872,0.0,38.4217595421486,-1146.4660226849692,0.0,0,42,0.0,16905,292902925704220,51,38.0,-497.6725769042969,0.14999,25,-20439.920805532187,0.00022499999613501132,1561097980,,,,0,20.604748560946703,5,6.0,38.0,0.0,0.0,14.44370113128367,66.7128,I,
Raw,1678267298999,74886000000,18,38.4217595421486,-1362302442113999872,0.0,38.4217595421486,-1146.4660226849692,0.0,0,25,0.0,16431,292916917005771,487,19.799999237060547,-743.9581313141582,0.14999,28,-28687.834060568857,0.009999999776482582,1575420030,,,,0,0.0,6,6.0,19.799999237060547,0.0,0.0,-7.947627517202417,66.7128,C,
Raw,1678267298999,74886000000,18,38.4217595421486,-1362302442113999872,0.0,38.4217595421486,-1146.4660226849692,0.0,0,39,0.0,16905,292902876926059,42,39.0,-407.2038879394531,0.14999,25,-16411.4960340014,0.00022499999613501132,1561097980,,,,0,21.617843834434282,5,6.0,39.0,0.0,0.0,14.44370113128367,66.7128,I,
Raw,1678267298999,74886000000,18,38.4217595421486,-1362302442113999872,0.0,38.4217595421486,-1146.4660226849692,0.0,0,26,0.0,16905,292902927562584,58,33.0,-353.17852783203125,0.14999,21,-14255.185921351827,0.00039999998989515007,1561097980,,,,0,15.260674360378456,5,6.0,33.0,0.0,0.0,14.44370113128367,66.7128,I,
Raw,1678267298999,74886000000,18,38.4217595421486,-1362302442113999872,0.0,38.4217595421486,-1146.4660226849692,0.0,0,24,0.0,16905,292902919850156,42,39.599998474121094,-726.8209838867188,0.14999,25,-30101.431581388744,0.00022499999613501132,1561097980,,,,0,22.317463266387602,5,6.0,39.599998474121094,0.0,0.0,14.44370113128367,66.7128,I,
Raw,1678267298999,74886000000,18,38.4217595421486,-1362302442113999872,0.0,38.4217595421486,-1146.4660226849692,0.0,0,40,0.0,47,292902864427688,797,11.899999618530273,-663.301025390625,0.14999,16,-25627.22237994131,0.02250000089406967,1561097980,,,,0,0.0,5,6.0,11.899999618530273,0.0,0.0,14.44370113128367,66.7128,I,
Raw,1678267298999,74886000000,18,38.4217595421486,-1362302442113999872,0.0,38.4217595421486,-1146.4660226849692,0.0,0,3,0.0,47,292916911520149,487,18.0,-812.3662908475275,0.14999,24,-29211.96039743324,0.009999999776482582,1575420030,,,,0,0.0,6,6.0,18.0,0.0,0.0,-7.947627517202417,66.7128,C,
Raw,1678267298999,74886000000,18,38.4217595421486,-1362302442113999872,0.0,38.4217595421486,-1146.4660226849692,0.0,0,26,0.0,47,292902927562596,58,33.0,-353.34719658634,0.14999,16,-14340.56100734267,0.00039999998989515007,1575420030,,,,0,15.519610974080782,5,6.0,33.0,0.0,0.0,14.44370113128367,66.7128,C,
Raw,1678267298999,74886000000,18,38.4217595421486,-1362302442113999872,0.0,38.4217595421486,-1146.4660226849692,0.0,0,3,0.0,16905,292902872666344,235,25.5,-335.1889953613281,0.14999,16,-14533.837644323294,0.0008999999845400453,1561097980,,,,0,6.701764418464804,5,6.0,25.5,0.0,0.0,14.44370113128367,66.7128,I,
Raw,1678267298999,74886000000,18,38.4217595421486,-1362302442113999872,0.0,38.4217595421486,-1146.4660226849692,0.0,0,38,0.0,16905,292902869107872,797,16.5,47.809008828194855,0.14999,16,-8836.134706638126,0.02250000089406967,1575420030,,,,0,0.0,5,6.0,16.5,0.0,0.0,14.44370113128367,66.7128,C,
Raw,1678267298999,74886000000,18,38.4217595421486,-1362302442113999872,0.0,38.4217595421486,-1146.4660226849692,0.0,0,1,0.0,16905,292902877575569,235,22.77199935913086,-335.2983093261719,0.14999,16,-14318.666351029236,0.0008999999845400453,1561097980,,,,0,4.391139056735431,5,6.0,22.77199935913086,0.0,0.0,14.44370113128367,66.7128,I,
Nav,3,769,1,1,4,-115,-103,102,69,0,2,54,96,-124,-42,4
Nav,5,769,1,2,4,-107,111,102,69,0,2,-40,96,-121,35,4
Fix,FLP,-33.9178317000,151.2310617000,58.5,0.000000011729626,3.612,,1678267298980,0.6,,42422797000000,1.5603466
Nav,7,769,1,1,4,-115,-103,102,69,0,2,54,96,-124,-42,4
Nav,10,769,1,1,4,-71,-70,70,69,0,2,108,-64,-127,-103,4
Nav,14,769,1,1,4,-71,-70,70,69,0,2,108,-64,-127,-103,4
Nav,6,1282,1,-1,2,56,-112,36,115,32,-128,33,-55,15,-14,62,-125,2,58,117,-22,49,100,7,-112,11,-100,32,35,14,-87,-35,-57,36,83,-14,-94,41,44,-82,60,44,57,1,28
Nav,14,1282,1,-1,2,56,-112,36,115,32,-128,-74,-53,20,-7,-93,78,61,-78,5,2,56,64,2,6,43,-91,40,39,1,92,33,64,14,110,-4,37,13,-6,81,-52,19,-14,-67,72
Nav,16,1282,1,-1,2,56,-112,36,115,32,-128,30,-60,24,-14,79,104,32,-128,-37,-62,54,60,11,71,39,81,-26,118,14,-116,93,15,40,82,-14,-67,45,124,-82,12,36,-47,101,-3
Nav,24,1282,1,-1,2,56,-112,36,115,32,-128,-71,-55,6,7,-83,-101,54,32,-59,22,49,100,1,-102,35,-83,-119,-32,3,-40,80,98,50,-105,4,7,52,-86,81,12,20,-120,85,93
Nav,26,1282,1,-1,2,56,-112,36,115,32,-128,-71,-55,51,8,116,-92,24,103,-102,93,58,72,1,67,50,-88,110,-100,3,-5,-96,-90,49,-110,5,-46,2,74,81,-4,19,-20,37,28
Nav,39,1282,1,-1,2,56,-112,36,115,32,-128,28,-62,59,-18,55,114,34,-121,97,-75,62,60,6,-77,5,100,-9,54,14,-47,-99,-32,36,30,-18,38,55,-52,-82,-84,43,9,41,-115
Nav,45,1282,1,-1,2,56,-112,36,115,32,-128,-76,-51,40,8,-6,91,59,12,72,85,10,100,1,-6,5,121,-14,111,4,33,-112,36,49,70,5,91,23,122,81,-52,20,1,-71,54
Status,1678267299000,61,0,1,9,1575420030,28.50,173.0,81.0,1,0,0,28.5
Status,1678267299000,61,1,1,7,1575420030,43.00,225.0,59.0,1,0,0,43.0
Status,1678267299000,61,2,1,4,1575420030,24.30,68.0,55.0,1,0,0,24.3
Status,1678267299000,61,3,1,8,1575420030,21.00,65.0,30.0,1,0,0,21.0
Status,1678267299000,61,4,1,16,1575420030,36.40,136.0,28.0,1,0,0,36.4
Status,1678267299000,61,5,1,30,1575420030,26.10,262.0,27.0,1,0,0,26.1
Status,1678267299000,61,6,1,27,1575420030,24.70,102.0,25.0,1,0,0,24.7
Status,1678267299000,61,7,1,20,1575420030,19.90,227.0,14.0,1,0,0,19.9
Status,1678267299000,61,8,1,14,1575420030,27.20,324.0,13.0,1,0,0,27.2
Status,1678267299000,61,9,1,3,1575420030,19.20,4.0,11.0,1,0,0,19.2
Status,1678267299000,61,10,2,128,1575420030,0.00,282.0,9.0,0,0,0,0.0
Status,1678267299000,61,11,2,135,1575420030,0.00,82.0,3.0,0,0,0,0.0
Status,1678267299000,61,12,2,120,1575420030,0.00,0.0,0.0,0,0,0,0.0
Status,1678267299000,61,13,3,4,1602000000,23.90,26.0,66.0,1,0,0,23.9
Status,1678267299000,61,14,3,15,1602000000,31.90,256.0,64.0,1,0,0,31.9
Status,1678267299000,61,15,3,5,1602000000,39.30,212.0,57.0,1,0,0,39.3
Status,1678267299000,61,16,3,14,1602000000,0.00,155.0,42.0,0,0,0,0.0
Status,1678267299000,61,17,3,16,1602000000,25.60,301.0,19.0,0,0,0,25.6
Status,1678267299000,61,18,3,3,1602000000,20.70,29.0,15.0,0,0,0,20.7
Status,1678267299000,61,19,6,24,1575420030,34.30,122.0,78.0,1,0,0,34.3
Status,1678267299000,61,20,6,5,1575420030,27.70,201.0,77.0,1,0,0,27.7
Status,1678267299000,61,21,6,9,1575420030,18.70,56.0,45.0,1,0,0,18.7
Status,1678267299000,61,22,6,25,1575420030,19.90,323.0,43.0,1,0,0,19.9
Status,1678267299000,61,23,6,31,1575420030,33.50,137.0,27.0,1,0,0,33.5
Status,1678267299000,61,24,6,3,1575420030,20.70,225.0,24.0,1,0,0,20.7
Status,1678267299000,61,25,5,26,1561097980,33.10,232.0,71.0,1,0,0,33.1
Status,1678267299000,61,26,5,42,1561097980,32.80,248.0,60.0,1,0,0,32.8
Status,1678267299000,61,27,5,21,1561097980,19.60,4.0,53.0,1,0,0,19.6
Status,1678267299000,61,28,5,1,1561097980,22.70,348.0,50.0,1,0,0,22.7
Status,1678267299000,61,29,5,59,1561097980,24.70,340.0,50.0,1,0,0,24.7
Status,1678267299000,61,30,5,39,1561097980,39.00,224.0,50.0,1,0,0,39.0
Status,1678267299000,61,31,5,4,1561097980,0.00,15.0,49.0,0,0,0,0.0
Status,1678267299000,61,32,5,16,1561097980,37.10,234.0,42.0,1,0,0,37.1
Status,1678267299000,61,33,5,6,1561097980,32.80,237.0,39.0,1,0,0,32.8
Status,1678267299000,61,34,5,45,1561097980,33.30,134.0,37.0,1,0,0,33.3
Status,1678267299000,61,35,5,14,1561097980,40.60,228.0,36.0,1,0,0,40.6
Status,1678267299000,61,36,5,3,1561097980,22.20,303.0,32.0,1,0,0,22.2
Status,1678267299000,61,37,5,24,1561097980,35.30,287.0,31.0,1,0,0,35.3
Status,1678267299000,61,38,5,61,1561097980,0.00,303.0,30.0,0,0,0,0.0
Status,1678267299000,61,39,5,13,1561097980,25.10,289.0,28.0,1,0,0,25.1
Status,1678267299000,61,40,5,8,1561097980,22.60,300.0,27.0,1,0,0,22.6
Status,1678267299000,61,41,5,9,1561097980,24.40,247.0,25.0,1,0,0,24.4
Status,1678267299000,61,42,5,38,1561097980,26.70,315.0,23.0,1,0,0,26.7
Status,1678267299000,61,43,5,33,1561097980,17.90,219.0,12.0,1,0,0,17.9
Status,1678267299000,61,44,5,2,1561097980,25.80,282.0,11.0,1,0,0,25.8
Status,1678267299000,61,45,5,29,1561097980,0.00,100.0,7.0,0,0,0,0.0
Status,1678267299000,61,46,5,40,1561097980,16.90,348.0,7.0,1,0,0,16.9
Status,1678267299000,61,47,5,35,1561097980,0.00,52.0,6.0,0,0,0,0.0
Status,1678267299000,61,48,5,60,1561097980,0.00,281.0,6.0,0,0,0,0.0
Status,1678267299000,61,49,5,22,1561097980,18.00,27.0,6.0,1,0,0,18.0
Status,1678267299000,61,50,5,7,1561097980,0.00,335.0,5.0,0,0,0,0.0
Status,1678267299000,61,51,5,26,1575420030,36.10,232.0,71.0,1,0,0,36.1
Status,1678267299000,61,52,5,42,1575420030,32.20,248.0,60.0,1,0,0,32.2
Status,1678267299000,61,53,5,39,1575420030,39.30,224.0,50.0,1,0,0,39.3
Status,1678267299000,61,54,5,45,1575420030,31.30,134.0,37.0,1,0,0,31.3
Status,1678267299000,61,55,5,24,1575420030,34.40,287.0,31.0,1,0,0,34.4
Status,1678267299000,61,56,5,38,1575420030,23.70,315.0,23.0,1,0,0,23.7
Status,1678267299000,61,57,4,196,1575420030,26.00,346.0,55.0,0,0,0,26.0
Status,1678267299000,61,58,4,194,1575420030,18.00,330.0,45.0,1,0,0,18.0
Status,1678267299000,61,59,4,199,1575420030,0.00,321.0,43.0,0,0,0,0.0
Status,1678267299000,61,60,4,195,1575420030,0.00,350.0,7.0,0,0,0,0.0
Fix,GPS,-33.9178316667,151.2310616667,59.400000000000006,0.0,1.6,335.61,1678267300000,0.6,58.8,42423797000000,12.9
Raw,1678267299999,75886000000,18,37.85376189686666,-1362302442113999872,0.0,37.85376189686666,-1154.2323378062633,0.0,0,7,0.0,16431,292917932368850,31,43.04999923706055,-462.0664876141015,0.14999,25,-19311.124288933737,0.00022499999613501132,1575420030,,,,0,26.018743755640745,1,6.0,43.04999923706055,0.0,0.0,0.0,66.7128,C,
Raw,1678267299999,75886000000,18,37.85376189686666,-1362302442113999872,0.0,37.85376189686666,-1154.2323378062633,0.0,0,196,0.0,16431,292917880203875,316,26.0,41.250195461255906,0.14999,21,2849.5673171350772,0.002025000052526593,1575420030,,,,0,6.507786830468518,4,6.0,26.0,0.0,,0.0,,C,
Raw,1678267299999,75886000000,18,37.85376189686666,-1362302442113999872,0.0,37.85376189686666,-1154.2323378062633,0.0,0,30,0.0,16431,292917923734303,316,26.06399917602539,-758.5458881706024,0.14999,21,-32236.56097844024,0.002025000052526593,1575420030,,,,0,6.507786830468518,1,6.0,26.06399917602539,0.0,0.0,0.0,66.7128,C,
Raw,1678267299999,75886000000,18,37.85376189686666,-1362302442113999872,0.0,37.85376189686666,-1154.2323378062633,0.0,0,27,0.0,47,292917922045075,316,24.690000534057617,-428.64049340211096,0.14999,16,-17869.880909083444,0.002025000052526593,1575420030,,,,0,4.5914929870594445,1,6.0,24.690000534057617,0.0,0.0,0.0,66.7128,C,
Raw,1678267299999,75886000000,18,37.85376189686666,-1362302442113999872,0.0,37.85376189686666,-1154.2323378062633,0.0,0,24,0.0,16431,292917921329386,58,34.33599853515625,-250.18328682299412,0.14999,29,-10643.831094881702,0.00039999998989515007,1575420030,,,,0,15.920569374303359,6,6.0,34.33599853515625,0.0,0.0,-8.076822602388024,66.7128,C,
Raw,1678267299999,75886000000,18,37.85376189686666,-1362302442113999872,0.0,37.85376189686666,-1154.2323378062633,0.0,0,42,0.0,16905,292903925705882,74,32.79999923706055,-500.24987010446733,0.14999,16,-15763.968286940626,0.0006249999860301614,1575420030,,,,0,14.392574106337229,5,6.0,32.79999923706055,0.0,0.0,13.857801247119093,66.7128,C,
Raw,1678267299999,75886000000,18,37.85376189686666,-1362302442113999872,0.0,37.85376189686666,-1154.2323378062633,0.0,0,14,0.0,16905,292903922165044,42,40.599998474121094,-767.207275390625,0.14999,25,-32677.702245371198,0.00022499999613501132,1561097980,,,,0,23.364985950266668,5,6.0,40.599998474121094,0.0,0.0,13.857801247119093,66.7128,I,
Raw,1678267299999,75886000000,18,37.85376189686666,-1362302442113999872,0.0,37.85376189686666,-1154.2323378062633,0.0,0,16,0.0,16905,292903875722576,58,37.09000015258789,-409.7801208496094,0.14999,21,-16918.82997019509,0.00039999998989515007,1561097980,,,,0,17.682187847381943,5,6.0,37.09000015258789,0.0,0.0,13.857801247119093,66.7128,I,
Raw,1678267299999,75886000000,18,37.85376189686666,-1362302442113999872,0.0,37.85376189686666,-1154.2323378062633,0.0,0,9,0.0,16431,292917917001710,487,18.700000762939453,-18.3037797354603,0.14999,24,-5731.956886700048,0.009999999776482582,1575420030,,,,0,0.0,6,6.0,18.700000762939453,0.0,0.0,-8.076822602388024,66.7128,C,
Raw,1678267299999,75886000000,18,37.85376189686666,-1362302442113999872,0.0,37.85376189686666,-1154.2323378062633,0.0,0,5,0.0,16431,292917922438939,235,27.700000762939453,-474.3323457451754,0.14999,29,-18917.040056226047,0.0008999999845400453,1575420030,,,,0,9.38006728994966,6,6.0,27.700000762939453,0.0,0.0,-8.076822602388024,66.7128,C,
Raw,1678267299999,75886000000,18,37.85376189686666,-1362302442113999872,0.0,37.85376189686666,-1154.2323378062633,0.0,0,22,0.0,47,292903911503045,797,17.986000061035156,310.1294250488281,0.14999,16,8619.024019997201,0.02250000089406967,1561097980,,,,0,0.0,5,6.0,17.986000061035156,0.0,0.0,13.857801247119093,66.7128,I,
Raw,1678267299999,75886000000,18,37.85376189686666,-1362302442113999872,0.0,37.85376189686666,-1154.2323378062633,0.0,0,39,0.0,47,292903876927427,42,39.02000045776367,-409.5851558676128,0.14999,16,-15757.100257969993,0.00022499999613501132,1575420030,,,,0,21.979674573249394,5,6.0,39.02000045776367,0.0,0.0,13.857801247119093,66.7128,C,
Raw,1678267299999,75886000000,18,37.85376189686666,-1362302442113999872,0.0,37.85376189686666,-1154.2323378062633,0.0,0,4,0.0,17,405090,396,22.0,-7.3587024673414625,0.14999,16,-2503.5995320900115,0.004900000058114529,1605374980,,,,0,4.662595200520908,3,6.0,22.0,0.0,0.0,64.72020614337613,66.7128,C,
Raw,1678267299999,75886000000,18,37.85376189686666,-1362302442113999872,0.0,37.85376189686666,-1154.2323378062633,0.0,0,5,0.0,32995,44499934132838,42,39.0,-767.4313441108637,0.14999,25,-32536.716237376284,0.00022499999613501132,1602562560,,,,0,21.56404004312149,3,6.0,39.0,0.0,0.0,64.72020614337613,66.7128,C,
Raw,1678267299999,75886000000,18,37.85376189686666,-1362302442113999872,0.0,37.85376189686666,-1154.2323378062633,0.0,0,15,0.0,17,157423,74,32.0,-407.5150215637436,0.14999,17,-16807.872695552585,0.0006249999860301614,1602000000,,,,0,14.102606260816746,3,6.0,32.0,0.0,0.0,64.72020614337613,66.7128,C,
Raw,1678267299999,75886000000,18,37.85376189686666,-1362302442113999872,0.0,37.85376189686666,-1154.2323378062633,0.0,0,16,0.0,32995,44499924844362,316,26.0,-907.4783436458779,0.14999,17,-16186.128351791067,0.002025000052526593,1601437440,,,,0,6.829173054391788,3,6.0,26.0,0.0,0.0,64.72020614337613,66.7128,C,
Raw,1678267299999,75886000000,18,37.85376189686666,-1362302442113999872,0.0,37.85376189686666,-1154.2323378062633,0.0,0,3,0.0,32995,44499923201895,316,24.0,430.4797117588369,0.14999,20,15649.341656969702,0.002025000052526593,1604812540,,,,0,0.2848087822922057,3,6.0,24.0,0.0,0.0,64.72020614337613,66.7128,C,
Raw,1678267299999,75886000000,18,37.85376189686666,-1362302442113999872,0.0,37.85376189686666,-1154.2323378062633,0.0,0,9,0.0,16431,292917932480473,235,28.503000259399414,-436.15374847167925,0.14999,17,-18187.36450804685,0.0008999999845400453,1575420030,,,,0,9.701803687818755,1,6.0,28.503000259399414,0.0,0.0,0.0,66.7128,C,
Raw,1678267299999,75886000000,18,37.85376189686666,-1362302442113999872,0.0,37.85376189686666,-1154.2323378062633,0.0,0,3,0.0,47,292917918349900,487,19.24799919128418,356.95473906350446,0.14999,16,16020.715307947932,0.009999999776482582,1575420030,,,,0,0.0,1,6.0,19.24799919128418,0.0,0.0,0.0,66.7128,C,
Raw,1678267299999,75886000000,18,37.85376189686666,-1362302442113999872,0.0,37.85376189686666,-1154.2323378062633,0.0,0,16,0.0,16431,292917922419012,51,36.400001525878906,178.11622503333962,0.14999,17,8180.606635995387,0.00022499999613501132,1575420030,,,,0,18.914083971645542,1,6.0,36.400001525878906,0.0,0.0,0.0,66.7128,C,
Raw,1678267299999,75886000000,18,37.85376189686666,-1362302442113999872,0.0,37.85376189686666,-1154.2323378062633,0.0,0,194,0.0,16431,292917876019561,487,18.0,-739.1217172698088,0.14999,20,-31143.921840947096,0.009999999776482582,1575420030,,,,0,0.0,4,6.0,18.0,0.0,,0.0,,C,
Raw,1678267299999,75886000000,18,37.85376189686666,-1362302442113999872,0.0,37.85376189686666,-1154.2323378062633,0.0,0,59,0.0,47,292903876741396,316,24.650999069213867,-343.5196533203125,0.14999,16,-14088.940142911875,0.002025000052526593,1561097980,,,,0,2.6909232625684574,5,6.0,24.650999069213867,0.0,0.0,13.857801247119093,66.7128,I,
Raw,1678267299999,75886000000,18,37.85376189686666,-1362302442113999872,0.0,37.85376189686666,-1154.2323378062633,0.0,0,45,0.0,16905,292903921430117,58,33.29999923706055,84.36164093017578,0.14999,17,4206.108674571018,0.00039999998989515007,1561097980,,,,0,15.570640869307713,5,6.0,33.29999923706055,0.0,0.0,13.857801247119093,66.7128,I,
Raw,1678267299999,75886000000,18,37.85376189686666,-1362302442113999872,0.0,37.85376189686666,-1154.2323378062633,0.0,0,8,0.0,47,292903871032304,487,22.645000457763672,55.18326950073242,0.14999,16,2151.474686732383,0.009999999776482582,1561097980,,,,0,1.6216376277411804,5,6.0,22.645000457763672,0.0,0.0,13.857801247119093,66.7128,I,
Raw,1678267299999,75886000000,18,37.85376189686666,-1362302442113999872,0.0,37.85376189686666,-1154.2323378062633,0.0,0,31,0.0,16431,292917912461597,58,33.5,127.51929310676657,0.14999,29,3858.426488584533,0.00039999998989515007,1575420030,,,,0,15.837050561220636,6,6.0,33.5,0.0,0.0,-8.076822602388024,66.7128,C,
Raw,1678267299999,75886000000,18,37.85376189686666,-1362302442113999872,0.0,37.85376189686666,-1154.2323378062633,0.0,0,13,0.0,47,292903870734943,316,25.100000381469727,30.557533264160156,0.14999,21,1385.752891790804,0.002025000052526593,1561097980,,,,0,6.179147281321649,5,6.0,25.100000381469727,0.0,0.0,13.857801247119093,66.7128,I,
Raw,1678267299999,75886000000,18,37.85376189686666,-1362302442113999872,0.0,37.85376189686666,-1154.2323378062633,0.0,0,9,0.0,47,292903872488779,316,24.399999618530273,-418.7701110839844,0.14999,17,-17266.660754634315,0.002025000052526593,1561097980,,,,0,5.281436520127018,5,6.0,24.399999618530273,0.0,0.0,13.857801247119093,66.7128,I,
Raw,1678267299999,75886000000,18,37.85376189686666,-1362302442113999872,0.0,37.85376189686666,-1154.2323378062633,0.0,0,6,0.0,16905,292903874225689,58,32.76599884033203,-404.22113037109375,0.14999,17,-16664.69943315479,0.00039999998989515007,1561097980,,,,0,17.415468256030376,5,6.0,32.76599884033203,0.0,0.0,13.857801247119093,66.7128,I,
Raw,1678267299999,75886000000,18,37.85376189686666,-1362302442113999872,0.0,37.85376189686666,-1154.2323378062633,0.0,0,38,0.0,47,292903869107660,396,26.700000762939453,45.18183898925781,0.14999,17,1977.0439546549296,0.004900000058114529,1561097980,,,,0,8.175507205236109,5,6.0,26.700000762939453,0.0,0.0,13.857801247119093,66.7128,I,
Raw,1678267299999,75886000000,18,37.85376189686666,-1362302442113999872,0.0,37.85376189686666,-1154.2323378062633,0.0,0,24,0.0,47,292903919852591,51,35.29999923706055,-729.9490604900325,0.14999,16,-22595.887032543833,0.00022499999613501132,1575420030,,,,0,19.02276350815058,5,6.0,35.29999923706055,0.0,0.0,13.857801247119093,66.7128,C,
Raw,1678267299999,75886000000,18,37.85376189686666,-1362302442113999872,0.0,37.85376189686666,-1154.2323378062633,0.0,0,33,0.0,47,292903913181315,487,17.889999389648438,-923.1880493164062,0.14999,16,-37332.367294814685,0.009999999776482582,1561097980,,,,0,0.0,5,6.0,17.889999389648438,0.0,0.0,13.857801247119093,66.7128,I,
Raw,1678267299999,75886000000,18,37.85376189686666,-1362302442113999872,0.0,37.85376189686666,-1154.2323378062633,0.0,0,45,0.0,47,292903921430106,74,33.29999923706055,84.36676487693776,0.14999,16,-7715.594584036844,0.0006249999860301614,1575420030,,,,0,13.435636700266954,5,6.0,33.29999923706055,0.0,0.0,13.857801247119093,66.7128,C,
Raw,1678267299999,75886000000,18,37.85376189686666,-1362302442113999872,0.0,37.85376189686666,-1154.2323378062633,0.0,0,8,0.0,47,292917923491419,487,21.003000259399414,-720.3850380120987,0.14999,16,-27448.14708155422,0.009999999776482582,1575420030,,,,0,0.0,1,6.0,21.003000259399414,0.0,0.0,0.0,66.7128,C,
Raw,1678267299999,75886000000,18,37.85376189686666,-1362302442113999872,0.0,37.85376189686666,-1154.2323378062633,0.0,0,14,0.0,16431,292917919293504,235,27.179000854492188,-1034.692484122064,0.14999,17,-43408.977455146676,0.0008999999845400453,1575420030,,,,0,7.988444876749433,1,6.0,27.179000854492188,0.0,0.0,0.0,66.7128,C,
Raw,1678267299999,75886000000,18,37.85376189686666,-1362302442113999872,0.0,37.85376189686666,-1154.2323378062633,0.0,0,4,0.0,47,292917929828926,316,24.253000259399414,-35.95258871918443,0.14999,16,-1377.0879936840495,0.002025000052526593,1575420030,,,,0,3.95621017497835,1,6.0,24.253000259399414,0.0,0.0,0.0,66.7128,C,
Raw,1678267299999,75886000000,18,37.85376189686666,-1362302442113999872,0.0,37.85376189686666,-1154.2323378062633,0.0,0,20,0.0,47,292917919735283,487,19.94300079345703,-663.2609773584422,0.14999,16,-27429.525503022673,0.009999999776482582,1575420030,,,,0,0.0,1,6.0,19.94300079345703,0.0,0.0,0.0,66.7128,C,
Raw,1678267299999,75886000000,18,37.85376189686666,-1362302442113999872,0.0,37.85376189686666,-1154.2323378062633,0.0,0,42,0.0,16905,292903925705882,58,32.79999923706055,-500.15606689453125,0.14999,25,-20938.827989372323,0.00039999998989515007,1561097980,,,,0,15.053097265975904,5,6.0,32.79999923706055,0.0,0.0,13.857801247119093,66.7128,I,
Raw,1678267299999,75886000000,18,37.85376189686666,-1362302442113999872,0.0,37.85376189686666,-1154.2323378062633,0.0,0,25,0.0,16431,292917917008256,487,19.8700008392334,-744.8718289857709,0.14999,24,-29432.681696363423,0.009999999776482582,1575420030,,,,0,0.9484929985627627,6,6.0,19.8700008392334,0.0,0.0,-8.076822602388024,66.7128,C,
Raw,1678267299999,75886000000,18,37.85376189686666,-1362302442113999872,0.0,37.85376189686666,-1154.2323378062633,0.0,0,39,0.0,16905,292903876927420,42,39.02000045776367,-409.7129821777344,0.14999,25,-16819.90915024829,0.00022499999613501132,1561097980,,,,0,22.047229595140433,5,6.0,39.02000045776367,0.0,0.0,13.857801247119093,66.7128,I,
Raw,1678267299999,75886000000,18,37.85376189686666,-1362302442113999872,0.0,37.85376189686666,-1154.2323378062633,0.0,0,26,0.0,16905,292903927563765,58,33.11000061035156,-355.25457763671875,0.14999,17,-14609.375115861318,0.00039999998989515007,1561097980,,,,0,17.622284922794755,5,6.0,33.11000061035156,0.0,0.0,13.857801247119093,66.7128,I,
Raw,1678267299999,75886000000,18,37.85376189686666,-1362302442113999872,0.0,37.85376189686666,-1154.2323378062633,0.0,0,24,0.0,16905,292903919852587,58,35.29999923706055,-730.0446166992188,0.14999,21,-30829.9431348449,0.00039999998989515007,1561097980,,,,0,17.777181435494022,5,6.0,35.29999923706055,0.0,0.0,13.857801247119093,66.7128,I,
