# 
# Header Description:
# 
# Version: v3.0.5.6 Platform: 12 Manufacturer: Xiaomi Model: 22041216C
# 
# Raw,utcTimeMillis,TimeNanos,LeapSecond,TimeUncertaintyNanos,FullBiasNanos,BiasNanos,BiasUncertaintyNanos,DriftNanosPerSecond,DriftUncertaintyNanosPerSecond,HardwareClockDiscontinuityCount,Svid,TimeOffsetNanos,State,ReceivedSvTimeNanos,ReceivedSvTimeUncertaintyNanos,Cn0DbHz,PseudorangeRateMetersPerSecond,PseudorangeRateUncertaintyMetersPerSecond,AccumulatedDeltaRangeState,AccumulatedDeltaRangeMeters,AccumulatedDeltaRangeUncertaintyMeters,CarrierFrequencyHz,CarrierCycles,CarrierPhase,CarrierPhaseUncertainty,MultipathIndicator,SnrInDb,ConstellationType,AgcDb,BasebandCn0DbHz,FullInterSignalBiasNanos,FullInterSignalBiasUncertaintyNanos,SatelliteInterSignalBiasNanos,SatelliteInterSignalBiasUncertaintyNanos,CodeType,ChipsetElapsedRealtimeNanos
# 
# UncalAccel,utcTimeMillis,elapsedRealtimeNanos,UncalAccelXMps2,UncalAccelYMps2,UncalAccelZMps2,BiasXMps2,BiasYMps2,BiasZMps2
# 
# Accel,utcTimeMillis,elapsedRealtimeNanos,AccelXMps2,AccelYMps2,AccelZMps2
# 
# UncalGyro,utcTimeMillis,elapsedRealtimeNanos,UncalGyroXRadPerSec,UncalGyroYRadPerSec,UncalGyroZRadPerSec,DriftXRadPerSec,DriftYRadPerSec,DriftZRadPerSec
# 
# Gyro,utcTimeMillis,elapsedRealtimeNanos,GyroXRadPerSec,GyroYRadPerSec,GyroZRadPerSec
# 
# UncalMag,utcTimeMillis,elapsedRealtimeNanos,UncalMagXMicroT,UncalMagYMicroT,UncalMagZMicroT,BiasXMicroT,BiasYMicroT,BiasZMicroT
# 
# Mag,utcTimeMillis,elapsedRealtimeNanos,MagXMicroT,MagYMicroT,MagZMicroT
# 
# OrientationDeg,utcTimeMillis,elapsedRealtimeNanos,yawDeg,rollDeg,pitchDeg
# 
# Fix,Provider,LatitudeDegrees,LongitudeDegrees,AltitudeMeters,SpeedMps,AccuracyMeters,BearingDegrees,UnixTimeMillis,SpeedAccuracyMps,BearingAccuracyDegrees,elapsedRealtimeNanos,VerticalAccuracyMeters
# 
# Nav,Svid,Type,Status,MessageId,Sub-messageId,Data(Bytes)
# 
# Status,UnixTimeMillis,SignalCount,SignalIndex,ConstellationType,Svid,CarrierFrequencyHz,Cn0DbHz,AzimuthDegrees,ElevationDegrees,UsedInFix,HasAlmanacData,HasEphemerisData,BasebandCn0DbHz
# 
Status,0,61,0,1,4,1575420030,33.00,170.0,67.0,1,0,0,33.0
Status,0,61,1,1,3,1575420030,17.80,358.0,55.0,1,0,0,17.8
Status,0,61,2,1,16,1575420030,29.30,93.0,54.0,1,0,0,29.3
Status,0,61,3,1,9,1575420030,41.40,224.0,43.0,1,0,0,41.4
Status,0,61,4,1,7,1575420030,38.50,284.0,33.0,1,0,0,38.5
Status,0,61,5,1,26,1575420030,24.30,131.0,28.0,1,0,0,24.3
Status,0,61,6,1,6,1575420030,28.50,253.0,12.0,1,0,0,28.5
Status,0,61,7,1,27,1575420030,0.00,63.0,7.0,0,0,0,0.0
Status,0,61,8,1,8,1575420030,0.00,33.0,2.0,0,0,0,0.0
Status,0,61,9,2,124,1575420030,0.00,0.0,0.0,0,0,0,0.0
Status,0,61,10,2,129,1575420030,0.00,0.0,0.0,0,0,0,0.0
Status,0,61,11,2,121,1575420030,0.00,0.0,0.0,0,0,0,0.0
Status,0,61,12,3,14,1602000000,36.50,300.0,85.0,0,0,0,36.5
Status,0,61,13,3,4,1602000000,38.40,190.0,58.0,0,0,0,38.4
Status,0,61,14,3,3,1602000000,21.20,73.0,55.0,0,0,0,21.2
Status,0,61,15,3,13,1602000000,18.20,149.0,32.0,0,0,0,18.2
Status,0,61,16,3,15,1602000000,34.20,326.0,30.0,0,0,0,34.2
Status,0,61,17,3,5,1602000000,0.00,217.0,12.0,0,0,0,0.0
Status,0,61,18,3,2,1602000000,0.00,50.0,7.0,0,0,0,0.0
Status,0,61,19,6,30,1575420030,0.00,31.0,63.0,0,0,0,0.0
Status,0,61,20,6,8,1575420030,0.00,99.0,56.0,0,0,0,0.0
Status,0,61,21,6,7,1575420030,0.00,213.0,55.0,0,0,0,0.0
Status,0,61,22,6,2,1575420030,0.00,126.0,42.0,0,0,0,0.0
Status,0,61,23,6,27,1575420030,0.00,342.0,19.0,0,0,0,0.0
Status,0,61,24,6,26,1575420030,0.00,273.0,13.0,0,0,0,0.0
Status,0,61,25,6,3,1575420030,0.00,72.0,11.0,0,0,0,0.0
Status,0,61,26,6,33,1575420030,0.00,228.0,5.0,0,0,0,0.0
Status,0,61,27,6,13,1575420030,0.00,322.0,5.0,0,0,0,0.0
Status,0,61,28,5,42,1561097980,32.40,88.0,88.0,1,0,0,32.4
Status,0,61,29,5,26,1561097980,31.30,139.0,67.0,1,0,0,31.3
Status,0,61,30,5,14,1561097980,36.00,221.0,62.0,1,0,0,36.0
Status,0,61,31,5,24,1561097980,25.30,312.0,61.0,1,0,0,25.3
Status,0,61,32,5,8,1561097980,25.80,288.0,51.0,1,0,0,25.8
Status,0,61,33,5,1,1561097980,0.00,348.0,50.0,0,0,0,0.0
Status,0,61,34,5,59,1561097980,0.00,340.0,50.0,0,0,0,0.0
Status,0,61,35,5,4,1561097980,0.00,15.0,49.0,0,0,0,0.0
Status,0,61,36,5,13,1561097980,38.60,272.0,48.0,1,0,0,38.6
Status,0,61,37,5,38,1561097980,26.40,310.0,46.0,1,0,0,26.4
Status,0,61,38,5,39,1561097980,31.80,245.0,46.0,1,0,0,31.8
Status,0,61,39,5,16,1561097980,38.70,256.0,38.0,1,0,0,38.7
Status,0,61,40,5,6,1561097980,34.00,259.0,36.0,1,0,0,34.0
Status,0,61,41,5,21,1561097980,0.00,45.0,34.0,0,0,0,0.0
Status,0,61,42,5,33,1561097980,37.80,223.0,34.0,1,0,0,37.8
Status,0,61,43,5,3,1561097980,27.50,302.0,32.0,1,0,0,27.5
Status,0,61,44,5,61,1561097980,0.00,303.0,30.0,0,0,0,0.0
Status,0,61,45,5,9,1561097980,34.50,269.0,22.0,1,0,0,34.5
Status,0,61,46,5,50,1561097980,0.00,220.0,14.0,0,0,0,0.0
Status,0,61,47,5,45,1561097980,0.00,135.0,12.0,0,0,0,0.0
Status,0,61,48,5,2,1561097980,0.00,282.0,11.0,0,0,0,0.0
Status,0,61,49,5,60,1561097980,0.00,281.0,7.0,0,0,0,0.0
Status,0,61,50,5,25,1561097980,17.90,313.0,5.0,1,0,0,17.9
Status,0,61,51,5,42,1575420030,32.50,88.0,88.0,1,0,0,32.5
Status,0,61,52,5,26,1575420030,28.00,139.0,67.0,1,0,0,28.0
Status,0,61,53,5,24,1575420030,8.90,312.0,61.0,1,0,0,8.9
Status,0,61,54,5,38,1575420030,11.70,310.0,46.0,1,0,0,11.7
Status,0,61,55,5,39,1575420030,29.50,245.0,46.0,1,0,0,29.5
Status,0,61,56,5,33,1575420030,26.10,223.0,34.0,1,0,0,26.1
Status,0,61,57,4,196,1575420030,21.00,341.0,71.0,0,0,0,21.0
Status,0,61,58,4,199,1575420030,19.00,321.0,43.0,0,0,0,19.0
Status,0,61,59,4,194,1575420030,19.00,345.0,32.0,0,0,0,19.0
Status,0,61,60,4,195,1575420030,18.00,348.0,10.0,0,0,0,18.0
Fix,GPS,-33.9165866667,151.2277766667,43.8,0.8971608,2.1,43.12,1677572463999,1.0,131.7,41307132000000,20.0
Raw,1677572464000,101258000000,18,48.87436616760102,-1361607580742000128,0.0,48.87436616760102,-1410.177709254532,0.0,0,3,0.0,47,202881929370840,797,17.768999099731445,7.640318837904076,0.14999,20,2278.953658649868,0.02250000089406967,1575420030,,,,0,0.0,1,6.0,17.768999099731445,0.0,0.0,0.0,66.7128,C,
Raw,1677572464000,101258000000,18,48.87436616760102,-1361607580742000128,0.0,48.87436616760102,-1410.177709254532,0.0,0,4,0.0,47,202881931236776,58,33.007999420166016,-501.0095581263421,0.14999,21,-48486.06513136722,0.00039999998989515007,1575420030,,,,0,15.107246763078253,1,6.0,33.007999420166016,0.0,0.0,0.0,66.7128,C,
Raw,1677572464000,101258000000,18,48.87436616760102,-1361607580742000128,0.0,48.87436616760102,-1410.177709254532,0.0,0,16,0.0,47,202881927730293,235,29.34000015258789,-397.2757197421334,0.14999,17,-38387.631790839616,0.0008999999845400453,1575420030,,,,0,10.734138894078132,1,6.0,29.34000015258789,0.0,0.0,0.0,66.7128,C,
Raw,1677572464000,101258000000,18,48.87436616760102,-1361607580742000128,0.0,48.87436616760102,-1410.177709254532,0.0,0,194,0.0,17,53991,487,19.0,-838.4151531494466,0.14999,20,-81916.57596960505,0.009999999776482582,1575420030,,,,0,0.0,4,6.0,19.0,0.0,,0.0,,C,
Raw,1677572464000,101258000000,18,48.87436616760102,-1361607580742000128,0.0,48.87436616760102,-1410.177709254532,0.0,0,196,0.0,17,1425,396,21.0,-150.214113279574,0.14999,21,-13103.196780291251,0.004900000058114529,1575420030,,,,0,0.6671233254956511,4,6.0,21.0,0.0,,0.0,,C,
Raw,1677572464000,101258000000,18,48.87436616760102,-1361607580742000128,0.0,48.87436616760102,-1410.177709254532,0.0,0,24,0.0,47,202867925720606,316,25.299999237060547,-689.7720947265625,0.14999,21,-67494.94908123015,0.002025000052526593,1561097980,,,,0,6.425776589995872,5,6.0,25.299999237060547,0.0,0.0,27.415531258301684,66.7128,I,
Raw,1677572464000,101258000000,18,48.87436616760102,-1361607580742000128,0.0,48.87436616760102,-1410.177709254532,0.0,0,6,0.0,47,202867873079547,58,34.0,-444.6550598144531,0.14999,17,-42414.73770744138,0.00039999998989515007,1561097980,,,,0,16.392357285977223,5,6.0,34.0,0.0,0.0,27.415531258301684,66.7128,I,
Raw,1677572464000,101258000000,18,48.87436616760102,-1361607580742000128,0.0,48.87436616760102,-1410.177709254532,0.0,0,16,0.0,47,202867874409511,42,38.70000076293945,-449.241455078125,0.14999,17,-42926.58964101662,0.00022499999613501132,1561097980,,,,0,21.348689740451505,5,6.0,38.70000076293945,0.0,0.0,27.415531258301684,66.7128,I,
Raw,1677572464000,101258000000,18,48.87436616760102,-1361607580742000128,0.0,48.87436616760102,-1410.177709254532,0.0,0,13,0.0,47,202867875821244,42,38.599998474121094,-214.68003845214844,0.14999,17,-19492.607437430357,0.00022499999613501132,1561097980,,,,0,21.222439121846023,5,6.0,38.599998474121094,0.0,0.0,27.415531258301684,66.7128,I,
Raw,1677572464000,101258000000,18,48.87436616760102,-1361607580742000128,0.0,48.87436616760102,-1410.177709254532,0.0,0,8,0.0,47,202867876734049,487,25.795000076293945,-177.186767578125,0.14999,17,-16258.824586497794,0.009999999776482582,1561097980,,,,0,4.562929865698988,5,6.0,25.795000076293945,0.0,0.0,27.415531258301684,66.7128,I,
Raw,1677572464000,101258000000,18,48.87436616760102,-1361607580742000128,0.0,48.87436616760102,-1410.177709254532,0.0,0,14,0.0,17,145241,51,37.0,-462.96221454782585,0.14999,17,-45051.916640051306,0.00022499999613501132,1598062460,,,,0,19.07412024345895,3,6.0,37.0,0.0,0.0,83.82291044223415,66.7128,C,
Raw,1677572464000,101258000000,18,48.87436616760102,-1361607580742000128,0.0,48.87436616760102,-1410.177709254532,0.0,0,4,0.0,17,941584,51,36.5,-803.5296417802639,0.14999,21,-78745.37336977433,0.00022499999613501132,1605374980,,,,0,20.993304222484298,3,6.0,36.5,0.0,0.0,83.82291044223415,66.7128,C,
Raw,1677572464000,101258000000,18,48.87436616760102,-1361607580742000128,0.0,48.87436616760102,-1410.177709254532,0.0,0,3,0.0,17,161099,396,18.233999252319336,-144.11064145264973,0.14999,17,-17400.784452641605,0.004900000058114529,1604812540,,,,0,0.9897072615983651,3,6.0,18.233999252319336,0.0,0.0,83.82291044223415,66.7128,C,
Raw,1677572464000,101258000000,18,48.87436616760102,-1361607580742000128,0.0,48.87436616760102,-1410.177709254532,0.0,0,13,0.0,17,975297,487,18.0,243.44503599202645,0.14999,17,-29968.050413795187,0.009999999776482582,1600875010,,,,0,0.0,3,6.0,18.0,0.0,0.0,83.82291044223415,66.7128,C,
Raw,1677572464000,101258000000,18,48.87436616760102,-1361607580742000128,0.0,48.87436616760102,-1410.177709254532,0.0,0,15,0.0,17,661800,58,34.0,-1090.7537308306084,0.14999,17,-94455.80933817381,0.00039999998989515007,1602000000,,,,0,16.636722186928402,3,6.0,34.0,0.0,0.0,83.82291044223415,66.7128,C,
Raw,1677572464000,101258000000,18,48.87436616760102,-1361607580742000128,0.0,48.87436616760102,-1410.177709254532,0.0,0,195,0.0,17,955196,487,18.0,-212.93594850243818,0.14999,21,-21325.26035068375,0.009999999776482582,1575420030,,,,0,0.0,4,6.0,18.0,0.0,,0.0,,C,
Raw,1677572464000,101258000000,18,48.87436616760102,-1361607580742000128,0.0,48.87436616760102,-1410.177709254532,0.0,0,9,0.0,47,202881926862938,31,41.4010009765625,-821.3483752040081,0.14999,17,-80074.06966355088,0.00022499999613501132,1575420030,,,,0,24.287525562629476,1,6.0,41.4010009765625,0.0,0.0,0.0,66.7128,C,
Raw,1677572464000,101258000000,18,48.87436616760102,-1361607580742000128,0.0,48.87436616760102,-1410.177709254532,0.0,0,7,0.0,47,202881926382431,42,38.54399871826172,-894.5451895298623,0.14999,17,-87523.45789538496,0.00022499999613501132,1575420030,,,,0,21.245634047281,1,6.0,38.54399871826172,0.0,0.0,0.0,66.7128,C,
Raw,1677572464000,101258000000,18,48.87436616760102,-1361607580742000128,0.0,48.87436616760102,-1410.177709254532,0.0,0,26,0.0,47,202867926584081,74,31.299999237060547,-180.2032012939453,0.14999,20,-16352.67597532802,0.0006249999860301614,1561097980,,,,0,13.383620429504342,5,6.0,31.299999237060547,0.0,0.0,27.415531258301684,66.7128,I,
Raw,1677572464000,101258000000,18,48.87436616760102,-1361607580742000128,0.0,48.87436616760102,-1410.177709254532,0.0,0,3,0.0,47,202867872307573,235,27.5,-417.1365966796875,0.14999,16,-39522.46659642382,0.0008999999845400453,1561097980,,,,0,9.057427516195348,5,6.0,27.5,0.0,0.0,27.415531258301684,66.7128,I,
Raw,1677572464000,101258000000,18,48.87436616760102,-1361607580742000128,0.0,48.87436616760102,-1410.177709254532,0.0,0,39,0.0,47,202867875764498,235,31.799999237060547,-439.3762435952908,0.14999,17,-40503.11320035168,0.0008999999845400453,1575420030,,,,0,11.387674930421133,5,6.0,31.799999237060547,0.0,0.0,27.415531258301684,66.7128,C,
Raw,1677572464000,101258000000,18,48.87436616760102,-1361607580742000128,0.0,48.87436616760102,-1410.177709254532,0.0,0,24,0.0,17,720889,1837,25.299999237060547,-697.0151073641277,0.14999,16,-54009.93809174965,0.02250000089406967,1575420030,,,,0,0.0,5,6.0,25.299999237060547,0.0,0.0,27.415531258301684,66.7128,C,
Raw,1677572464000,101258000000,18,48.87436616760102,-1361607580742000128,0.0,48.87436616760102,-1410.177709254532,0.0,0,2,0.0,17,312503,235,27.0,-459.62213134765625,0.14999,16,-39874.61386808666,0.0008999999845400453,1561097980,,,,0,7.226066113968956,5,6.0,27.0,0.0,0.0,27.415531258301684,66.7128,I,
Raw,1677572464000,101258000000,18,48.87436616760102,-1361607580742000128,0.0,48.87436616760102,-1410.177709254532,0.0,0,25,0.0,47,202867911453578,487,17.899999618530273,-995.1868896484375,0.14999,17,-95101.52036150935,0.009999999776482582,1561097980,,,,0,0.0,5,6.0,17.899999618530273,0.0,0.0,27.415531258301684,66.7128,I,
Raw,1677572464000,101258000000,18,48.87436616760102,-1361607580742000128,0.0,48.87436616760102,-1410.177709254532,0.0,0,26,0.0,47,202881923058968,316,24.326000213623047,35.12781245619875,0.14999,20,2673.1106742738552,0.002025000052526593,1575420030,,,,0,4.086960372382148,1,6.0,24.326000213623047,0.0,0.0,0.0,66.7128,C,
Raw,1677572464000,101258000000,18,48.87436616760102,-1361607580742000128,0.0,48.87436616760102,-1410.177709254532,0.0,0,9,0.0,47,202867870895588,58,34.5,-481.9315490722656,0.14999,17,-46096.77158339572,0.00039999998989515007,1561097980,,,,0,16.894986982457223,5,6.0,34.5,0.0,0.0,27.415531258301684,66.7128,I,
Raw,1677572464000,101258000000,18,48.87436616760102,-1361607580742000128,0.0,48.87436616760102,-1410.177709254532,0.0,0,14,0.0,47,202867926964673,51,35.95500183105469,-700.9027709960938,0.14999,21,-68273.9500101264,0.00022499999613501132,1561097980,,,,0,18.826207821079247,5,6.0,35.95500183105469,0.0,0.0,27.415531258301684,66.7128,I,
Raw,1677572464000,101258000000,18,48.87436616760102,-1361607580742000128,0.0,48.87436616760102,-1410.177709254532,0.0,0,6,0.0,47,202881919153837,235,28.525999069213867,-243.8191574491854,0.14999,21,-25112.493360195218,0.0008999999845400453,1575420030,,,,0,9.723011425229254,1,6.0,28.525999069213867,0.0,0.0,0.0,66.7128,C,
Raw,1677572464000,101258000000,18,48.87436616760102,-1361607580742000128,0.0,48.87436616760102,-1410.177709254532,0.0,0,199,0.0,17,713353,487,19.0,-421.05894446071324,0.14999,17,-40133.06415377559,0.009999999776482582,1575420030,,,,0,0.0,4,6.0,19.0,0.0,,0.0,,C,
Raw,1677572464000,101258000000,18,48.87436616760102,-1361607580742000128,0.0,48.87436616760102,-1410.177709254532,0.0,0,33,0.0,47,202867919811163,316,37.76300048828125,-923.0302382610297,0.14999,20,-42449.63087285024,0.002025000052526593,1575420030,,,,0,7.447718083992989,5,6.0,37.76300048828125,0.0,0.0,27.415531258301684,66.7128,C,
Raw,1677572464000,101258000000,18,48.87436616760102,-1361607580742000128,0.0,48.87436616760102,-1410.177709254532,0.0,0,38,0.0,47,202867875266804,1837,26.413999557495117,-114.48617423197564,0.14999,17,-24957.84766570285,0.02250000089406967,1575420030,,,,0,0.0,5,6.0,26.413999557495117,0.0,0.0,27.415531258301684,66.7128,C,
Raw,1677572464000,101258000000,18,48.87436616760102,-1361607580742000128,0.0,48.87436616760102,-1410.177709254532,0.0,0,33,0.0,47,202867919811098,51,37.76300048828125,-918.5760498046875,0.14999,17,-76508.56833105435,0.00022499999613501132,1561097980,,,,0,18.79262830900624,5,6.0,37.76300048828125,0.0,0.0,27.415531258301684,66.7128,I,
Raw,1677572464000,101258000000,18,48.87436616760102,-1361607580742000128,0.0,48.87436616760102,-1410.177709254532,0.0,0,39,0.0,16905,202867875764453,74,31.799999237060547,-435.7366027832031,0.14999,21,-41489.71842904348,0.0006249999860301614,1561097980,,,,0,14.008629131593048,5,6.0,31.799999237060547,0.0,0.0,27.415531258301684,66.7128,I,
Raw,1677572464000,101258000000,18,48.87436616760102,-1361607580742000128,0.0,48.87436616760102,-1410.177709254532,0.0,0,42,0.0,47,202867927437261,74,32.400001525878906,-404.5416259765625,0.14999,17,-38915.59443698666,0.0006249999860301614,1561097980,,,,0,14.609838709358991,5,6.0,32.400001525878906,0.0,0.0,27.415531258301684,66.7128,I,
Raw,1677572464000,101258000000,18,48.87436616760102,-1361607580742000128,0.0,48.87436616760102,-1410.177709254532,0.0,0,38,0.0,47,202867875267037,316,26.413999557495117,-122.27406311035156,0.14999,17,-10245.478509068547,0.002025000052526593,1561097980,,,,0,5.798189449639595,5,6.0,26.413999557495117,0.0,0.0,27.415531258301684,66.7128,I,
Raw,1677572464000,101258000000,18,48.87436616760102,-1361607580742000128,0.0,48.87436616760102,-1410.177709254532,0.0,0,26,0.0,47,202867926584085,235,31.299999237060547,-179.84357217725554,0.14999,17,-28066.65098431202,0.0008999999845400453,1575420030,,,,0,9.651226804760377,5,6.0,31.299999237060547,0.0,0.0,27.415531258301684,66.7128,C,
Raw,1677572464000,101258000000,18,48.87436616760102,-1361607580742000128,0.0,48.87436616760102,-1410.177709254532,0.0,0,42,0.0,47,202867927437264,58,32.400001525878906,-404.92937214548994,0.14999,16,-39292.44242620806,0.00039999998989515007,1575420030,,,,0,14.74064388033032,5,6.0,32.400001525878906,0.0,0.0,27.415531258301684,66.7128,C,
Fix,FLP,-33.9166131000,151.2276679000,53.30000305175781,0.85501426,6.322,33.273823,1677572463995,,,41307128786611,1.4695697
Fix,FLP,-33.9166109000,151.2276738000,53.30000305175781,0.84768313,6.409,31.237436,1677572464548,,,41307681463548,1.3563213
Status,1677572463999,61,0,1,4,1575420030,42.60,170.0,67.0,1,0,0,42.6
Status,1677572463999,61,1,1,3,1575420030,17.80,358.0,55.0,1,0,0,17.8
Status,1677572463999,61,2,1,16,1575420030,26.70,93.0,54.0,1,0,0,26.7
Status,1677572463999,61,3,1,9,1575420030,29.60,224.0,43.0,1,0,0,29.6
Status,1677572463999,61,4,1,7,1575420030,35.60,284.0,33.0,1,0,0,35.6
Status,1677572463999,61,5,1,26,1575420030,30.30,131.0,28.0,1,0,0,30.3
Status,1677572463999,61,6,1,6,1575420030,24.90,253.0,12.0,1,0,0,24.9
Status,1677572463999,61,7,1,27,1575420030,0.00,63.0,7.0,0,0,0,0.0
Status,1677572463999,61,8,1,8,1575420030,0.00,33.0,2.0,0,0,0,0.0
Status,1677572463999,61,9,2,124,1575420030,0.00,0.0,0.0,0,0,0,0.0
Status,1677572463999,61,10,2,129,1575420030,0.00,0.0,0.0,0,0,0,0.0
Status,1677572463999,61,11,2,130,1575420030,0.00,0.0,0.0,0,0,0,0.0
Status,1677572463999,61,12,3,14,1602000000,34.70,300.0,85.0,0,0,0,34.7
Status,1677572463999,61,13,3,4,1602000000,30.80,190.0,58.0,0,0,0,30.8
Status,1677572463999,61,14,3,3,1602000000,22.10,73.0,55.0,0,0,0,22.1
Status,1677572463999,61,15,3,13,1602000000,18.20,149.0,32.0,0,0,0,18.2
Status,1677572463999,61,16,3,15,1602000000,28.30,326.0,30.0,0,0,0,28.3
Status,1677572463999,61,17,3,5,1602000000,0.00,217.0,12.0,0,0,0,0.0
Status,1677572463999,61,18,3,2,1602000000,0.00,50.0,7.0,0,0,0,0.0
Status,1677572463999,61,19,6,30,1575420030,0.00,31.0,63.0,0,0,0,0.0
Status,1677572463999,61,20,6,8,1575420030,27.10,99.0,56.0,1,0,0,27.1
Status,1677572463999,61,21,6,7,1575420030,33.20,213.0,55.0,1,0,0,33.2
Status,1677572463999,61,22,6,2,1575420030,0.00,126.0,42.0,0,0,0,0.0
Status,1677572463999,61,23,6,27,1575420030,0.00,342.0,19.0,0,0,0,0.0
Status,1677572463999,61,24,6,26,1575420030,36.40,273.0,13.0,1,0,0,36.4
Status,1677572463999,61,25,6,3,1575420030,0.00,72.0,11.0,0,0,0,0.0
Status,1677572463999,61,26,6,33,1575420030,0.00,228.0,5.0,0,0,0,0.0
Status,1677572463999,61,27,6,13,1575420030,0.00,322.0,5.0,0,0,0,0.0
Status,1677572463999,61,28,5,42,1561097980,38.40,88.0,88.0,1,0,0,38.4
Status,1677572463999,61,29,5,26,1561097980,36.10,139.0,67.0,1,0,0,36.1
Status,1677572463999,61,30,5,14,1561097980,27.00,221.0,62.0,1,0,0,27.0
Status,1677572463999,61,31,5,24,1561097980,28.40,312.0,61.0,1,0,0,28.4
Status,1677572463999,61,32,5,8,1561097980,17.60,288.0,51.0,1,0,0,17.6
Status,1677572463999,61,33,5,1,1561097980,0.00,348.0,50.0,0,0,0,0.0
Status,1677572463999,61,34,5,59,1561097980,0.00,340.0,50.0,0,0,0,0.0
Status,1677572463999,61,35,5,4,1561097980,0.00,15.0,49.0,0,0,0,0.0
Status,1677572463999,61,36,5,13,1561097980,27.30,272.0,48.0,1,0,0,27.3
Status,1677572463999,61,37,5,38,1561097980,26.50,310.0,46.0,1,0,0,26.5
Status,1677572463999,61,38,5,39,1561097980,37.10,245.0,46.0,1,0,0,37.1
Status,1677572463999,61,39,5,16,1561097980,33.70,256.0,38.0,1,0,0,33.7
Status,1677572463999,61,40,5,6,1561097980,29.00,259.0,36.0,1,0,0,29.0
Status,1677572463999,61,41,5,21,1561097980,0.00,45.0,34.0,0,0,0,0.0
Status,1677572463999,61,42,5,33,1561097980,29.60,223.0,34.0,1,0,0,29.6
Status,1677572463999,61,43,5,3,1561097980,27.40,302.0,32.0,1,0,0,27.4
Status,1677572463999,61,44,5,61,1561097980,0.00,303.0,30.0,0,0,0,0.0
Status,1677572463999,61,45,5,9,1561097980,35.80,269.0,22.0,1,0,0,35.8
Status,1677572463999,61,46,5,50,1561097980,0.00,220.0,14.0,0,0,0,0.0
Status,1677572463999,61,47,5,45,1561097980,0.00,135.0,12.0,0,0,0,0.0
Status,1677572463999,61,48,5,2,1561097980,0.00,282.0,11.0,0,0,0,0.0
Status,1677572463999,61,49,5,60,1561097980,0.00,281.0,7.0,0,0,0,0.0
Status,1677572463999,61,50,5,25,1561097980,17.90,313.0,5.0,1,0,0,17.9
Status,1677572463999,61,51,5,42,1575420030,36.90,88.0,88.0,1,0,0,36.9
Status,1677572463999,61,52,5,26,1575420030,29.50,139.0,67.0,1,0,0,29.5
Status,1677572463999,61,53,5,24,1575420030,8.90,312.0,61.0,1,0,0,8.9
Status,1677572463999,61,54,5,38,1575420030,10.70,310.0,46.0,1,0,0,10.7
Status,1677572463999,61,55,5,39,1575420030,25.70,245.0,46.0,1,0,0,25.7
Status,1677572463999,61,56,5,33,1575420030,24.10,223.0,34.0,1,0,0,24.1
Status,1677572463999,61,57,4,196,1575420030,25.00,341.0,71.0,0,0,0,25.0
Status,1677572463999,61,58,4,199,1575420030,25.00,321.0,43.0,0,0,0,25.0
Status,1677572463999,61,59,4,194,1575420030,17.00,345.0,32.0,0,0,0,17.0
Status,1677572463999,61,60,4,195,1575420030,17.00,348.0,10.0,0,0,0,17.0
Raw,1677572465000,102259000000,18,44.499384926395535,-1361607580741999872,0.0,44.499384926395535,-1410.273733427889,0.0,0,3,0.0,47,202882930370812,797,17.826000213623047,8.287345200468243,0.14999,16,2287.1083237240655,0.02250000089406967,1575420030,,,,0,0.0,1,6.0,17.826000213623047,0.0,0.0,0.0,66.7128,C,
Raw,1677572465000,102259000000,18,44.499384926395535,-1361607580741999872,0.0,44.499384926395535,-1410.273733427889,0.0,0,4,0.0,47,202882932238450,31,42.63999938964844,-501.2742781819097,0.14999,17,-48987.890639354344,0.00022499999613501132,1575420030,,,,0,25.588507272528904,1,6.0,42.63999938964844,0.0,0.0,0.0,66.7128,C,
Raw,1677572465000,102259000000,18,44.499384926395535,-1361607580741999872,0.0,44.499384926395535,-1410.273733427889,0.0,0,16,0.0,47,202882928731619,316,26.72599983215332,-397.34680111893556,0.14999,21,-38785.57996781676,0.002025000052526593,1575420030,,,,0,7.38556476234434,1,6.0,26.72599983215332,0.0,0.0,0.0,66.7128,C,
Raw,1677572465000,102259000000,18,44.499384926395535,-1361607580741999872,0.0,44.499384926395535,-1410.273733427889,0.0,0,194,0.0,17,56789,797,17.0,-838.4454440368158,0.14999,16,-82755.48047866026,0.02250000089406967,1575420030,,,,0,0.0,4,6.0,17.0,0.0,,0.0,,C,
Raw,1677572465000,102259000000,18,44.499384926395535,-1361607580741999872,0.0,44.499384926395535,-1410.273733427889,0.0,0,196,0.0,17,1924,316,25.0,-150.6588829271656,0.14999,17,-13254.088533822898,0.002025000052526593,1575420030,,,,0,5.590424899126399,4,6.0,25.0,0.0,,0.0,,C,
Raw,1677572465000,102259000000,18,44.499384926395535,-1361607580741999872,0.0,44.499384926395535,-1410.273733427889,0.0,0,24,0.0,47,202868926722908,316,28.399999618530273,-691.0213012695312,0.14999,20,-68186.20918810664,0.002025000052526593,1561097980,,,,0,10.171334265250794,5,6.0,28.399999618530273,0.0,0.0,27.303183189953206,66.7128,I,
Raw,1677572465000,102259000000,18,44.499384926395535,-1361607580741999872,0.0,44.499384926395535,-1410.273733427889,0.0,0,6,0.0,47,202868874081033,235,29.0,-444.7909851074219,0.14999,17,-42859.92047039298,0.0008999999845400453,1561097980,,,,0,10.799159425181191,5,6.0,29.0,0.0,0.0,27.303183189953206,66.7128,I,
Raw,1677572465000,102259000000,18,44.499384926395535,-1361607580741999872,0.0,44.499384926395535,-1410.273733427889,0.0,0,16,0.0,47,202868875411074,58,33.70000076293945,-449.36907958984375,0.14999,17,-43376.27248265531,0.00039999998989515007,1561097980,,,,0,16.09521663506998,5,6.0,33.70000076293945,0.0,0.0,27.303183189953206,66.7128,I,
Raw,1677572465000,102259000000,18,44.499384926395535,-1361607580741999872,0.0,44.499384926395535,-1410.273733427889,0.0,0,13,0.0,47,202868876821962,235,27.299999237060547,-214.56732177734375,0.14999,20,-19707.037086733213,0.0008999999845400453,1561097980,,,,0,8.864399802671732,5,6.0,27.299999237060547,0.0,0.0,27.303183189953206,66.7128,I,
Raw,1677572465000,102259000000,18,44.499384926395535,-1361607580741999872,0.0,44.499384926395535,-1410.273733427889,0.0,0,7,0.0,16431,202882920395500,58,33.20000076293945,-672.7640463943078,0.14999,25,-39948.29209347723,0.00039999998989515007,1575420030,,,,0,15.483589656075942,6,6.0,33.20000076293945,0.0,0.0,0.8589800619518722,66.7128,C,
Raw,1677572465000,102259000000,18,44.499384926395535,-1361607580741999872,0.0,44.499384926395535,-1410.273733427889,0.0,0,8,0.0,47,202868877734639,797,17.600000381469727,-177.19825744628906,0.14999,20,-16436.060875686995,0.02250000089406967,1561097980,,,,0,0.0,5,6.0,17.600000381469727,0.0,0.0,27.303183189953206,66.7128,I,
Raw,1677572465000,102259000000,18,44.499384926395535,-1361607580741999872,0.0,44.499384926395535,-1410.273733427889,0.0,0,14,0.0,17,146790,58,35.0,-462.74649579459015,0.14999,21,-45515.264904834126,0.00039999998989515007,1598062460,,,,0,17.16386676208809,3,6.0,35.0,0.0,0.0,83.82291044223415,66.7128,C,
Raw,1677572465000,102259000000,18,44.499384926395535,-1361607580741999872,0.0,44.499384926395535,-1410.273733427889,0.0,0,4,0.0,17,944261,74,34.70000076293945,-803.4983659840209,0.14999,20,-79550.22266505439,0.0006249999860301614,1605374980,,,,0,12.838630067313092,3,6.0,34.70000076293945,0.0,0.0,83.82291044223415,66.7128,C,
Raw,1677572465000,102259000000,18,44.499384926395535,-1361607580741999872,0.0,44.499384926395535,-1410.273733427889,0.0,0,3,0.0,17,161583,396,18.216999053955078,-144.40207350495763,0.14999,20,-17545.40046885616,0.004900000058114529,1604812540,,,,0,2.347711974357081,3,6.0,18.216999053955078,0.0,0.0,83.82291044223415,66.7128,C,
Raw,1677572465000,102259000000,18,44.499384926395535,-1361607580741999872,0.0,44.499384926395535,-1410.273733427889,0.0,0,13,0.0,17,974482,487,19.0,243.5126097024674,0.14999,20,-29724.169721222326,0.009999999776482582,1600875010,,,,0,0.0,3,6.0,19.0,0.0,0.0,83.82291044223415,66.7128,C,
Raw,1677572465000,102259000000,18,44.499384926395535,-1361607580741999872,0.0,44.499384926395535,-1410.273733427889,0.0,0,15,0.0,17,665439,396,21.0,-1088.893332194114,0.14999,17,-95546.67884775199,0.004900000058114529,1602000000,,,,0,10.060035473992798,3,6.0,21.0,0.0,0.0,83.82291044223415,66.7128,C,
Raw,1677572465000,102259000000,18,44.499384926395535,-1361607580741999872,0.0,44.499384926395535,-1410.273733427889,0.0,0,195,0.0,17,955906,797,17.0,-213.56764358765287,0.14999,17,-21538.949504052227,0.02250000089406967,1575420030,,,,0,0.0,4,6.0,17.0,0.0,,0.0,,C,
Raw,1677572465000,102259000000,18,44.499384926395535,-1361607580741999872,0.0,44.499384926395535,-1410.273733427889,0.0,0,9,0.0,47,202882927865686,235,29.573999404907227,-820.4287773135367,0.14999,17,-80895.59961926787,0.0008999999845400453,1575420030,,,,0,11.026129065483898,1,6.0,29.573999404907227,0.0,0.0,0.0,66.7128,C,
Raw,1677572465000,102259000000,18,44.499384926395535,-1361607580741999872,0.0,44.499384926395535,-1410.273733427889,0.0,0,7,0.0,47,202882927385416,51,35.630001068115234,-894.2408869036833,0.14999,17,-88418.40993357704,0.00022499999613501132,1575420030,,,,0,18.05723662461017,1,6.0,35.630001068115234,0.0,0.0,0.0,66.7128,C,
Raw,1677572465000,102259000000,18,44.499384926395535,-1361607580741999872,0.0,44.499384926395535,-1410.273733427889,0.0,0,26,0.0,47,202868927584679,51,36.099998474121094,-180.34378051757812,0.14999,17,-16533.291143898216,0.00022499999613501132,1561097980,,,,0,18.633180107555628,5,6.0,36.099998474121094,0.0,0.0,27.303183189953206,66.7128,I,
Raw,1677572465000,102259000000,18,44.499384926395535,-1361607580741999872,0.0,44.499384926395535,-1410.273733427889,0.0,0,3,0.0,47,202868873308967,316,27.420000076293945,-416.6940002441406,0.14999,16,-39940.674515569764,0.002025000052526593,1561097980,,,,0,7.226066113968956,5,6.0,27.420000076293945,0.0,0.0,27.303183189953206,66.7128,I,
Raw,1677572465000,102259000000,18,44.499384926395535,-1361607580741999872,0.0,44.499384926395535,-1410.273733427889,0.0,0,39,0.0,47,202868876765964,316,37.099998474121094,-441.6428103469543,0.14999,20,-40932.862857197535,0.002025000052526593,1575420030,,,,0,6.970351280499143,5,6.0,37.099998474121094,0.0,0.0,27.303183189953206,66.7128,C,
Raw,1677572465000,102259000000,18,44.499384926395535,-1361607580741999872,0.0,44.499384926395535,-1410.273733427889,0.0,0,24,0.0,47,202868926723206,1797,28.399999618530273,-696.0863571656629,0.14999,16,-54567.88194892186,0.02250000089406967,1575420030,,,,0,0.0,5,6.0,28.399999618530273,0.0,0.0,27.303183189953206,66.7128,C,
Raw,1677572465000,102259000000,18,44.499384926395535,-1361607580741999872,0.0,44.499384926395535,-1410.273733427889,0.0,0,2,0.0,17,313912,74,30.0,-454.728515625,0.14999,16,-40330.15377643897,0.0006249999860301614,1561097980,,,,0,12.005332371718378,5,6.0,30.0,0.0,0.0,27.303183189953206,66.7128,I,
Raw,1677572465000,102259000000,18,44.499384926395535,-1361607580741999872,0.0,44.499384926395535,-1410.273733427889,0.0,0,25,0.0,47,202868912456899,487,17.899999618530273,-994.7528076171875,0.14999,17,-96097.16339075618,0.009999999776482582,1561097980,,,,0,0.0,5,6.0,17.899999618530273,0.0,0.0,27.303183189953206,66.7128,I,
Raw,1677572465000,102259000000,18,44.499384926395535,-1361607580741999872,0.0,44.499384926395535,-1410.273733427889,0.0,0,26,0.0,16431,202882909183921,51,36.400001525878906,-66.37416361325565,0.14999,24,-39648.57892001658,0.00022499999613501132,1575420030,,,,0,18.974668293090986,6,6.0,36.400001525878906,0.0,0.0,0.8589800619518722,66.7128,C,
Raw,1677572465000,102259000000,18,44.499384926395535,-1361607580741999872,0.0,44.499384926395535,-1410.273733427889,0.0,0,26,0.0,47,202882924058851,74,30.325000762939453,35.777672782151754,0.14999,17,2708.790290064417,0.0006249999860301614,1575420030,,,,0,11.9402533274149,1,6.0,30.325000762939453,0.0,0.0,0.0,66.7128,C,
Raw,1677572465000,102259000000,18,44.499384926395535,-1361607580741999872,0.0,44.499384926395535,-1410.273733427889,0.0,0,9,0.0,47,202868871897195,51,35.79999923706055,-481.9183654785156,0.14999,17,-46578.86135265517,0.00022499999613501132,1561097980,,,,0,18.279768394799014,5,6.0,35.79999923706055,0.0,0.0,27.303183189953206,66.7128,I,
Raw,1677572465000,102259000000,18,44.499384926395535,-1361607580741999872,0.0,44.499384926395535,-1410.273733427889,0.0,0,14,0.0,47,202868927967012,235,27.0,-700.3504638671875,0.14999,20,-68975.49183673732,0.0008999999845400453,1561097980,,,,0,8.477514855328748,5,6.0,27.0,0.0,0.0,27.303183189953206,66.7128,I,
Raw,1677572465000,102259000000,18,44.499384926395535,-1361607580741999872,0.0,44.499384926395535,-1410.273733427889,0.0,0,6,0.0,47,202882920154651,316,24.88800048828125,-243.5409644529167,0.14999,20,-25355.922418634964,0.002025000052526593,1575420030,,,,0,4.871181958344911,1,6.0,24.88800048828125,0.0,0.0,0.0,66.7128,C,
Raw,1677572465000,102259000000,18,44.499384926395535,-1361607580741999872,0.0,44.499384926395535,-1410.273733427889,0.0,0,199,0.0,17,714761,316,25.0,-422.1165238473299,0.14999,17,-40555.106562627676,0.002025000052526593,1575420030,,,,0,5.62868879201201,4,6.0,25.0,0.0,,0.0,,C,
Raw,1677572465000,102259000000,18,44.499384926395535,-1361607580741999872,0.0,44.499384926395535,-1410.273733427889,0.0,0,33,0.0,47,202868920814241,487,29.600000381469727,-922.545305312624,0.14999,16,-43121.06287003914,0.009999999776482582,1575420030,,,,0,4.912741318195667,5,6.0,29.600000381469727,0.0,0.0,27.303183189953206,66.7128,C,
Raw,1677572465000,102259000000,18,44.499384926395535,-1361607580741999872,0.0,44.499384926395535,-1410.273733427889,0.0,0,38,0.0,47,202868876267236,1797,26.452999114990234,-114.05982534641153,0.14999,20,-25224.036240563626,0.02250000089406967,1575420030,,,,0,0.0,5,6.0,26.452999114990234,0.0,0.0,27.303183189953206,66.7128,C,
Raw,1677572465000,102259000000,18,44.499384926395535,-1361607580741999872,0.0,44.499384926395535,-1410.273733427889,0.0,0,33,0.0,47,202868920814162,74,29.600000381469727,-918.4146118164062,0.14999,21,-77427.70218116435,0.0006249999860301614,1561097980,,,,0,11.512383670147015,5,6.0,29.600000381469727,0.0,0.0,27.303183189953206,66.7128,I,
Raw,1677572465000,102259000000,18,44.499384926395535,-1361607580741999872,0.0,44.499384926395535,-1410.273733427889,0.0,0,39,0.0,16905,202868876765911,51,37.099998474121094,-436.1810302734375,0.14999,21,-41925.95906901564,0.00022499999613501132,1561097980,,,,0,19.70388902944773,5,6.0,37.099998474121094,0.0,0.0,27.303183189953206,66.7128,I,
Raw,1677572465000,102259000000,18,44.499384926395535,-1361607580741999872,0.0,44.499384926395535,-1410.273733427889,0.0,0,42,0.0,47,202868928438613,51,38.400001525878906,-404.9260559082031,0.14999,17,-39320.998597274716,0.00022499999613501132,1561097980,,,,0,21.046351227710343,5,6.0,38.400001525878906,0.0,0.0,27.303183189953206,66.7128,I,
Raw,1677572465000,102259000000,18,44.499384926395535,-1361607580741999872,0.0,44.499384926395535,-1410.273733427889,0.0,0,38,0.0,47,202868876267443,235,26.452999114990234,-122.1031723022461,0.14999,21,-10367.512221174493,0.0008999999845400453,1561097980,,,,0,8.760583152766303,5,6.0,26.452999114990234,0.0,0.0,27.303183189953206,66.7128,I,
Raw,1677572465000,102259000000,18,44.499384926395535,-1361607580741999872,0.0,44.499384926395535,-1410.273733427889,0.0,0,26,0.0,47,202868927584691,235,36.099998474121094,-180.5068589854934,0.14999,20,-28366.04923428796,0.0008999999845400453,1575420030,,,,0,11.466014939607255,5,6.0,36.099998474121094,0.0,0.0,27.303183189953206,66.7128,C,
Raw,1677572465000,102259000000,18,44.499384926395535,-1361607580741999872,0.0,44.499384926395535,-1410.273733427889,0.0,0,8,0.0,16431,202882920551402,235,27.100000381469727,-284.5181238021033,0.14999,25,-39700.87825672486,0.0008999999845400453,1575420030,,,,0,8.60562144924611,6,6.0,27.100000381469727,0.0,0.0,0.8589800619518722,66.7128,C,
Raw,1677572465000,102259000000,18,44.499384926395535,-1361607580741999872,0.0,44.499384926395535,-1410.273733427889,0.0,0,42,0.0,47,202868928438614,51,38.400001525878906,-404.9036806413255,0.14999,16,-39704.28159704088,0.00022499999613501132,1575420030,,,,0,19.469542730450367,5,6.0,38.400001525878906,0.0,0.0,27.303183189953206,66.7128,C,
Fix,GPS,-33.9165783333,151.2277750000,43.5,0.90230805,2.1,32.23,1677572465000,0.9,92.7,41308133000000,18.1
Fix,FLP,-33.9166043000,151.2276877000,53.30000305175781,0.8364878,6.77,31.975357,1677572465083,,,41308215236445,1.3663313
Status,1677572465000,61,0,1,4,1575420030,31.70,170.0,67.0,1,0,0,31.7
Status,1677572465000,61,1,1,3,1575420030,17.90,358.0,55.0,1,0,0,17.9
Status,1677572465000,61,2,1,16,1575420030,25.30,93.0,54.0,1,0,0,25.3
Status,1677572465000,61,3,1,9,1575420030,42.30,224.0,43.0,1,0,0,42.3
Status,1677572465000,61,4,1,7,1575420030,33.10,284.0,33.0,1,0,0,33.1
Status,1677572465000,61,5,1,26,1575420030,27.70,131.0,28.0,1,0,0,27.7
Status,1677572465000,61,6,1,6,1575420030,25.10,253.0,12.0,0,0,0,25.1
Status,1677572465000,61,7,1,27,1575420030,0.00,63.0,7.0,0,0,0,0.0
Status,1677572465000,61,8,1,8,1575420030,0.00,33.0,2.0,0,0,0,0.0
Status,1677572465000,61,9,2,124,1575420030,0.00,0.0,0.0,0,0,0,0.0
Status,1677572465000,61,10,2,129,1575420030,0.00,0.0,0.0,0,0,0,0.0
Status,1677572465000,61,11,2,130,1575420030,0.00,0.0,0.0,0,0,0,0.0
Status,1677572465000,61,12,3,14,1602000000,35.20,300.0,85.0,0,0,0,35.2
Status,1677572465000,61,13,3,4,1602000000,36.10,190.0,58.0,0,0,0,36.1
Status,1677572465000,61,14,3,3,1602000000,22.10,73.0,55.0,0,0,0,22.1
Status,1677572465000,61,15,3,13,1602000000,18.20,149.0,32.0,0,0,0,18.2
Status,1677572465000,61,16,3,15,1602000000,29.70,326.0,30.0,0,0,0,29.7
Status,1677572465000,61,17,3,5,1602000000,0.00,217.0,12.0,0,0,0,0.0
Status,1677572465000,61,18,3,2,1602000000,0.00,50.0,7.0,0,0,0,0.0
Status,1677572465000,61,19,6,30,1575420030,30.40,31.0,63.0,1,0,0,30.4
Status,1677572465000,61,20,6,8,1575420030,23.50,99.0,56.0,1,0,0,23.5
Status,1677572465000,61,21,6,7,1575420030,30.50,213.0,55.0,1,0,0,30.5
Status,1677572465000,61,22,6,2,1575420030,28.80,126.0,42.0,1,0,0,28.8
Status,1677572465000,61,23,6,27,1575420030,0.00,342.0,19.0,0,0,0,0.0
Status,1677572465000,61,24,6,26,1575420030,26.00,273.0,13.0,1,0,0,26.0
Status,1677572465000,61,25,6,3,1575420030,0.00,72.0,11.0,0,0,0,0.0
Status,1677572465000,61,26,6,33,1575420030,0.00,228.0,5.0,0,0,0,0.0
Status,1677572465000,61,27,6,13,1575420030,0.00,322.0,5.0,0,0,0,0.0
Status,1677572465000,61,28,5,42,1561097980,28.50,88.0,88.0,1,0,0,28.5
Status,1677572465000,61,29,5,26,1561097980,30.10,139.0,67.0,1,0,0,30.1
Status,1677572465000,61,30,5,14,1561097980,26.90,221.0,62.0,1,0,0,26.9
Status,1677572465000,61,31,5,24,1561097980,23.30,312.0,61.0,1,0,0,23.3
Status,1677572465000,61,32,5,8,1561097980,17.60,288.0,51.0,1,0,0,17.6
Status,1677572465000,61,33,5,1,1561097980,0.00,348.0,50.0,0,0,0,0.0
Status,1677572465000,61,34,5,59,1561097980,0.00,340.0,50.0,0,0,0,0.0
Status,1677572465000,61,35,5,4,1561097980,0.00,15.0,49.0,0,0,0,0.0
Status,1677572465000,61,36,5,13,1561097980,42.40,272.0,48.0,1,0,0,42.4
Status,1677572465000,61,37,5,38,1561097980,26.40,310.0,46.0,1,0,0,26.4
Status,1677572465000,61,38,5,39,1561097980,40.70,245.0,46.0,1,0,0,40.7
Status,1677572465000,61,39,5,16,1561097980,33.80,256.0,38.0,1,0,0,33.8
Status,1677572465000,61,40,5,6,1561097980,33.80,259.0,36.0,1,0,0,33.8
Status,1677572465000,61,41,5,21,1561097980,0.00,45.0,34.0,0,0,0,0.0
Status,1677572465000,61,42,5,33,1561097980,32.80,223.0,34.0,1,0,0,32.8
Status,1677572465000,61,43,5,3,1561097980,27.30,302.0,32.0,1,0,0,27.3
Status,1677572465000,61,44,5,61,1561097980,0.00,303.0,30.0,0,0,0,0.0
Status,1677572465000,61,45,5,9,1561097980,36.60,268.0,22.0,1,0,0,36.6
Status,1677572465000,61,46,5,50,1561097980,0.00,220.0,14.0,0,0,0,0.0
Status,1677572465000,61,47,5,45,1561097980,0.00,135.0,12.0,0,0,0,0.0
Status,1677572465000,61,48,5,2,1561097980,0.00,282.0,11.0,0,0,0,0.0
Status,1677572465000,61,49,5,60,1561097980,0.00,281.0,7.0,0,0,0,0.0
Status,1677572465000,61,50,5,25,1561097980,19.50,313.0,5.0,1,0,0,19.5
Status,1677572465000,61,51,5,42,1575420030,33.00,88.0,88.0,1,0,0,33.0
Status,1677572465000,61,52,5,26,1575420030,36.50,139.0,67.0,1,0,0,36.5
Status,1677572465000,61,53,5,24,1575420030,12.10,312.0,61.0,1,0,0,12.1
Status,1677572465000,61,54,5,38,1575420030,10.70,310.0,46.0,1,0,0,10.7
Status,1677572465000,61,55,5,39,1575420030,30.60,245.0,46.0,1,0,0,30.6
Status,1677572465000,61,56,5,33,1575420030,24.40,223.0,34.0,1,0,0,24.4
Status,1677572465000,61,57,4,196,1575420030,18.00,341.0,71.0,0,0,0,18.0
Status,1677572465000,61,58,4,199,1575420030,23.00,321.0,43.0,0,0,0,23.0
Status,1677572465000,61,59,4,194,1575420030,17.00,345.0,32.0,0,0,0,17.0
Status,1677572465000,61,60,4,195,1575420030,16.00,348.0,10.0,0,0,0,16.0
Fix,GPS,-33.9165716667,151.2277766667,43.2,0.8940725,2.0,34.78,1677572466000,0.9,112.8,41309133000000,17.1
Raw,1677572466000,103259000000,18,41.071183068213784,-1361607580741999872,0.0,41.071183068213784,-1411.5292701251965,0.0,0,3,0.0,47,202883930370786,797,17.8799991607666,7.381499001195167,0.14999,16,2294.977677240206,0.02250000089406967,1575420030,,,,0,0.0,1,6.0,17.8799991607666,0.0,0.0,0.0,66.7128,C,
Raw,1677572466000,103259000000,18,41.071183068213784,-1361607580741999872,0.0,41.071183068213784,-1411.5292701251965,0.0,0,4,0.0,47,202883932240123,74,31.663999557495117,-501.219828918111,0.14999,17,-49489.13083689069,0.0006249999860301614,1575420030,,,,0,13.537712957378867,1,6.0,31.663999557495117,0.0,0.0,0.0,66.7128,C,
Raw,1677572466000,103259000000,18,41.071183068213784,-1361607580741999872,0.0,41.071183068213784,-1411.5292701251965,0.0,0,16,0.0,47,202883928732946,487,25.312000274658203,-397.66480897789666,0.14999,17,-39183.25156794076,0.009999999776482582,1575420030,,,,0,5.47461132150849,1,6.0,25.312000274658203,0.0,0.0,0.0,66.7128,C,
Raw,1677572466000,103259000000,18,41.071183068213784,-1361607580741999872,0.0,41.071183068213784,-1411.5292701251965,0.0,0,194,0.0,17,59582,797,17.0,-837.756558641246,0.14999,17,-83593.65841464292,0.02250000089406967,1575420030,,,,0,0.0,4,6.0,17.0,0.0,,0.0,,C,
Raw,1677572466000,103259000000,18,41.071183068213784,-1361607580741999872,0.0,41.071183068213784,-1411.5292701251965,0.0,0,196,0.0,17,2426,487,18.0,-150.820279465081,0.14999,21,-13404.612701367687,0.009999999776482582,1575420030,,,,0,0.0,4,6.0,18.0,0.0,,0.0,,C,
Raw,1677572466000,103259000000,18,41.071183068213784,-1361607580741999872,0.0,41.071183068213784,-1411.5292701251965,0.0,0,24,0.0,47,202869926725213,396,23.299999237060547,-691.16552734375,0.14999,17,-68877.17320555233,0.004900000058114529,1561097980,,,,0,3.895469440468708,5,6.0,23.299999237060547,0.0,0.0,26.051757227097216,66.7128,I,
Raw,1677572466000,103259000000,18,41.071183068213784,-1361607580741999872,0.0,41.071183068213784,-1411.5292701251965,0.0,0,6,0.0,47,202869874082516,58,33.79999923706055,-445.6018371582031,0.14999,21,-43305.27363144076,0.00039999998989515007,1561097980,,,,0,16.18453248260909,5,6.0,33.79999923706055,0.0,0.0,26.051757227097216,66.7128,I,
Raw,1677572466000,103259000000,18,41.071183068213784,-1361607580741999872,0.0,41.071183068213784,-1411.5292701251965,0.0,0,16,0.0,47,202869875412544,58,33.79999923706055,-450.0951843261719,0.14999,21,-43826.004888949035,0.00039999998989515007,1561097980,,,,0,16.18453248260909,5,6.0,33.79999923706055,0.0,0.0,26.051757227097216,66.7128,I,
Raw,1677572466000,103259000000,18,41.071183068213784,-1361607580741999872,0.0,41.071183068213784,-1411.5292701251965,0.0,0,13,0.0,47,202869876822681,31,42.400001525878906,-214.85159301757812,0.14999,17,-19921.802326304427,0.00022499999613501132,1561097980,,,,0,25.12398989488531,5,6.0,42.400001525878906,0.0,0.0,26.051757227097216,66.7128,I,
Raw,1677572466000,103259000000,18,41.071183068213784,-1361607580741999872,0.0,41.071183068213784,-1411.5292701251965,0.0,0,7,0.0,16431,202883920397747,74,30.5,-673.4615730552929,0.14999,29,-40621.11333839922,0.0006249999860301614,1575420030,,,,0,12.58064976607537,6,6.0,30.5,0.0,0.0,2.8328091621177305,66.7128,C,
Raw,1677572466000,103259000000,18,41.071183068213784,-1361607580741999872,0.0,41.071183068213784,-1411.5292701251965,0.0,0,8,0.0,16431,202883920552385,316,23.5,-284.390084407027,0.14999,24,-40093.82077336056,0.002025000052526593,1575420030,,,,0,4.132436338242216,6,6.0,23.5,0.0,0.0,2.8328091621177305,66.7128,C,
Raw,1677572466000,103259000000,18,41.071183068213784,-1361607580741999872,0.0,41.071183068213784,-1411.5292701251965,0.0,0,8,0.0,47,202869877735233,487,17.600000381469727,-178.61521911621094,0.14999,16,-16614.160711366272,0.009999999776482582,1561097980,,,,0,0.0,5,6.0,17.600000381469727,0.0,0.0,26.051757227097216,66.7128,I,
Raw,1677572466000,103259000000,18,41.071183068213784,-1361607580741999872,0.0,41.071183068213784,-1411.5292701251965,0.0,0,14,0.0,17,148336,58,35.0,-462.8829802711597,0.14999,17,-45978.13640309106,0.00039999998989515007,1598062460,,,,0,17.652617155050816,3,6.0,35.0,0.0,0.0,83.82291044223415,66.7128,C,
Raw,1677572466000,103259000000,18,41.071183068213784,-1361607580741999872,0.0,41.071183068213784,-1411.5292701251965,0.0,0,4,0.0,17,946941,51,35.20000076293945,-803.8501503044448,0.14999,17,-80354.37344263782,0.00022499999613501132,1605374980,,,,0,18.647133346922647,3,6.0,35.20000076293945,0.0,0.0,83.82291044223415,66.7128,C,
Raw,1677572466000,103259000000,18,41.071183068213784,-1361607580741999872,0.0,41.071183068213784,-1411.5292701251965,0.0,0,3,0.0,17,162063,396,18.19099998474121,-142.79566263447026,0.14999,16,-17689.22080940851,0.004900000058114529,1604812540,,,,0,2.347711974357081,3,6.0,18.19099998474121,0.0,0.0,83.82291044223415,66.7128,C,
Raw,1677572466000,103259000000,18,41.071183068213784,-1361607580741999872,0.0,41.071183068213784,-1411.5292701251965,0.0,0,13,0.0,17,973667,797,17.0,244.190495632581,0.14999,16,-29480.278746261298,0.02250000089406967,1600875010,,,,0,0.0,3,6.0,17.0,0.0,0.0,83.82291044223415,66.7128,C,
Raw,1677572466000,103259000000,18,41.071183068213784,-1361607580741999872,0.0,41.071183068213784,-1411.5292701251965,0.0,0,15,0.0,17,669075,74,30.0,-1090.3613658136583,0.14999,17,-96636.88050925633,0.0006249999860301614,1602000000,,,,0,11.681335200895846,3,6.0,30.0,0.0,0.0,83.82291044223415,66.7128,C,
Raw,1677572466000,103259000000,18,41.071183068213784,-1361607580741999872,0.0,41.071183068213784,-1411.5292701251965,0.0,0,195,0.0,17,956617,797,16.0,-212.53252684527396,0.14999,21,-21752.018511868722,0.02250000089406967,1575420030,,,,0,0.0,4,6.0,16.0,0.0,,0.0,,C,
Raw,1677572466000,103259000000,18,41.071183068213784,-1361607580741999872,0.0,41.071183068213784,-1411.5292701251965,0.0,0,9,0.0,47,202883927868414,31,42.25400161743164,-820.9475319889435,0.14999,17,-81716.75414623662,0.00022499999613501132,1575420030,,,,0,25.1841655695428,1,6.0,42.25400161743164,0.0,0.0,0.0,66.7128,C,
Raw,1677572466000,103259000000,18,41.071183068213784,-1361607580741999872,0.0,41.071183068213784,-1411.5292701251965,0.0,0,7,0.0,47,202883927388403,58,33.06999969482422,-894.3929917583566,0.14999,17,-89312.85494084604,0.00039999998989515007,1575420030,,,,0,15.171113886405259,1,6.0,33.06999969482422,0.0,0.0,0.0,66.7128,C,
Raw,1677572466000,103259000000,18,41.071183068213784,-1361607580741999872,0.0,41.071183068213784,-1411.5292701251965,0.0,0,26,0.0,47,202869927585281,74,30.100000381469727,-180.74240112304688,0.14999,21,-16713.81201453268,0.0006249999860301614,1561097980,,,,0,12.053122806657996,5,6.0,30.100000381469727,0.0,0.0,26.051757227097216,66.7128,I,
Raw,1677572466000,103259000000,18,41.071183068213784,-1361607580741999872,0.0,41.071183068213784,-1411.5292701251965,0.0,0,3,0.0,47,202869873310358,396,27.30900001525879,-419.49395751953125,0.14999,16,-40358.57133047858,0.004900000058114529,1561097980,,,,0,6.3253992444143625,5,6.0,27.30900001525879,0.0,0.0,26.051757227097216,66.7128,I,
Raw,1677572466000,103259000000,18,41.071183068213784,-1361607580741999872,0.0,41.071183068213784,-1411.5292701251965,0.0,0,39,0.0,47,202869876767425,58,40.70000076293945,-438.7635500023062,0.14999,16,-41362.04664934344,0.00039999998989515007,1575420030,,,,0,12.699869730815326,5,6.0,40.70000076293945,0.0,0.0,26.051757227097216,66.7128,C,
Raw,1677572466000,103259000000,18,41.071183068213784,-1361607580741999872,0.0,41.071183068213784,-1411.5292701251965,0.0,0,2,0.0,16431,202883917564503,235,28.799999237060547,-145.9576164155726,0.14999,25,-40081.59530211143,0.0008999999845400453,1575420030,,,,0,10.60593155331117,6,6.0,28.799999237060547,0.0,0.0,2.8328091621177305,66.7128,C,
Raw,1677572466000,103259000000,18,41.071183068213784,-1361607580741999872,0.0,41.071183068213784,-1411.5292701251965,0.0,0,24,0.0,47,202869926725510,1837,23.299999237060547,-696.1814110852297,0.14999,17,-55124.81884196142,0.02250000089406967,1575420030,,,,0,0.0,5,6.0,23.299999237060547,0.0,0.0,26.051757227097216,66.7128,C,
Raw,1677572466000,103259000000,18,41.071183068213784,-1361607580741999872,0.0,41.071183068213784,-1411.5292701251965,0.0,0,25,0.0,47,202869912460201,487,19.5,-994.5145874023438,0.14999,21,-97091.83884874306,0.009999999776482582,1561097980,,,,0,0.0,5,6.0,19.5,0.0,0.0,26.051757227097216,66.7128,I,
Raw,1677572466000,103259000000,18,41.071183068213784,-1361607580741999872,0.0,41.071183068213784,-1411.5292701251965,0.0,0,26,0.0,16431,202883909184144,316,26.0,-66.3532573259609,0.14999,25,-39714.718160347344,0.002025000052526593,1575420030,,,,0,7.3229634849637275,6,6.0,26.0,0.0,0.0,2.8328091621177305,66.7128,C,
Raw,1677572466000,103259000000,18,41.071183068213784,-1361607580741999872,0.0,41.071183068213784,-1411.5292701251965,0.0,0,26,0.0,47,202883924058733,316,27.70400047302246,35.56535782006959,0.14999,21,2744.2404576387644,0.002025000052526593,1575420030,,,,0,8.68654647224377,1,6.0,27.70400047302246,0.0,0.0,0.0,66.7128,C,
Raw,1677572466000,103259000000,18,41.071183068213784,-1361607580741999872,0.0,41.071183068213784,-1411.5292701251965,0.0,0,9,0.0,47,202869871898802,51,36.599998474121094,-482.12225341796875,0.14999,21,-47060.94860652432,0.00022499999613501132,1561097980,,,,0,19.174532202533253,5,6.0,36.599998474121094,0.0,0.0,26.051757227097216,66.7128,I,
Raw,1677572466000,103259000000,18,41.071183068213784,-1361607580741999872,0.0,41.071183068213784,-1411.5292701251965,0.0,0,14,0.0,47,202869927969348,316,26.915000915527344,-701.7559204101562,0.14999,16,-69676.80467169936,0.002025000052526593,1561097980,,,,0,6.41707175381089,5,6.0,26.915000915527344,0.0,0.0,26.051757227097216,66.7128,I,
Raw,1677572466000,103259000000,18,41.071183068213784,-1361607580741999872,0.0,41.071183068213784,-1411.5292701251965,0.0,0,6,0.0,17,155468,396,25.075000762939453,-245.23767227134178,0.14999,17,-25600.403425091514,0.004900000058114529,1575420030,,,,0,5.158006262084393,1,6.0,25.075000762939453,0.0,0.0,0.0,66.7128,C,
Raw,1677572466000,103259000000,18,41.071183068213784,-1361607580741999872,0.0,41.071183068213784,-1411.5292701251965,0.0,0,199,0.0,17,716170,396,23.0,-422.2855860239201,0.14999,20,-40977.290569734585,0.004900000058114529,1575420030,,,,0,2.9693569996066667,4,6.0,23.0,0.0,,0.0,,C,
Raw,1677572466000,103259000000,18,41.071183068213784,-1361607580741999872,0.0,41.071183068213784,-1411.5292701251965,0.0,0,33,0.0,47,202869920817291,316,32.79999923706055,-920.6637394560972,0.14999,16,-43790.87877808949,0.002025000052526593,1575420030,,,,0,5.278089598278197,5,6.0,32.79999923706055,0.0,0.0,26.051757227097216,66.7128,C,
Raw,1677572466000,103259000000,18,41.071183068213784,-1361607580741999872,0.0,41.071183068213784,-1411.5292701251965,0.0,0,38,0.0,47,202869876267617,797,26.354999542236328,-113.80848531471251,0.14999,16,-25490.255993638486,0.02250000089406967,1575420030,,,,0,0.0,5,6.0,26.354999542236328,0.0,0.0,26.051757227097216,66.7128,C,
Raw,1677572466000,103259000000,18,41.071183068213784,-1361607580741999872,0.0,41.071183068213784,-1411.5292701251965,0.0,0,33,0.0,47,202869920817218,58,32.79999923706055,-918.1856079101562,0.14999,21,-78345.86139801535,0.00039999998989515007,1561097980,,,,0,15.063745545968835,5,6.0,32.79999923706055,0.0,0.0,26.051757227097216,66.7128,I,
Raw,1677572466000,103259000000,18,41.071183068213784,-1361607580741999872,0.0,41.071183068213784,-1411.5292701251965,0.0,0,39,0.0,16905,202869876767370,42,40.70000076293945,-436.5237121582031,0.14999,21,-42362.22289517166,0.00022499999613501132,1561097980,,,,0,23.461162591908217,5,6.0,40.70000076293945,0.0,0.0,26.051757227097216,66.7128,I,
Raw,1677572466000,103259000000,18,41.071183068213784,-1361607580741999872,0.0,41.071183068213784,-1411.5292701251965,0.0,0,42,0.0,47,202869928439964,235,28.5,-404.8941650390625,0.14999,17,-39726.0079261476,0.0008999999845400453,1561097980,,,,0,10.259666107583756,5,6.0,28.5,0.0,0.0,26.051757227097216,66.7128,I,
Raw,1677572466000,103259000000,18,41.071183068213784,-1361607580741999872,0.0,41.071183068213784,-1411.5292701251965,0.0,0,30,0.0,16431,202883920354396,74,30.399999618530273,-676.2866628866395,0.14999,25,-40253.61277405166,0.0006249999860301614,1575420030,,,,0,12.407445828777385,6,6.0,30.399999618530273,0.0,0.0,2.8328091621177305,66.7128,C,
Raw,1677572466000,103259000000,18,41.071183068213784,-1361607580741999872,0.0,41.071183068213784,-1411.5292701251965,0.0,0,38,0.0,47,202869876267850,316,26.354999542236328,-122.1261215209961,0.14999,20,-10489.482479577939,0.002025000052526593,1561097980,,,,0,5.402566204360148,5,6.0,26.354999542236328,0.0,0.0,26.051757227097216,66.7128,I,
Raw,1677572466000,103259000000,18,41.071183068213784,-1361607580741999872,0.0,41.071183068213784,-1411.5292701251965,0.0,0,26,0.0,47,202869927585292,51,30.100000381469727,-180.51817160984066,0.14999,16,-28665.296435147695,0.00022499999613501132,1575420030,,,,0,18.991079993085652,5,6.0,30.100000381469727,0.0,0.0,26.051757227097216,66.7128,C,
Raw,1677572466000,103259000000,18,41.071183068213784,-1361607580741999872,0.0,41.071183068213784,-1411.5292701251965,0.0,0,42,0.0,47,202869928439963,58,28.5,-404.9077225235358,0.14999,16,-40115.8163943694,0.00039999998989515007,1575420030,,,,0,15.297456326879109,5,6.0,28.5,0.0,0.0,26.051757227097216,66.7128,C,
Fix,FLP,-33.9166023000,151.2276956000,53.30000305175781,0.83368444,7.009,31.966497,1677572465616,,,41308749009480,1.3763313
Fix,NLP,-33.9167010000,151.2273470000,,,15.0,,1677572466528,,,41309661380361,
Status,1677572466000,61,0,1,4,1575420030,40.30,170.0,67.0,1,0,0,40.3
Status,1677572466000,61,1,1,3,1575420030,17.80,358.0,55.0,1,0,0,17.8
Status,1677572466000,61,2,1,16,1575420030,24.40,93.0,54.0,1,0,0,24.4
Status,1677572466000,61,3,1,9,1575420030,37.30,224.0,43.0,1,0,0,37.3
Status,1677572466000,61,4,1,7,1575420030,30.70,284.0,33.0,1,0,0,30.7
Status,1677572466000,61,5,1,26,1575420030,23.80,131.0,28.0,1,0,0,23.8
Status,1677572466000,61,6,1,6,1575420030,28.10,253.0,12.0,1,0,0,28.1
Status,1677572466000,61,7,1,27,1575420030,0.00,63.0,7.0,0,0,0,0.0
Status,1677572466000,61,8,1,8,1575420030,0.00,33.0,2.0,0,0,0,0.0
Status,1677572466000,61,9,2,124,1575420030,0.00,0.0,0.0,0,0,0,0.0
Status,1677572466000,61,10,2,129,1575420030,0.00,0.0,0.0,0,0,0,0.0
Status,1677572466000,61,11,2,130,1575420030,0.00,0.0,0.0,0,0,0,0.0
Status,1677572466000,61,12,3,14,1602000000,29.30,300.0,85.0,0,0,0,29.3
Status,1677572466000,61,13,3,4,1602000000,28.00,190.0,58.0,0,0,0,28.0
Status,1677572466000,61,14,3,3,1602000000,23.90,73.0,55.0,0,0,0,23.9
Status,1677572466000,61,15,3,13,1602000000,18.20,149.0,32.0,0,0,0,18.2
Status,1677572466000,61,16,3,15,1602000000,31.70,326.0,30.0,0,0,0,31.7
Status,1677572466000,61,17,3,5,1602000000,0.00,217.0,12.0,0,0,0,0.0
Status,1677572466000,61,18,3,2,1602000000,0.00,50.0,7.0,0,0,0,0.0
Status,1677572466000,61,19,6,30,1575420030,30.00,31.0,63.0,1,0,0,30.0
Status,1677572466000,61,20,6,8,1575420030,29.30,99.0,56.0,1,0,0,29.3
Status,1677572466000,61,21,6,7,1575420030,36.90,213.0,55.0,1,0,0,36.9
Status,1677572466000,61,22,6,2,1575420030,22.80,126.0,42.0,1,0,0,22.8
Status,1677572466000,61,23,6,27,1575420030,19.60,342.0,19.0,1,0,0,19.6
Status,1677572466000,61,24,6,26,1575420030,29.50,273.0,13.0,1,0,0,29.5
Status,1677572466000,61,25,6,3,1575420030,0.00,72.0,11.0,0,0,0,0.0
Status,1677572466000,61,26,6,33,1575420030,0.00,228.0,5.0,0,0,0,0.0
Status,1677572466000,61,27,6,13,1575420030,0.00,322.0,5.0,0,0,0,0.0
Status,1677572466000,61,28,5,42,1561097980,36.90,88.0,88.0,1,0,0,36.9
Status,1677572466000,61,29,5,26,1561097980,40.50,139.0,67.0,1,0,0,40.5
Status,1677572466000,61,30,5,14,1561097980,26.90,221.0,62.0,1,0,0,26.9
Status,1677572466000,61,31,5,24,1561097980,23.20,312.0,61.0,1,0,0,23.2
Status,1677572466000,61,32,5,8,1561097980,17.60,288.0,51.0,1,0,0,17.6
Status,1677572466000,61,33,5,1,1561097980,0.00,348.0,50.0,0,0,0,0.0
Status,1677572466000,61,34,5,59,1561097980,0.00,340.0,50.0,0,0,0,0.0
Status,1677572466000,61,35,5,4,1561097980,0.00,15.0,49.0,0,0,0,0.0
Status,1677572466000,61,36,5,13,1561097980,31.80,272.0,48.0,1,0,0,31.8
Status,1677572466000,61,37,5,38,1561097980,26.30,310.0,46.0,1,0,0,26.3
Status,1677572466000,61,38,5,39,1561097980,37.90,245.0,46.0,1,0,0,37.9
Status,1677572466000,61,39,5,16,1561097980,36.40,256.0,38.0,1,0,0,36.4
Status,1677572466000,61,40,5,6,1561097980,33.80,259.0,36.0,1,0,0,33.8
Status,1677572466000,61,41,5,21,1561097980,0.00,45.0,34.0,0,0,0,0.0
Status,1677572466000,61,42,5,33,1561097980,31.30,223.0,34.0,1,0,0,31.3
Status,1677572466000,61,43,5,3,1561097980,22.90,302.0,32.0,1,0,0,22.9
Status,1677572466000,61,44,5,61,1561097980,0.00,303.0,30.0,0,0,0,0.0
Status,1677572466000,61,45,5,9,1561097980,33.80,268.0,22.0,1,0,0,33.8
Status,1677572466000,61,46,5,50,1561097980,0.00,220.0,14.0,0,0,0,0.0
Status,1677572466000,61,47,5,45,1561097980,0.00,135.0,12.0,0,0,0,0.0
Status,1677572466000,61,48,5,2,1561097980,0.00,282.0,11.0,0,0,0,0.0
Status,1677572466000,61,49,5,60,1561097980,0.00,281.0,7.0,0,0,0,0.0
Status,1677572466000,61,50,5,25,1561097980,20.80,313.0,5.0,1,0,0,20.8
Status,1677572466000,61,51,5,42,1575420030,35.30,88.0,88.0,1,0,0,35.3
Status,1677572466000,61,52,5,26,1575420030,37.30,139.0,67.0,1,0,0,37.3
Status,1677572466000,61,53,5,24,1575420030,12.10,312.0,61.0,1,0,0,12.1
Status,1677572466000,61,54,5,38,1575420030,10.70,310.0,46.0,1,0,0,10.7
Status,1677572466000,61,55,5,39,1575420030,32.40,245.0,46.0,1,0,0,32.4
Status,1677572466000,61,56,5,33,1575420030,24.40,223.0,34.0,1,0,0,24.4
Status,1677572466000,61,57,4,196,1575420030,22.00,341.0,71.0,0,0,0,22.0
Status,1677572466000,61,58,4,199,1575420030,18.00,321.0,43.0,0,0,0,18.0
Status,1677572466000,61,59,4,194,1575420030,16.00,345.0,32.0,0,0,0,16.0
Status,1677572466000,61,60,4,195,1575420030,17.00,348.0,10.0,0,0,0,17.0
Fix,GPS,-33.9165700000,151.2277700000,43.2,0.83796775,2.0,2.66,1677572467000,0.8,143.3,41310133000000,16.3
Raw,1677572467000,104259000000,18,40.30858388751952,-1361607580741999872,0.0,40.30858388751952,-1411.5721135449808,0.0,0,3,0.0,47,202884930370761,797,17.799999237060547,8.058955626377237,0.14999,17,2302.6748364985183,0.02250000089406967,1575420030,,,,0,0.0,1,6.0,17.799999237060547,0.0,0.0,0.0,66.7128,C,
Raw,1677572467000,104259000000,18,40.30858388751952,-1361607580741999872,0.0,40.30858388751952,-1411.5721135449808,0.0,0,4,0.0,47,202884932241798,42,40.30699920654297,-501.52403862745757,0.14999,17,-49990.56888244157,0.00022499999613501132,1575420030,,,,0,23.126095247017705,1,6.0,40.30699920654297,0.0,0.0,0.0,66.7128,C,
Raw,1677572467000,104259000000,18,40.30858388751952,-1361607580741999872,0.0,40.30858388751952,-1411.5721135449808,0.0,0,16,0.0,47,202884928734259,396,24.354999542236328,-397.6404183093861,0.14999,17,-39580.85456544771,0.004900000058114529,1575420030,,,,0,4.132436338242216,1,6.0,24.354999542236328,0.0,0.0,0.0,66.7128,C,
Raw,1677572467000,104259000000,18,40.30858388751952,-1361607580741999872,0.0,40.30858388751952,-1411.5721135449808,0.0,0,194,0.0,17,62375,797,16.0,-838.0913379884591,0.14999,20,-84431.56548838991,0.02250000089406967,1575420030,,,,0,0.0,4,6.0,16.0,0.0,,0.0,,C,
Raw,1677572467000,104259000000,18,40.30858388751952,-1361607580741999872,0.0,40.30858388751952,-1411.5721135449808,0.0,0,196,0.0,17,2924,396,22.0,-150.9146597376127,0.14999,20,-13555.315303116333,0.004900000058114529,1575420030,,,,0,1.6260987935496067,4,6.0,22.0,0.0,,0.0,,C,
Raw,1677572467000,104259000000,18,40.30858388751952,-1361607580741999872,0.0,40.30858388751952,-1411.5721135449808,0.0,0,24,0.0,47,202870926727519,487,23.235000610351562,-691.263427734375,0.14999,21,-69568.3386003552,0.009999999776482582,1561097980,,,,0,2.145690660818883,5,6.0,23.235000610351562,0.0,0.0,25.76236252445111,66.7128,I,
Raw,1677572467000,104259000000,18,40.30858388751952,-1361607580741999872,0.0,40.30858388751952,-1411.5721135449808,0.0,0,27,0.0,16431,202884910907222,487,19.600000381469727,-1001.0879966749925,0.14999,25,-41363.49561910925,0.009999999776482582,1575420030,,,,0,0.0,6,6.0,19.600000381469727,0.0,0.0,3.027287220774863,66.7128,C,
Raw,1677572467000,104259000000,18,40.30858388751952,-1361607580741999872,0.0,40.30858388751952,-1411.5721135449808,0.0,0,6,0.0,47,202870874084003,58,33.845001220703125,-445.601806640625,0.14999,17,-43750.81714316422,0.00039999998989515007,1561097980,,,,0,17.15062607410019,5,6.0,33.845001220703125,0.0,0.0,25.76236252445111,66.7128,I,
Raw,1677572467000,104259000000,18,40.30858388751952,-1361607580741999872,0.0,40.30858388751952,-1411.5721135449808,0.0,0,16,0.0,47,202870875414040,51,36.400001525878906,-450.10797119140625,0.14999,17,-44276.01067568745,0.00022499999613501132,1561097980,,,,0,18.96202277364094,5,6.0,36.400001525878906,0.0,0.0,25.76236252445111,66.7128,I,
